{"version": 0.6, "generator": "Overpass API 0.7.62.11 87bfad18", "osm3s": {"timestamp_osm_base": "2026-05-16T05:36:37Z", "copyright": "The data included in this document is from www.openstreetmap.org. The data is made available under ODbL."}, "elements": [{"type": "node", "id": 198534324, "lat": 6.9773138, "lon": 80.7649851, "tags": {"addr:city": "Nuwara Eliya", "amenity": "place_of_worship", "denomination": "catholic", "name": "St. Francis Xavier Church", "religion": "christian"}}, {"type": "node", "id": 873842127, "lat": 6.9721688, "lon": 80.7811686, "tags": {"addr:city": "Hawaeliya", "amenity": "place_of_worship", "building": "mosque", "name": "Jumma Masjid", "religion": "muslim"}}, {"type": "node", "id": 1176188761, "lat": 7.170952, "lon": 80.5750237, "tags": {"addr:city": "Gampola", "addr:street": "Peradeniya-Badulla-Chenkaladi Road", "amenity": "place_of_worship", "name": "Kahapitiya Jummah Masjid", "religion": "muslim"}}, {"type": "node", "id": 1743126531, "lat": 7.2339083, "lon": 80.5650427, "tags": {"amenity": "place_of_worship", "name": "Lankatilaka Raja Maha Viharaya", "religion": "buddhist"}}, {"type": "node", "id": 1743126585, "lat": 7.2180409, "lon": 80.5678466, "tags": {"addr:city": "Embekka", "amenity": "place_of_worship", "name": "Embekka Devale", "religion": "buddhist"}}, {"type": "node", "id": 1743126596, "lat": 7.25727, "lon": 80.5561355, "tags": {"addr:city": "Gadaladeniya", "amenity": "place_of_worship", "name": "Gadaladeniya Temple", "religion": "buddhist"}}, {"type": "node", "id": 1809677835, "lat": 7.325143, "lon": 80.5852192, "tags": {"amenity": "place_of_worship", "name": "Malagammana Raja Maha Viharaya", "religion": "buddhist"}}, {"type": "node", "id": 1819857994, "lat": 6.8310086, "lon": 80.9911688, "tags": {"amenity": "place_of_worship", "name": "St. Anthony's Church", "religion": "christian"}}, {"type": "node", "id": 1820042928, "lat": 6.8210828, "lon": 80.892434, "tags": {"amenity": "place_of_worship", "name": "Hinnarangolla Temple", "religion": "buddhist"}}, {"type": "node", "id": 1821073124, "lat": 6.8868706, "lon": 80.8766626, "tags": {"amenity": "place_of_worship", "name": "Erabedda Ancient Temple", "religion": "buddhist"}}, {"type": "node", "id": 1821136023, "lat": 6.9027835, "lon": 80.8849721, "tags": {"addr:street": "Peradeniya-Badulla-Chenkaladi Road", "amenity": "place_of_worship", "name": "Diurumwela Raja Maha Viharaya", "religion": "buddhist"}}, {"type": "node", "id": 1830386908, "lat": 6.8922522, "lon": 80.6000142, "tags": {"amenity": "place_of_worship", "name": "Nigrodharamaya", "religion": "buddhist"}}, {"type": "node", "id": 1830386963, "lat": 6.8918527, "lon": 80.5990674, "tags": {"amenity": "place_of_worship", "name": "Hatton Jumma Mosque", "religion": "muslim"}}, {"type": "node", "id": 1830502789, "lat": 7.1688567, "lon": 80.5731707, "tags": {"addr:city": "Gampola", "addr:street": "Zahira College Rd", "amenity": "place_of_worship", "name": "Jummah Masjid", "religion": "muslim"}}, {"type": "node", "id": 1834911275, "lat": 7.0696004, "lon": 80.6044187, "tags": {"addr:city": "Kothmale", "amenity": "place_of_worship", "name": "Mahaweli Maha Seya", "religion": "buddhist"}}, {"type": "node", "id": 1836349756, "lat": 7.3781717, "lon": 80.5865834, "tags": {"addr:city": "Poojapitiya", "amenity": "place_of_worship", "name": "Poojapitiya Bomaluwa Purana Viharaya", "religion": "buddhist"}}, {"type": "node", "id": 1837320419, "lat": 7.2893343, "lon": 80.6377987, "tags": {"addr:city": "kandy", "addr:street": "Rajapihilla Mawatha", "amenity": "place_of_worship", "name": "Sangaraja Temple", "religion": "buddhist"}}, {"type": "node", "id": 1837320502, "lat": 7.2899166, "lon": 80.6413477, "tags": {"addr:city": "Kandy", "addr:street": "Sangaraja Mawatha", "amenity": "place_of_worship", "name": "Malwathu Maha Viharaya", "name:si": "\u0db8\u0dbd\u0dca\u0dc0\u0dad\u0dd4 \u0db8\u0dc4\u0dcf \u0dc0\u0dd2\u0dc4\u0dcf\u0dbb\u0dba", "religion": "buddhist", "wheelchair": "no", "wikidata": "Q48730974", "wikipedia": "en:Malwathu Maha Viharaya"}}, {"type": "node", "id": 1837354601, "lat": 7.2847664, "lon": 80.6625974, "tags": {"amenity": "place_of_worship", "name": "Tennekumbura Temple", "religion": "buddhist"}}, {"type": "node", "id": 1855295785, "lat": 7.2641396, "lon": 80.5903255, "tags": {"amenity": "place_of_worship", "name": "Sri Subodharamaya", "religion": "buddhist"}}, {"type": "node", "id": 1855295950, "lat": 7.2662504, "lon": 80.5853963, "tags": {"amenity": "place_of_worship", "name": "Develkona Temple", "religion": "buddhist"}}, {"type": "node", "id": 1974698334, "lat": 7.338709, "lon": 80.989639, "tags": {"amenity": "place_of_worship", "name": "Sri Maha Bodhi Maha Seya", "religion": "buddhist"}}, {"type": "node", "id": 1974700355, "lat": 7.3539596, "lon": 80.9922353, "tags": {"amenity": "place_of_worship", "name": "Sorabora Shri Ashokaramaya", "religion": "buddhist"}}, {"type": "node", "id": 2035855626, "lat": 6.9933462, "lon": 80.8210305, "tags": {"addr:city": "Kandapola", "amenity": "place_of_worship", "name": "Kandapola Temple", "religion": "buddhist"}}, {"type": "node", "id": 2035867687, "lat": 6.9981223, "lon": 80.8239648, "tags": {"addr:city": "Kandapola CP", "amenity": "place_of_worship", "name": "Kandapola Kovil", "religion": "hindu"}}, {"type": "node", "id": 2266649539, "lat": 6.971953, "lon": 80.7667673, "tags": {"addr:city": "Nuwara Eliya", "addr:street": "Queen Elizabeth Drive", "amenity": "place_of_worship", "religion": "buddhist"}}, {"type": "node", "id": 2312756052, "lat": 7.292364, "lon": 80.8548938, "tags": {"amenity": "place_of_worship", "name": "Jethawanarama Viharaya", "religion": "buddhist"}}, {"type": "node", "id": 2334181690, "lat": 7.3126473, "lon": 80.7601502, "tags": {"amenity": "place_of_worship", "name": "Karaliyadda Sri Uposatharamaya", "religion": "buddhist"}}, {"type": "node", "id": 2334189771, "lat": 7.3045676, "lon": 80.7662361, "tags": {"amenity": "place_of_worship", "name": "Nalanda Purana Viharaya", "religion": "buddhist"}}, {"type": "node", "id": 2335184190, "lat": 7.2856701, "lon": 80.6765323, "tags": {"amenity": "place_of_worship", "name": "Galmaduwa Raja Maha Viharaya", "religion": "buddhist"}}, {"type": "node", "id": 2340345038, "lat": 7.2905149, "lon": 80.724391, "tags": {"addr:city": "Kengalla", "amenity": "place_of_worship", "name": "Sri Jayanthiyaramaya", "religion": "buddhist"}}, {"type": "node", "id": 2340345041, "lat": 7.2915552, "lon": 80.7234978, "tags": {"addr:city": "Kengalla", "amenity": "place_of_worship", "name": "Sri Bodhimalu Viharaya", "religion": "buddhist"}}, {"type": "node", "id": 2341606403, "lat": 7.2834193, "lon": 80.7181977, "tags": {"amenity": "place_of_worship", "name": "Balagolla Temple", "religion": "buddhist"}}, {"type": "node", "id": 2341663990, "lat": 7.2817697, "lon": 80.6991862, "tags": {"amenity": "place_of_worship", "name": "Pallekele Devanampiyatissa Int. Meditation Centre", "religion": "buddhist"}}, {"type": "node", "id": 2343115507, "lat": 7.3044937, "lon": 80.6781641, "tags": {"amenity": "place_of_worship", "name": "Gal Edanda Purana Viharaya", "religion": "buddhist"}}, {"type": "node", "id": 2343128711, "lat": 7.3045275, "lon": 80.6644773, "tags": {"alt_name": "Degaldoruwa Cave Temple", "amenity": "place_of_worship", "name": "Degaldoruwa Raja Maha Viharaya", "religion": "buddhist"}}, {"type": "node", "id": 2343202793, "lat": 7.3131028, "lon": 80.6956789, "tags": {"addr:city": "Walala", "amenity": "place_of_worship", "name": "Pitiye Bandara Dewalaya"}}, {"type": "node", "id": 2343202843, "lat": 7.3158509, "lon": 80.7006546, "tags": {"addr:city": "Menikhinna", "amenity": "place_of_worship", "name": "Menikhinna Pothgul Viharaya", "religion": "buddhist"}}, {"type": "node", "id": 2343202849, "lat": 7.312475, "lon": 80.693324, "tags": {"addr:city": "Walala", "amenity": "place_of_worship", "name": "Galpihilla Raja Maha Viharaya", "religion": "buddhist"}}, {"type": "node", "id": 2343202852, "lat": 7.3038525, "lon": 80.685744, "tags": {"amenity": "place_of_worship", "name": "Hathamuna Bodhirajaramaya", "religion": "buddhist"}}, {"type": "node", "id": 2343216540, "lat": 7.3208235, "lon": 80.6560293, "tags": {"addr:city": "Polgolla", "amenity": "place_of_worship", "name": "Welipela Purana Viharya", "religion": "buddhist"}}, {"type": "node", "id": 2351939474, "lat": 7.2848507, "lon": 80.7036719, "tags": {"amenity": "place_of_worship", "name": "Sri Silaramaya", "religion": "buddhist"}}, {"type": "node", "id": 2382151960, "lat": 7.2939869, "lon": 80.6491257, "tags": {"amenity": "place_of_worship", "check_date": "2025-01-02", "name": "Sri Wardanaramaya", "religion": "buddhist"}}, {"type": "node", "id": 2387209530, "lat": 7.2757062, "lon": 80.6707843, "tags": {"amenity": "place_of_worship", "name": "Gospel Church", "religion": "christian"}}, {"type": "node", "id": 2712296566, "lat": 7.3469423, "lon": 80.8065902, "tags": {"amenity": "place_of_worship", "religion": "hindu"}}, {"type": "node", "id": 2714473161, "lat": 6.9332089, "lon": 80.8106456, "tags": {"addr:city": "Nuwara Eliya", "addr:street": "Nuwara Eliya - Badulla Road", "alt_name": "Sriramajayam", "amenity": "place_of_worship", "building": "temple", "name": "Seetha Amman Kovil", "religion": "hindu", "wikipedia": "si:\u0dc3\u0dd3\u0dad\u0dcf \u0d85\u0db8\u0dca\u0db8\u0dcf\u0db1\u0dca \u0d9a\u0ddd\u0dc0\u0dd2\u0dbd", "wikipedia:en": "Seetha Amman Temple"}}, {"type": "node", "id": 2897255612, "lat": 6.8903383, "lon": 80.9240253, "tags": {"amenity": "place_of_worship", "religion": "muslim"}}, {"type": "node", "id": 2897261313, "lat": 6.8939631, "lon": 80.9220036, "tags": {"addr:street": "Bandarawela-Welimada Road", "amenity": "place_of_worship", "name": "Dhambawinna Purana Rajamaha Viharaya", "religion": "buddhist"}}, {"type": "node", "id": 2898916899, "lat": 7.2561544, "lon": 80.5509258, "tags": {"amenity": "place_of_worship", "name": "Kahambe Budu Madura", "religion": "buddhist"}}, {"type": "node", "id": 2907601248, "lat": 7.2643765, "lon": 80.5508911, "tags": {"addr:city": "Pilimathalawa", "amenity": "place_of_worship", "name": "Paranagala Rajamaha Viharaya", "religion": "buddhist"}}, {"type": "node", "id": 2908730451, "lat": 7.2164754, "lon": 80.5872779, "tags": {"amenity": "place_of_worship", "name": "Nikatenna Temple"}}, {"type": "node", "id": 2908817146, "lat": 7.2714139, "lon": 80.5641156, "tags": {"amenity": "place_of_worship", "name": "Ranawana Rajamaha Viharaya", "religion": "buddhist"}}, {"type": "node", "id": 3071494848, "lat": 7.1347746, "lon": 80.5698023, "tags": {"addr:city": "Ethgala", "amenity": "place_of_worship", "name": "Ethgala Sri Bhodirajaramaya", "religion": "buddhist"}}, {"type": "node", "id": 3071495024, "lat": 7.1387703, "lon": 80.5698314, "tags": {"amenity": "place_of_worship", "name": "sri sumanaramaya", "religion": "buddhist"}}, {"type": "node", "id": 3074335297, "lat": 7.2789912, "lon": 80.617337, "tags": {"amenity": "place_of_worship", "check_date": "2025-07-12", "name": "Mulgampola Bodhiya", "religion": "buddhist"}}, {"type": "node", "id": 3074557097, "lat": 7.2818592, "lon": 80.6038215, "tags": {"addr:street": "Peradeniya - Halloluwa - Katugastota;Katugasthota-Halloluwa-Peradeniya road", "amenity": "place_of_worship", "name": "Seemamalakaya", "religion": "buddhist"}}, {"type": "node", "id": 3074749005, "lat": 7.3706275, "lon": 80.5421798, "tags": {"addr:place": "Galamuduna", "addr:postcode": "Harankahawa", "addr:street": "Golagammana", "amenity": "place_of_worship", "name": "Galamuduna Rajamaha Viharaya", "religion": "buddhist"}}, {"type": "node", "id": 3074749007, "lat": 7.3721683, "lon": 80.5463171, "tags": {"addr:place": "Dodandastenna Temple", "addr:street": "Gallalagama", "amenity": "place_of_worship", "name": "Dodangastenna Rajamaha Viharaya", "religion": "buddhist"}}, {"type": "node", "id": 3151891438, "lat": 7.2375071, "lon": 80.6103677, "tags": {"amenity": "place_of_worship", "name": "Dhamma Kuta Vipassana Meditation Centre", "religion": "buddhist", "website": "https://www.dhamma.org/en/schedules/schkuta"}}, {"type": "node", "id": 3217332433, "lat": 7.1477456, "lon": 80.6188802, "tags": {"amenity": "place_of_worship", "religion": "buddhist"}}, {"type": "node", "id": 3237439550, "lat": 7.2411484, "lon": 80.5436356, "tags": {"addr:city": "Wattappola", "amenity": "place_of_worship", "name": "Gallengolla Raja Maha Viharaya", "religion": "buddhist"}}, {"type": "node", "id": 3237453482, "lat": 7.2164779, "lon": 80.5658082, "tags": {"amenity": "place_of_worship", "name": "Lihiniyagoda Temple", "religion": "buddhist"}}, {"type": "node", "id": 3237459380, "lat": 7.2113717, "lon": 80.5658118, "tags": {"addr:city": "Buwelikada", "amenity": "place_of_worship", "name": "Sri Bodhirajarama Viharaya", "religion": "buddhist"}}, {"type": "node", "id": 3237459437, "lat": 7.2056525, "lon": 80.5642344, "tags": {"addr:city": "Galkaduva", "amenity": "place_of_worship", "name": "Sri Gautama Viharaya", "religion": "buddhist"}}, {"type": "node", "id": 3237466320, "lat": 7.2080071, "lon": 80.5803008, "tags": {"addr:city": "Talawatura", "amenity": "place_of_worship", "name": "Talawatura Hathnagoda Raja Maha Viharaya", "religion": "buddhist"}}, {"type": "node", "id": 3237492330, "lat": 7.2671451, "lon": 80.5523537, "tags": {"addr:city": "Pilimathalawa", "amenity": "place_of_worship", "name": "Dheerananda Pirivena", "religion": "buddhist"}}, {"type": "node", "id": 3237492395, "lat": 7.2708005, "lon": 80.5535839, "tags": {"addr:city": "Pilimatalawa", "amenity": "place_of_worship", "name": "Giragama Bodhimalakaramaya", "religion": "buddhist"}}, {"type": "node", "id": 3237620330, "lat": 7.2844172, "lon": 80.6228465, "tags": {"amenity": "place_of_worship", "name": "Lighthouse Church", "religion": "christian"}}, {"type": "node", "id": 3292287755, "lat": 7.2276064, "lon": 80.6039699, "tags": {"amenity": "place_of_worship", "religion": "buddhist"}}, {"type": "node", "id": 3372792212, "lat": 6.8948876, "lon": 80.5967408, "tags": {"amenity": "place_of_worship", "denomination": "roman_catholic", "religion": "christian"}}, {"type": "node", "id": 3385743311, "lat": 6.9762703, "lon": 80.7657186, "tags": {"addr:city": "Nuwara Eliya", "amenity": "place_of_worship", "name": "Al Kabeer Grand Mosque", "religion": "muslim"}}, {"type": "node", "id": 3390839425, "lat": 6.9540084, "lon": 80.7784118, "tags": {"addr:city": "Nuwara Eliya", "addr:street": "Abhayapura Road", "amenity": "place_of_worship", "name": "Monastery", "religion": "buddhist"}}, {"type": "node", "id": 3392125633, "lat": 6.9492095, "lon": 80.7900643, "tags": {"addr:city": "Nuwara Eliya", "amenity": "place_of_worship", "name": "Sri Senanandaramaya", "religion": "buddhist"}}, {"type": "node", "id": 3393421745, "lat": 6.9561151, "lon": 80.7968695, "tags": {"addr:city": "Nuwara Eliya", "amenity": "place_of_worship", "name": "Sandatenna Temple", "religion": "buddhist"}}, {"type": "node", "id": 3393421914, "lat": 6.9668261, "lon": 80.7886249, "tags": {"addr:city": "Hawaeliya", "amenity": "place_of_worship", "name": "Ashokaramaya", "religion": "buddhist"}}, {"type": "node", "id": 3393441943, "lat": 6.9727538, "lon": 80.7831784, "tags": {"addr:city": "Hawaeliya", "amenity": "place_of_worship", "denomination": "hindu", "name": "Hindu Kovil", "religion": "hindu"}}, {"type": "node", "id": 3412729975, "lat": 7.2891104, "lon": 80.7607461, "tags": {"amenity": "place_of_worship", "denomination": "theravada", "name": "Bambaragala Raja Maha Viharaya", "religion": "buddhist", "wheelchair": "no"}}, {"type": "node", "id": 3415307826, "lat": 7.2996967, "lon": 80.6402092, "tags": {"addr:city": "Kandy", "addr:street": "Thapowana Ramaya, Sri Dalada Thapowana Vihara Rd,", "amenity": "place_of_worship", "denomination": "theravada", "name": "Thapowanaramaya Viharaya", "religion": "buddhist"}}, {"type": "node", "id": 3517327375, "lat": 6.8829626, "lon": 80.6915719, "tags": {"amenity": "place_of_worship", "name": "Holbrook Temple", "religion": "buddhist"}}, {"type": "node", "id": 3572540093, "lat": 7.3761264, "lon": 80.5428466, "tags": {"amenity": "place_of_worship", "name": "Pussegoda"}}, {"type": "node", "id": 3586133305, "lat": 6.8511887, "lon": 80.9783695, "tags": {"amenity": "place_of_worship", "religion": "buddhist"}}, {"type": "node", "id": 3586133502, "lat": 6.8642379, "lon": 80.9824615, "tags": {"amenity": "place_of_worship", "religion": "buddhist"}}, {"type": "node", "id": 3590180941, "lat": 7.0777478, "lon": 80.9096217, "tags": {"amenity": "place_of_worship", "name": "Dabare Temple", "religion": "buddhist"}}, {"type": "node", "id": 3590215203, "lat": 7.0762386, "lon": 80.8919202, "tags": {"addr:city": "Nildandahinna", "addr:district": "Nuwara Eliya", "amenity": "place_of_worship", "name": "Sri Abhinawaramaya", "religion": "buddhist"}}, {"type": "node", "id": 3591361124, "lat": 7.1897584, "lon": 80.7578951, "tags": {"amenity": "place_of_worship", "name": "Kahambiliyawa Sri Sumangalaramaya", "religion": "buddhist"}}, {"type": "node", "id": 3598718188, "lat": 7.3870429, "lon": 80.6071399, "tags": {"addr:street": "Neeralla Melchena Rd", "amenity": "place_of_worship", "name": "Dippitiya Chandrajothi Viharaya", "religion": "buddhist"}}, {"type": "node", "id": 3616464613, "lat": 7.3757884, "lon": 80.6466117, "tags": {"amenity": "place_of_worship", "name": "Dunuwila Rajamaha Viharaya", "religion": "buddhist"}}, {"type": "node", "id": 3620054996, "lat": 7.2489385, "lon": 80.5896291, "tags": {"amenity": "place_of_worship", "name": "Sangabogama Temple", "religion": "buddhist"}}, {"type": "node", "id": 3629106378, "lat": 7.305918, "lon": 80.6698736, "tags": {"amenity": "place_of_worship", "name": "Sri Jayasundararamaya", "religion": "buddhist"}}, {"type": "node", "id": 3630535211, "lat": 7.2772961, "lon": 80.6353079, "tags": {"amenity": "place_of_worship", "name": "Sri Dharmarama Temple", "religion": "buddhist"}}, {"type": "node", "id": 3631625049, "lat": 7.2757949, "lon": 80.6315034, "tags": {"amenity": "place_of_worship", "name": "Thapodaramaya", "religion": "buddhist"}}, {"type": "node", "id": 3632296074, "lat": 7.2778936, "lon": 80.6338545, "tags": {"amenity": "place_of_worship", "religion": "muslim"}}, {"type": "node", "id": 3652833478, "lat": 7.3994005, "lon": 80.5085633, "tags": {"amenity": "place_of_worship", "religion": "buddhist"}}, {"type": "node", "id": 3658007752, "lat": 7.3320957, "lon": 80.722491, "tags": {"amenity": "place_of_worship", "name": "Liyangaswathura Temple", "religion": "buddhist"}}, {"type": "node", "id": 3666039020, "lat": 6.8190575, "lon": 80.9941236, "tags": {"amenity": "place_of_worship", "check_date": "2026-01-31", "name": "Kebillawela Temple", "religion": "buddhist"}}, {"type": "node", "id": 3666039825, "lat": 6.8324665, "lon": 80.8928786, "tags": {"amenity": "place_of_worship", "name": "Awasa Temple", "religion": "buddhist"}}, {"type": "node", "id": 3666076014, "lat": 6.8358414, "lon": 80.975955, "tags": {"amenity": "place_of_worship", "religion": "buddhist"}}, {"type": "node", "id": 3718207704, "lat": 7.2807678, "lon": 80.8066653, "tags": {"addr:street": "Kandy - Mahiyanganaya- Padiyathalawa Road", "amenity": "place_of_worship", "name": "Ganadevi Kovil", "religion": "hindu"}}, {"type": "node", "id": 3718210822, "lat": 7.280257, "lon": 80.8073224, "tags": {"addr:street": "Kandy - Mahiyanganaya- Padiyathalawa Road", "amenity": "place_of_worship", "name": "Sri Murugan Kovil", "religion": "hindu"}}, {"type": "node", "id": 3718210823, "lat": 7.2807013, "lon": 80.8073854, "tags": {"addr:street": "Kandy - Mahiyanganaya- Padiyathalawa Road", "amenity": "place_of_worship", "name": "Vishnu Kovila", "religion": "hindu"}}, {"type": "node", "id": 3729749696, "lat": 7.3270434, "lon": 80.5968925, "tags": {"amenity": "place_of_worship", "name": "Uyanwatta Temple", "religion": "buddhist"}}, {"type": "node", "id": 3732893843, "lat": 7.3224339, "lon": 80.6041958, "tags": {"addr:street": "Katugasthota-Kurunegala-Puttalam Road", "amenity": "place_of_worship", "name": "Sri sanghabodhi Temple", "religion": "buddhist"}}, {"type": "node", "id": 3734068891, "lat": 7.2952486, "lon": 80.8188921, "tags": {"amenity": "place_of_worship", "name": "Namadagala Temple", "religion": "buddhist"}}, {"type": "node", "id": 3734068892, "lat": 7.3092575, "lon": 80.8089723, "tags": {"amenity": "place_of_worship", "name": "Sri Jamburukkharamaya", "religion": "buddhist"}}, {"type": "node", "id": 3738701029, "lat": 7.2633017, "lon": 80.5690295, "tags": {"amenity": "place_of_worship", "name": "Heeressagala Ancient Temple", "religion": "buddhist"}}, {"type": "node", "id": 3738701039, "lat": 7.2681688, "lon": 80.5755, "tags": {"amenity": "place_of_worship", "name": "Paladawa Purana Viharaya", "religion": "buddhist"}}, {"type": "node", "id": 3742321974, "lat": 7.2695018, "lon": 80.6639318, "tags": {"amenity": "place_of_worship", "name": "Divrum Bodhiya", "religion": "buddhist"}}, {"type": "node", "id": 3742468236, "lat": 7.2501451, "lon": 80.7374347, "tags": {"amenity": "place_of_worship", "name": "Anuragama Temple", "religion": "buddhist"}}, {"type": "node", "id": 3748992917, "lat": 6.9908778, "lon": 80.559935, "tags": {"amenity": "place_of_worship", "name": "St Joseph Moscati Church", "religion": "christian"}}, {"type": "node", "id": 3749250993, "lat": 7.015001, "lon": 80.5333842, "tags": {"addr:city": "Nawalapitiya", "addr:street": "Galboda Road", "amenity": "place_of_worship", "name": "Siri Amaragiri Viharasthanaya"}}, {"type": "node", "id": 3750079032, "lat": 7.0570102, "lon": 80.5323199, "tags": {"addr:city": "Nawalapitiya", "amenity": "place_of_worship", "name": "Sri Kaveeshwara Veluwanaramaya", "religion": "buddhist"}}, {"type": "node", "id": 3750186771, "lat": 7.1611161, "lon": 80.547108, "tags": {"amenity": "place_of_worship", "name": "Ambuluwawa Temple", "religion": "buddhist"}}, {"type": "node", "id": 3750339681, "lat": 7.1296407, "lon": 80.5234146, "tags": {"addr:city": "kuruduwatta", "amenity": "place_of_worship", "name": "Talihunna Temple", "religion": "buddhist"}}, {"type": "node", "id": 3755864739, "lat": 7.1621703, "lon": 80.5693551, "tags": {"addr:city": "Gampola", "addr:street": "Gampola-Nawalapitiya Road", "amenity": "place_of_worship", "name": "St. Andrew's Church", "religion": "christian"}}, {"type": "node", "id": 3755864742, "lat": 7.1651488, "lon": 80.5680216, "tags": {"addr:city": "Gampola", "addr:street": "Ambagamuwa Road", "amenity": "place_of_worship", "name": "St. Joseph's Church", "religion": "christian"}}, {"type": "node", "id": 3756799324, "lat": 7.1930379, "lon": 80.5885998, "tags": {"addr:street": "Talawathura-Weligalla Road", "amenity": "place_of_worship", "name": "Uda aludeniya Raja maha viharaya"}}, {"type": "node", "id": 3756803073, "lat": 7.1930898, "lon": 80.5757373, "tags": {"amenity": "place_of_worship", "name": "Wegiriya Viharaya & Meditation Centre"}}, {"type": "node", "id": 3756803076, "lat": 7.1974694, "lon": 80.5679038, "tags": {"addr:street": "weligalla-Ganhata Rd", "amenity": "place_of_worship", "name": "Sri Janalankara Viharaya", "religion": "buddhist"}}, {"type": "node", "id": 3756819880, "lat": 7.1960365, "lon": 80.5964765, "tags": {"amenity": "place_of_worship", "name": "Sri Boderukkaramaya Delgahapiteya", "religion": "buddhist"}}, {"type": "node", "id": 3756819881, "lat": 7.1932264, "lon": 80.5930165, "tags": {"amenity": "place_of_worship", "name": "Sri Bodhimalu Purana Viharaya", "religion": "buddhist"}}, {"type": "node", "id": 3756837258, "lat": 7.204718, "lon": 80.5893256, "tags": {"amenity": "place_of_worship", "name": "Kotakedeniya Raja Maha Viharaya", "religion": "buddhist"}}, {"type": "node", "id": 3756850504, "lat": 7.1868979, "lon": 80.5980273, "tags": {"addr:city": "Weligalla", "amenity": "place_of_worship", "name": "Pothgul Viharaya, Weligalle", "religion": "buddhist"}}, {"type": "node", "id": 3756881293, "lat": 7.2031323, "lon": 80.5978189, "tags": {"amenity": "place_of_worship", "name": "Pitawalawatta Paspilima Viharaya", "religion": "buddhist"}}, {"type": "node", "id": 3756881298, "lat": 7.2097742, "lon": 80.5999989, "tags": {"amenity": "place_of_worship", "name": "New Elpitiya Temple"}}, {"type": "node", "id": 3756987073, "lat": 7.2140118, "lon": 80.5970498, "tags": {"addr:city": "Gelioya", "addr:street": "Gelioya-Buwelikada Road", "amenity": "place_of_worship", "name": "Sri Janaranjanaramaya", "religion": "buddhist"}}, {"type": "node", "id": 3756991935, "lat": 7.2209451, "lon": 80.5981742, "tags": {"addr:street": "peradeniya-Badulla Road", "amenity": "place_of_worship", "name": "Karamada Sri Weluwanaramaya", "religion": "buddhist"}}, {"type": "node", "id": 3757059541, "lat": 7.2438977, "lon": 80.5797237, "tags": {"addr:street": "Penideniya-Daulagala Road", "amenity": "place_of_worship", "name": "Thotadeniya Temple", "religion": "buddhist"}}, {"type": "node", "id": 3757059610, "lat": 7.2288946, "lon": 80.5806957, "tags": {"amenity": "place_of_worship", "name": "Handessa Viharaya", "religion": "buddhist"}}, {"type": "node", "id": 3757087059, "lat": 7.2181146, "lon": 80.5848216, "tags": {"amenity": "place_of_worship", "name": "Thelambugala Temple", "religion": "buddhist"}}, {"type": "node", "id": 3758573837, "lat": 7.2342091, "lon": 80.5801184, "tags": {"amenity": "place_of_worship", "name": "Naranwala Temple", "religion": "buddhist"}}, {"type": "node", "id": 3758573846, "lat": 7.2356247, "lon": 80.5774335, "tags": {"amenity": "place_of_worship", "name": "Imbuldeniya Sri Punyawardhanaramaya", "religion": "buddhist"}}, {"type": "node", "id": 3758657240, "lat": 7.2385386, "lon": 80.5760473, "tags": {"addr:street": "Naranwala - Pamunuwa Rd", "amenity": "place_of_worship", "name": "Alapalawala Sri Sasanodaya Pirivena", "religion": "buddhist"}}, {"type": "node", "id": 3758657241, "lat": 7.2482126, "lon": 80.5805402, "tags": {"addr:street": "Penideniya-Daulagala Road", "amenity": "place_of_worship", "name": "Hendeniya Temple", "religion": "buddhist"}}, {"type": "node", "id": 3758716318, "lat": 7.2554466, "lon": 80.5751558, "tags": {"amenity": "place_of_worship", "name": "Bandara Uyana Buddhist Centre", "religion": "buddhist"}}, {"type": "node", "id": 3758716319, "lat": 7.2524288, "lon": 80.5711537, "tags": {"amenity": "place_of_worship", "name": "Keliyalpitiya Purana Raja Maha Wiharaya", "religion": "buddhist"}}, {"type": "node", "id": 3758716501, "lat": 7.2523052, "lon": 80.5594916, "tags": {"addr:street": "gadaladeniya Road", "amenity": "place_of_worship", "name": "Sri Bodhirathna Rajaramaya", "religion": "buddhist"}}, {"type": "node", "id": 3758716778, "lat": 7.247053, "lon": 80.5618031, "tags": {"amenity": "place_of_worship", "name": "Pamunuwa Temple", "religion": "buddhist"}}, {"type": "node", "id": 3758716779, "lat": 7.2449297, "lon": 80.5608482, "tags": {"amenity": "place_of_worship", "name": "Bodhimalu Viharaya", "religion": "buddhist"}}, {"type": "node", "id": 3758752417, "lat": 7.2089928, "lon": 80.5735835, "tags": {"amenity": "place_of_worship", "name": "Ketakumbura Sri Bodhirukkaramaya", "religion": "buddhist"}}, {"type": "node", "id": 3758758574, "lat": 7.2058581, "lon": 80.5787736, "tags": {"amenity": "place_of_worship", "name": "menikbowa purana viharaya", "religion": "buddhist"}}, {"type": "node", "id": 3758758589, "lat": 7.20085, "lon": 80.5728968, "tags": {"amenity": "place_of_worship", "name": "Vegirikanda Rajamaha Viharaya", "religion": "buddhist"}}, {"type": "node", "id": 3769925196, "lat": 7.0511887, "lon": 80.5147518, "tags": {"amenity": "place_of_worship", "name": "Uthpalawannaramaya", "religion": "buddhist"}}, {"type": "node", "id": 3769938221, "lat": 7.0269417, "lon": 80.514239, "tags": {"amenity": "place_of_worship", "name": "Sri Dharmaraja Temple", "religion": "buddhist"}}, {"type": "node", "id": 3769938223, "lat": 7.0490563, "lon": 80.5237233, "tags": {"amenity": "place_of_worship", "name": "Ashokaramaya", "religion": "buddhist"}}, {"type": "node", "id": 3769940194, "lat": 7.0526951, "lon": 80.5294525, "tags": {"addr:city": "Nawalapitiya", "amenity": "place_of_worship", "name": "Jethawana Ramaya", "religion": "buddhist"}}, {"type": "node", "id": 3769940204, "lat": 7.0533167, "lon": 80.5355841, "tags": {"addr:city": "Nawalapitiya", "addr:street": "Nawalapitiya - Dimbula Road", "amenity": "place_of_worship", "name": "Nawalapitiya Hindu Temple", "religion": "hindu"}}, {"type": "node", "id": 3769940206, "lat": 7.0517355, "lon": 80.5355948, "tags": {"addr:city": "Nawalapitiya", "addr:street": "Nawalapitiya - Dimbula Road", "amenity": "place_of_worship", "building": "yes", "name": "Assembly of God", "religion": "christian"}}, {"type": "node", "id": 3770051707, "lat": 7.1123974, "lon": 80.5100461, "tags": {"amenity": "place_of_worship", "name": "Sri Bhodirajaramaya", "religion": "buddhist"}}, {"type": "node", "id": 3770151115, "lat": 7.0768652, "lon": 80.5428028, "tags": {"addr:street": "gampola - Nawalapitiya Road", "amenity": "place_of_worship", "name": "Warakawa Sri Sundararamaya Purana Viharaya", "religion": "buddhist"}}, {"type": "node", "id": 3773190726, "lat": 7.0961914, "lon": 80.5178534, "tags": {"amenity": "place_of_worship", "name": "Lokananda Maha Viharaya", "religion": "buddhist"}}, {"type": "node", "id": 3773252370, "lat": 7.1251389, "lon": 80.5268959, "tags": {"amenity": "place_of_worship", "name": "Ruwanpa Piriwena", "religion": "buddhist"}}, {"type": "node", "id": 3773252371, "lat": 7.1240424, "lon": 80.5323837, "tags": {"amenity": "place_of_worship", "name": "Poorvarama Rajamaha Viharaya", "religion": "buddhist"}}, {"type": "node", "id": 3773688266, "lat": 7.2019626, "lon": 80.9968229, "tags": {"amenity": "place_of_worship", "religion": "buddhist"}}, {"type": "node", "id": 3776181615, "lat": 7.1084744, "lon": 80.5590397, "tags": {"addr:city": "Ulapane", "amenity": "place_of_worship", "name": "Isipathanaramaya", "religion": "buddhist"}}, {"type": "node", "id": 3776261857, "lat": 7.1109244, "lon": 80.5631864, "tags": {"amenity": "place_of_worship", "name": "Sri Sudharshanaramaya", "religion": "buddhist"}}, {"type": "node", "id": 3781025090, "lat": 7.311092, "lon": 80.5210745, "tags": {"amenity": "place_of_worship", "name": "Templae", "religion": "buddhist"}}, {"type": "node", "id": 3781036854, "lat": 7.3144849, "lon": 80.5531762, "tags": {"addr:street": "Muruthalawa - Hatharaliyadda Road", "amenity": "place_of_worship", "name": "Sri Wardanaramaya - Kobbekaduwa", "religion": "buddhist"}}, {"type": "node", "id": 3781082421, "lat": 7.3409683, "lon": 80.5045909, "tags": {"amenity": "place_of_worship", "name": "Minigamuwa Temple", "religion": "buddhist"}}, {"type": "node", "id": 3782885993, "lat": 7.3342461, "lon": 80.5909499, "tags": {"amenity": "place_of_worship", "name": "Chethiyagiriya Viharaya", "religion": "buddhist"}}, {"type": "node", "id": 3788636779, "lat": 7.1072519, "lon": 80.6370455, "tags": {"addr:city": "Pussellawa CP", "addr:street": "Peradeniya - Badulla - Chenkaladi Road", "amenity": "place_of_worship", "name": "Sri Manthindaramaya Temple", "religion": "buddhist"}}, {"type": "node", "id": 3789989541, "lat": 7.2183743, "lon": 80.6775944, "tags": {"amenity": "place_of_worship", "name": "Belwood Buddhist Temple", "religion": "buddhist"}}, {"type": "node", "id": 3790080120, "lat": 7.1559037, "lon": 80.6323435, "tags": {"addr:city": "Panwilatenna", "addr:street": "gampola - Pupuressa Rd", "amenity": "place_of_worship", "name": "Panwilatenna Temple", "religion": "buddhist"}}, {"type": "node", "id": 3798153916, "lat": 7.1623495, "lon": 80.6054101, "tags": {"amenity": "place_of_worship", "name": "kahawaththa Sri Sudarshanaramaya", "religion": "buddhist"}}, {"type": "node", "id": 3803459193, "lat": 7.1384124, "lon": 80.6399715, "tags": {"amenity": "place_of_worship", "name": "Dunukeulla Viharaya", "religion": "buddhist"}}, {"type": "node", "id": 3804899638, "lat": 7.1915054, "lon": 80.7455748, "tags": {"amenity": "place_of_worship", "name": "Nilavala Viharaya", "religion": "buddhist"}}, {"type": "node", "id": 3804899645, "lat": 7.2099866, "lon": 80.743027, "tags": {"addr:street": "Marassana - Ududeniya Rd", "amenity": "place_of_worship", "name": "Galagoda Bodhiya", "religion": "buddhist"}}, {"type": "node", "id": 3804899937, "lat": 7.2004894, "lon": 80.7551344, "tags": {"amenity": "place_of_worship", "name": "Munumalaya Meheni Aramaya", "religion": "buddhist"}}, {"type": "node", "id": 3805044167, "lat": 7.2117535, "lon": 80.7163323, "tags": {"addr:city": "Bawlana", "amenity": "place_of_worship", "name": "Sri Vishuddharama Viharaya", "religion": "buddhist"}}, {"type": "node", "id": 3805044364, "lat": 7.2185177, "lon": 80.7128078, "tags": {"amenity": "place_of_worship", "name": "Madagama Neegrodaraamaya", "religion": "buddhist"}}, {"type": "node", "id": 3805044428, "lat": 7.2279341, "lon": 80.7102783, "tags": {"addr:street": "Mudunakade - Bowlana Rd", "amenity": "place_of_worship", "name": "Bodikalarama Viharaya", "religion": "buddhist"}}, {"type": "node", "id": 3806188374, "lat": 7.2316923, "lon": 80.7024282, "tags": {"addr:city": "Godamunne", "amenity": "place_of_worship", "name": "Godamunne Dharmashalawa", "religion": "buddhist"}}, {"type": "node", "id": 3806406781, "lat": 7.2337765, "lon": 80.6970692, "tags": {"addr:city": "Sagama", "amenity": "place_of_worship", "name": "Sagama Raja Maha Viharaya", "religion": "buddhist"}}, {"type": "node", "id": 3808111450, "lat": 7.231261, "lon": 80.6936773, "tags": {"addr:street": "nugaliyadda Rd", "amenity": "place_of_worship", "name": "Dharma Shalawa", "religion": "buddhist"}}, {"type": "node", "id": 3809487825, "lat": 7.2378621, "lon": 80.7015739, "tags": {"addr:street": "Mudunakade - Bowlana Rd", "amenity": "place_of_worship", "religion": "buddhist"}}, {"type": "node", "id": 3809497887, "lat": 7.2346345, "lon": 80.6867574, "tags": {"addr:street": "kandy-Kirimetiya Rd", "amenity": "place_of_worship", "name": "Sri Sudarshanaramaya", "religion": "buddhist"}}, {"type": "node", "id": 3809497888, "lat": 7.2321333, "lon": 80.6811247, "tags": {"addr:street": "Egodagama Rd", "amenity": "place_of_worship", "name": "Isipathanaramaya", "religion": "buddhist"}}, {"type": "node", "id": 3809497889, "lat": 7.2354327, "lon": 80.6801591, "tags": {"addr:street": "Egodagama Rd", "amenity": "place_of_worship", "name": "Haputale Sathkandura Viharaya", "religion": "buddhist"}}, {"type": "node", "id": 3809948520, "lat": 7.2196627, "lon": 80.6137142, "tags": {"addr:street": "peradeniya - Deltota -Rikillagaskada Rd", "amenity": "place_of_worship", "name": "Galoya Thumbodimaluwa Viharaya", "religion": "buddhist"}}, {"type": "node", "id": 3813411540, "lat": 7.2593198, "lon": 80.582702, "tags": {"addr:street": "Edanduwawa Rd", "amenity": "place_of_worship", "name": "Edanduwawa Rajamaha Viharaya", "religion": "buddhist"}}, {"type": "node", "id": 3833133497, "lat": 6.9316807, "lon": 80.8674464, "tags": {"addr:city": "Medawela", "addr:street": "Rendapola - Medawela - Ambagasdowa Road", "amenity": "place_of_worship", "name": "Medawela Sri Jinajothikarama Viharaya", "religion": "buddhist"}}, {"type": "node", "id": 3839318412, "lat": 7.0894694, "lon": 80.8611978, "tags": {"addr:street": "Ragala - Rikillagaskada - Thennekumbura Road", "amenity": "place_of_worship", "name": "Japan Peace Pagoda", "religion": "buddhist", "wikidata": "Q1456873", "wikipedia": "en:Peace Pagoda"}}, {"type": "node", "id": 3840345646, "lat": 7.37432, "lon": 80.5252765, "tags": {"addr:city": "Galagedara", "addr:street": "Katugasthota-Kurunegala-Puttalam Road", "amenity": "place_of_worship", "name": "Madawala Purana Wiharaya", "religion": "buddhist"}}, {"type": "node", "id": 3840399253, "lat": 7.3786026, "lon": 80.5126647, "tags": {"addr:street": "Pethigewala Rd", "amenity": "place_of_worship", "name": "Pethigewela Wiharaya", "religion": "buddhist"}}, {"type": "node", "id": 3840400581, "lat": 7.3727027, "lon": 80.5123053, "tags": {"addr:street": "Galagedara-Rambukkana Road", "amenity": "place_of_worship", "name": "Kaudalla Viharaya", "religion": "buddhist"}}, {"type": "node", "id": 3840458445, "lat": 7.3559616, "lon": 80.5629764, "tags": {"addr:street": "Katugasthota-Medawela Road", "amenity": "place_of_worship", "name": "Medawala Rajamaha Viharaya", "religion": "buddhist"}}, {"type": "node", "id": 3840524748, "lat": 7.343645, "lon": 80.5485891, "tags": {"addr:street": "Katugasthota-Kurunegala-Puttalam Road", "amenity": "place_of_worship", "name": "Galgana raja maha viharaya", "religion": "buddhist"}}, {"type": "node", "id": 3848402383, "lat": 7.3752326, "lon": 80.5029863, "tags": {"addr:street": "Daladagamwela to Galagedara Rd", "amenity": "place_of_worship", "name": "Gunadaha Rajamaha Viharaya", "religion": "buddhist"}}, {"type": "node", "id": 3848579757, "lat": 7.3968427, "lon": 80.5474785, "tags": {"amenity": "place_of_worship", "name": "Higulwala Sri Vijayaramaya", "religion": "buddhist"}}, {"type": "node", "id": 3848579758, "lat": 7.3994653, "lon": 80.5506918, "tags": {"amenity": "place_of_worship", "name": "Sri Gnanaloka Buddhist Centre", "religion": "buddhist"}}, {"type": "node", "id": 3848579773, "lat": 7.3919833, "lon": 80.5579513, "tags": {"amenity": "place_of_worship", "name": "Wewala Sri Isipathnarama Swarna Maha Viharaya", "religion": "buddhist"}}, {"type": "node", "id": 3855906364, "lat": 7.397634, "lon": 80.6125604, "tags": {"amenity": "place_of_worship", "name": "Garakmadilla Rajamaha Viharaya,Arambepola", "religion": "buddhist"}}, {"type": "node", "id": 3855906372, "lat": 7.3935261, "lon": 80.6189685, "tags": {"amenity": "place_of_worship", "name": "Konakalagala Sri Vijitha Maha Viharaya", "religion": "buddhist"}}, {"type": "node", "id": 3855932729, "lat": 7.3789232, "lon": 80.6474551, "tags": {"amenity": "place_of_worship", "name": "Dunuvila Raja Maha Viharaya", "religion": "buddhist"}}, {"type": "node", "id": 3855951125, "lat": 7.3778511, "lon": 80.6342328, "tags": {"addr:street": "Deegala Rd", "amenity": "place_of_worship", "name": "Deegala Temple", "religion": "buddhist"}}, {"type": "node", "id": 3856182036, "lat": 7.3869389, "lon": 80.6040926, "tags": {"amenity": "place_of_worship", "name": "dippitiya janapadaya gunannanda temple", "religion": "buddhist"}}, {"type": "node", "id": 3856182235, "lat": 7.3697773, "lon": 80.6152075, "tags": {"addr:street": "Grand Mosque Rd", "amenity": "place_of_worship", "name": "Grand Mosque", "religion": "muslim"}}, {"type": "node", "id": 3856394530, "lat": 7.3727295, "lon": 80.668442, "tags": {"amenity": "place_of_worship", "name": "Pahala Yatawara Viharaya", "religion": "buddhist"}}, {"type": "node", "id": 3856394537, "lat": 7.3640344, "lon": 80.6747224, "tags": {"addr:street": "Wattegama - Matale Road", "amenity": "place_of_worship", "check_date": "2025-11-23", "name": "Ihala Yatawara Kettarama Maha Viharaya", "religion": "buddhist"}}, {"type": "node", "id": 3856394540, "lat": 7.3670144, "lon": 80.6481957, "tags": {"addr:street": "Kudugala-Wattegama Rd", "amenity": "place_of_worship", "name": "Gammanthalawa Temple", "religion": "buddhist"}}, {"type": "node", "id": 3856394556, "lat": 7.3640741, "lon": 80.6329816, "tags": {"addr:street": "Dambagahamuduna Rd", "amenity": "place_of_worship", "name": "Daluke Sri Pushparama Viharaya", "religion": "buddhist"}}, {"type": "node", "id": 3870413553, "lat": 7.3520151, "lon": 80.6825796, "tags": {"addr:city": "Wattegama", "addr:street": "Pitiyagedera - Wattegama - Iriyagastenne Road", "amenity": "place_of_worship", "name": "Kathiresan Kovil", "religion": "hindu"}}, {"type": "node", "id": 3870564072, "lat": 7.2931881, "lon": 80.6326896, "tags": {"addr:city": "Kandy", "addr:street": "Colombo-Kandy Road", "amenity": "place_of_worship", "name": "Pillaiyar Kovil", "religion": "hindu"}}, {"type": "node", "id": 3871294152, "lat": 7.1700253, "lon": 80.5795561, "tags": {"amenity": "place_of_worship", "name": "Ihalawela Sri Sambuddha Jayanthi Viharaya", "religion": "buddhist"}}, {"type": "node", "id": 3872159642, "lat": 7.1447195, "lon": 80.7676385, "tags": {"amenity": "place_of_worship", "name": "Sugatha Munindaramaya", "religion": "buddhist"}}, {"type": "node", "id": 3874155575, "lat": 7.3759723, "lon": 80.5871896, "tags": {"amenity": "place_of_worship", "name": "Udamuduna PoorwaramaTemple", "religion": "buddhist"}}, {"type": "node", "id": 3874368601, "lat": 7.3349403, "lon": 80.6807164, "tags": {"addr:city": "Madawala", "addr:street": "Katugastota-Bambarella Road", "amenity": "place_of_worship", "name": "Pitiyegedara Rajamaha Viharaya", "religion": "buddhist"}}, {"type": "node", "id": 3874368634, "lat": 7.3275368, "lon": 80.66811, "tags": {"addr:city": "Madawala", "addr:street": "Katutasgota-Madawala-Bambarella Road", "amenity": "place_of_worship", "name": "Jamiul Khairath Jumma Masjid", "religion": "muslim"}}, {"type": "node", "id": 3874371669, "lat": 7.3219195, "lon": 80.6620562, "tags": {"amenity": "place_of_worship", "religion": "buddhist"}}, {"type": "node", "id": 3874859958, "lat": 6.8386109, "lon": 80.8808905, "tags": {"amenity": "place_of_worship", "name": "Wangiyakumbura Temple", "religion": "buddhist"}}, {"type": "node", "id": 3874869233, "lat": 6.8724144, "lon": 80.8901246, "tags": {"amenity": "place_of_worship", "name": "Kalabululanda Temple", "religion": "buddhist"}}, {"type": "node", "id": 3874876194, "lat": 6.8656065, "lon": 80.8546194, "tags": {"amenity": "place_of_worship", "name": "Udakirinda Wipassana Bhawana Center", "religion": "buddhist"}}, {"type": "node", "id": 3880444685, "lat": 7.0081114, "lon": 80.9964547, "tags": {"amenity": "place_of_worship", "name": "Bogoda Temple", "religion": "buddhist"}}, {"type": "node", "id": 3887941716, "lat": 6.9810811, "lon": 80.7463364, "tags": {"amenity": "place_of_worship", "name": "Shanthipura Temple", "religion": "buddhist"}}, {"type": "node", "id": 3981727718, "lat": 7.3201688, "lon": 80.6007556, "tags": {"amenity": "place_of_worship", "name": "Wanahagala Rajamaha Viharaya", "religion": "buddhist"}}, {"type": "node", "id": 3981730878, "lat": 7.3075932, "lon": 80.6004391, "tags": {"amenity": "place_of_worship", "name": "Welamada temple", "religion": "buddhist"}}, {"type": "node", "id": 3981730880, "lat": 7.3111049, "lon": 80.5958391, "tags": {"amenity": "place_of_worship", "name": "Sumanarama Viharaya", "religion": "buddhist"}}, {"type": "node", "id": 3981730894, "lat": 7.3164603, "lon": 80.5915959, "tags": {"amenity": "place_of_worship", "name": "Kulugammana Rajamaha Viharaya", "religion": "buddhist"}}, {"type": "node", "id": 3981766010, "lat": 7.3211585, "lon": 80.5881948, "tags": {"amenity": "place_of_worship", "name": "Mapamadulla Sri Wardanaramaya", "religion": "buddhist"}}, {"type": "node", "id": 3983331794, "lat": 7.2618763, "lon": 80.6080713, "tags": {"amenity": "place_of_worship", "name": "Temple", "religion": "buddhist"}}, {"type": "node", "id": 3998840009, "lat": 7.3095789, "lon": 80.6155937, "tags": {"amenity": "place_of_worship", "name": "Wegiriya Temple", "religion": "buddhist"}}, {"type": "node", "id": 3998841903, "lat": 7.3044336, "lon": 80.6117447, "tags": {"amenity": "place_of_worship", "name": "Sri Rathanapala Purana Viharaya", "religion": "buddhist"}}, {"type": "node", "id": 3998841923, "lat": 7.3029784, "lon": 80.6117152, "tags": {"addr:street": "Peradeniya - Halloluwa - Katugastota;Katugasthota-Halloluwa-Peradeniya road", "amenity": "place_of_worship", "name": "Udugama Sri Sudharshanaramaya Viharaya", "religion": "buddhist"}}, {"type": "node", "id": 3998841951, "lat": 7.2827691, "lon": 80.6031026, "tags": {"addr:street": "Peradeniya - Halloluwa - Katugastota;Katugasthota-Halloluwa-Peradeniya road", "amenity": "place_of_worship", "name": "Sri Vimalabudhdhi Buddhist Center", "religion": "buddhist"}}, {"type": "node", "id": 3998841958, "lat": 7.2820162, "lon": 80.6035774, "tags": {"addr:street": "Peradeniya - Halloluwa - Katugastota;Katugasthota-Halloluwa-Peradeniya road", "amenity": "place_of_worship", "name": "Sri Maha Bodhi Simamalakaya", "religion": "buddhist"}}, {"type": "node", "id": 3999420760, "lat": 7.3968902, "lon": 80.6791671, "tags": {"amenity": "place_of_worship", "name": "Temple", "religion": "buddhist"}}, {"type": "node", "id": 4015957421, "lat": 7.3766992, "lon": 80.5521828, "tags": {"amenity": "place_of_worship", "name": "Gallkotuwa Temple", "religion": "buddhist"}}, {"type": "node", "id": 4016144318, "lat": 7.333854, "lon": 80.5700731, "tags": {"amenity": "place_of_worship", "name": "Udawadiyagoda Temple", "religion": "buddhist"}}, {"type": "node", "id": 4016144533, "lat": 7.3296056, "lon": 80.5752686, "tags": {"addr:city": "aladeniya", "amenity": "place_of_worship", "name": "Nayiyothpana Temple", "religion": "buddhist"}}, {"type": "node", "id": 4016144546, "lat": 7.32776, "lon": 80.5785355, "tags": {"addr:street": "Katugasthota-Kurunegala-Puttalam Road", "amenity": "place_of_worship", "name": "Thiththapajjala Maha Piriwena", "religion": "buddhist"}}, {"type": "node", "id": 4016196446, "lat": 7.3273383, "lon": 80.6011733, "tags": {"amenity": "place_of_worship", "name": "Wathuwalagala Rajamaha Viharaya", "religion": "buddhist"}}, {"type": "node", "id": 4019181855, "lat": 7.315945, "lon": 80.6312249, "tags": {"amenity": "place_of_worship", "name": "Sri Dharmaraja Piriwena", "religion": "buddhist"}}, {"type": "node", "id": 4025881602, "lat": 7.2801437, "lon": 80.6245258, "tags": {"addr:city": "kandy", "addr:street": "Suduhumpola Raja Maha Vihara Rd", "amenity": "place_of_worship", "name": "Suduhumpola Rjamaha Viharaya", "religion": "buddhist"}}, {"type": "node", "id": 4025881633, "lat": 7.2770716, "lon": 80.6176221, "tags": {"addr:city": "Mulgampola", "addr:street": "Bodhiyangana Road", "amenity": "place_of_worship", "name": "Thumbomaluwa Viharaya", "religion": "buddhist"}}, {"type": "node", "id": 4025916242, "lat": 7.2706152, "lon": 80.6218217, "tags": {"addr:street": "Heerassagala Road", "amenity": "place_of_worship", "name": "Kaluwana Rajamaha Viharaya", "religion": "buddhist"}}, {"type": "node", "id": 4025916250, "lat": 7.2680925, "lon": 80.6183527, "tags": {"addr:street": "Godamunna Mawatha", "amenity": "place_of_worship", "name": "Elagolla Temple", "religion": "buddhist"}}, {"type": "node", "id": 4025970925, "lat": 7.261938, "lon": 80.6175799, "tags": {"addr:street": "Hill Crest Green Stage 2", "amenity": "place_of_worship", "name": "Sri Shantharamaya", "religion": "buddhist"}}, {"type": "node", "id": 4025970988, "lat": 7.2529209, "lon": 80.620064, "tags": {"amenity": "place_of_worship", "name": "Vajirarama International Buddhist Meditation Center", "religion": "buddhist"}}, {"type": "node", "id": 4034237663, "lat": 7.2660582, "lon": 80.6130811, "tags": {"addr:city": "Dangolla", "addr:street": "Hill Crest Green Stage 2", "amenity": "place_of_worship", "name": "Sri Sugatha Bimbaramaya", "religion": "buddhist"}}, {"type": "node", "id": 4034237665, "lat": 7.2608265, "lon": 80.6057957, "tags": {"addr:street": "Udaperadeniya Rd", "amenity": "place_of_worship", "name": "Udaperadeniya Viharaya", "religion": "buddhist"}}, {"type": "node", "id": 4034332106, "lat": 7.2672419, "lon": 80.6007069, "tags": {"addr:city": "Gatambe", "addr:street": "Colombo-Kandy Road", "amenity": "place_of_worship", "check_date": "2024-08-31", "name": "Sri Rajopawanaramaya Temple", "religion": "buddhist"}}, {"type": "node", "id": 4035896874, "lat": 7.2875307, "lon": 80.6393335, "tags": {"addr:city": "kandy", "addr:street": "Keerthi Sri Rajasinghe Mawatha", "amenity": "place_of_worship", "name": "Nagawimanakanda Temple", "religion": "buddhist"}}, {"type": "node", "id": 4035947025, "lat": 7.2828353, "lon": 80.6551793, "tags": {"amenity": "place_of_worship", "name": "Monastery Of Blessed Sacrament Fathers", "religion": "christian"}}, {"type": "node", "id": 4035947054, "lat": 7.2798243, "lon": 80.6564036, "tags": {"addr:city": "Ampitiya", "addr:street": "Meekanuwa Road", "amenity": "place_of_worship", "name": "Saint Mary's Church", "religion": "christian"}}, {"type": "node", "id": 4036017572, "lat": 7.2993933, "lon": 80.632183, "tags": {"addr:city": "Kandy", "addr:street": "Asgiri Vihara Mawatha", "amenity": "place_of_worship", "name": "Asgiri Maha Viharaya", "religion": "buddhist", "wikidata": "Q31800102", "wikipedia": "en:Asgiri Maha Viharaya"}}, {"type": "node", "id": 4038093311, "lat": 7.2865877, "lon": 80.6290267, "tags": {"addr:city": "Kandy", "addr:street": "Sambodhi Mawatha", "amenity": "place_of_worship", "name": "Sambodhi Viharaya", "religion": "buddhist"}}, {"type": "node", "id": 4039495737, "lat": 7.3616633, "lon": 80.7153933, "tags": {"addr:city": "Panwila", "addr:street": "Katugastota-Bambarella Road", "amenity": "place_of_worship", "name": "Sri Selva Vinayagar Kovil", "religion": "hindu"}}, {"type": "node", "id": 4039495739, "lat": 7.3483248, "lon": 80.706447, "tags": {"addr:city": "Kundasale", "addr:street": "Katugastota-Bambarella Road", "amenity": "place_of_worship", "name": "Galpihilla Viharaya", "religion": "buddhist"}}, {"type": "node", "id": 4039498285, "lat": 7.3203038, "lon": 80.6929408, "tags": {"addr:city": "Walala", "addr:street": "Madawala-Rajawella Road", "amenity": "place_of_worship", "name": "Walala Raja Maha Viharaya", "religion": "buddhist"}}, {"type": "node", "id": 4039544165, "lat": 7.3167553, "lon": 80.7007062, "tags": {"addr:city": "Menikhinna", "amenity": "place_of_worship", "name": "Jumma Mosque", "religion": "muslim"}}, {"type": "node", "id": 4039653805, "lat": 7.3142167, "lon": 80.702921, "tags": {"addr:city": "Menikhinna", "addr:street": "Temple Road", "amenity": "place_of_worship", "name": "Ganadevi Kovila Purana Viharaya", "religion": "buddhist"}}, {"type": "node", "id": 4039761962, "lat": 7.3308039, "lon": 80.6703803, "tags": {"addr:city": "Madawala", "addr:street": "Bangalagedara Road", "amenity": "place_of_worship", "name": "Akbar Mosque", "religion": "muslim"}}, {"type": "node", "id": 4039762007, "lat": 7.330947, "lon": 80.6733918, "tags": {"addr:city": "Madawala", "addr:street": "Katutasgota-Madawala-Bambarella Road", "amenity": "place_of_worship", "name": "Raja Maha Viharaya", "religion": "buddhist"}}, {"type": "node", "id": 4039790803, "lat": 7.3260207, "lon": 80.6532778, "tags": {"addr:city": "Polgolla", "addr:street": "Katutasgota-Madawala-Bambarella Road", "amenity": "place_of_worship", "name": "Salawane Viharaya", "religion": "buddhist"}}, {"type": "node", "id": 4039893213, "lat": 7.3191641, "lon": 80.6293819, "tags": {"addr:city": "Mawilmada", "addr:street": "Old Matale Rd.", "amenity": "place_of_worship", "name": "Al Zamil Mosque", "religion": "muslim"}}, {"type": "node", "id": 4039893225, "lat": 7.3205422, "lon": 80.6301168, "tags": {"addr:city": "Katugasthota", "addr:street": "P.B.A Weerakoon Mawatha", "amenity": "place_of_worship", "name": "Sacred Heart Church", "religion": "christian"}}, {"type": "node", "id": 4039893226, "lat": 7.3202708, "lon": 80.6304682, "tags": {"addr:city": "Katugasthota", "addr:street": "P.B.A Weerakoon Mawatha", "amenity": "place_of_worship", "name": "Al Hamrah", "religion": "muslim"}}, {"type": "node", "id": 4039893227, "lat": 7.3219522, "lon": 80.6305782, "tags": {"addr:city": "Katugasthota", "addr:street": "P.B.A Weerakoon Mawatha", "amenity": "place_of_worship", "name": "Siyambalagastenna Jumma Masjid", "religion": "muslim"}}, {"type": "node", "id": 4039893248, "lat": 7.3237006, "lon": 80.6306538, "tags": {"addr:city": "Katugasthota", "addr:street": "P.B.A Weerakoon Mawatha", "amenity": "place_of_worship", "name": "Siyambalagastenna Temple", "religion": "buddhist"}}, {"type": "node", "id": 4052269589, "lat": 7.2466428, "lon": 80.5523992, "tags": {"amenity": "place_of_worship", "name": "Temple", "religion": "buddhist"}}, {"type": "node", "id": 4052305728, "lat": 7.2410178, "lon": 80.5383984, "tags": {"amenity": "place_of_worship", "name": "Temple", "religion": "buddhist"}}, {"type": "node", "id": 4052319686, "lat": 7.2608693, "lon": 80.5258934, "tags": {"amenity": "place_of_worship", "name": "Temple", "religion": "buddhist"}}, {"type": "node", "id": 4052347204, "lat": 7.262518, "lon": 80.5414066, "tags": {"addr:city": "Pilimatalawa", "addr:street": "Sri Rathanasara Nahimi Mawatha", "amenity": "place_of_worship", "name": "Sri Dharamaloka Maha Piriwena", "religion": "buddhist"}}, {"type": "node", "id": 4052347356, "lat": 7.2803707, "lon": 80.542477, "tags": {"amenity": "place_of_worship", "name": "Temple", "religion": "buddhist"}}, {"type": "node", "id": 4066675768, "lat": 7.2842927, "lon": 80.5483949, "tags": {"addr:street": "Dodamwala Papolanga Rd", "amenity": "place_of_worship", "name": "Dodanvala Devalaya", "religion": "hindu"}}, {"type": "node", "id": 4066675769, "lat": 7.2848727, "lon": 80.5488884, "tags": {"addr:street": "Dodanwala Natha Dewale Rd", "amenity": "place_of_worship", "name": "Dodanwala Sri Natha Dewalaya", "religion": "buddhist"}}, {"type": "node", "id": 4066675771, "lat": 7.284165, "lon": 80.5539632, "tags": {"amenity": "place_of_worship", "name": "Kithsiri Mewan Raja Maha Viharaya", "religion": "buddhist"}}, {"type": "node", "id": 4067996155, "lat": 7.2722858, "lon": 80.5252997, "tags": {"amenity": "place_of_worship", "name": "Dambagoda Bo Maluwa viharaya", "religion": "buddhist"}}, {"type": "node", "id": 4068089069, "lat": 7.2912955, "lon": 80.5475696, "tags": {"addr:street": "Wathurakumbura Dodamwala Rd", "amenity": "place_of_worship", "name": "Garappitiya Purana Viharaya", "religion": "buddhist"}}, {"type": "node", "id": 4082390350, "lat": 7.3407006, "lon": 80.5944523, "tags": {"addr:city": "Rajapihilla", "addr:street": "Katugasthota-Medawela Road", "amenity": "place_of_worship", "name": "Rajapihilla Viharaya", "religion": "buddhist"}}, {"type": "node", "id": 4089531751, "lat": 7.2747373, "lon": 80.6114607, "tags": {"addr:city": "Kandy", "addr:street": "Colombo-Kandy Road", "amenity": "place_of_worship", "check_date": "2025-07-12", "name": "The Pentecostal Mission", "religion": "christian"}}, {"type": "node", "id": 4096481634, "lat": 7.2849035, "lon": 80.563655, "tags": {"amenity": "place_of_worship", "name": "Temple", "religion": "buddhist"}}, {"type": "node", "id": 4104239934, "lat": 7.1877098, "lon": 80.580656, "tags": {"addr:street": "Weligalla-Ganhata Rd", "amenity": "place_of_worship", "name": "Kirinda Viharaya (New)", "religion": "buddhist"}}, {"type": "node", "id": 4104239951, "lat": 7.1851847, "lon": 80.58383, "tags": {"addr:street": "Peradeniya-Badulla-Chenkaladi Road", "amenity": "place_of_worship", "name": "Kirinda Viharaya (Old)", "religion": "buddhist"}}, {"type": "node", "id": 4104402822, "lat": 7.2599642, "lon": 80.5435303, "tags": {"addr:city": "Pilimatalawa", "addr:street": "Sri Jinaruwan Mawatha", "amenity": "place_of_worship", "name": "Sri Lanka Buddhagaya Viharaya", "religion": "buddhist"}}, {"type": "node", "id": 4142250088, "lat": 7.1673599, "lon": 80.5964708, "tags": {"addr:street": "Orayan Rd", "amenity": "place_of_worship", "name": "Naga Sri Bodi Viharaya", "religion": "buddhist"}}, {"type": "node", "id": 4142251989, "lat": 7.1614785, "lon": 80.5986166, "tags": {"addr:street": "Lagoondeniya Rd", "amenity": "place_of_worship", "name": "Thundeniya Viharaya", "religion": "buddhist"}}, {"type": "node", "id": 4142251991, "lat": 7.1619947, "lon": 80.6031066, "tags": {"addr:street": "Lagoondeniya Rd", "amenity": "place_of_worship", "name": "Thundeniya Gothamarama Temple", "religion": "buddhist"}}, {"type": "node", "id": 4142435865, "lat": 7.156932, "lon": 80.5593928, "tags": {"addr:city": "Gampola", "addr:street": "Kudamake Rd", "amenity": "place_of_worship", "name": "Wijayarama Temple", "religion": "buddhist"}}, {"type": "node", "id": 4322757094, "lat": 6.9391834, "lon": 80.8729527, "tags": {"addr:city": "welimada", "addr:street": "karagahaulpatha, Madawela Udukinda", "amenity": "place_of_worship", "name": "Karagahaulpatha Sri Gunarathanaramaya", "religion": "buddhist"}}, {"type": "node", "id": 4322781132, "lat": 7.0936773, "lon": 80.8635407, "tags": {"addr:city": "Walapane", "amenity": "place_of_worship", "name": "Walapane Bo Tree", "religion": "buddhist"}}, {"type": "node", "id": 4395676419, "lat": 7.270484, "lon": 80.6163798, "tags": {"amenity": "place_of_worship", "name": "Galkotuwa Temple", "religion": "buddhist"}}, {"type": "node", "id": 4404153020, "lat": 7.2981867, "lon": 80.8356609, "tags": {"amenity": "place_of_worship", "name": "Maangoda Temple", "religion": "buddhist"}}, {"type": "node", "id": 4405501435, "lat": 7.3600306, "lon": 80.9425207, "tags": {"addr:street": "Hasalaka - Maha Aswedduma Rd", "amenity": "place_of_worship", "name": "Sri Sambuddha Jayanthi Maha Viharaya", "religion": "buddhist"}}, {"type": "node", "id": 4405501436, "lat": 7.3720594, "lon": 80.9415565, "tags": {"amenity": "place_of_worship", "name": "Thorapitiya Temple Pagoda", "religion": "buddhist"}}, {"type": "node", "id": 4405515476, "lat": 7.3791005, "lon": 80.956888, "tags": {"amenity": "place_of_worship", "name": "Sri Priyadassinaramaya", "religion": "buddhist"}}, {"type": "node", "id": 4408153062, "lat": 7.3074488, "lon": 80.977497, "tags": {"amenity": "place_of_worship", "name": "Morayaya Temple", "religion": "buddhist"}}, {"type": "node", "id": 4426207811, "lat": 7.2586108, "lon": 80.9978917, "tags": {"addr:street": "Mahiyanganaya Randenigala Road", "amenity": "place_of_worship", "name": "5 kanuwa Temple", "religion": "buddhist"}}, {"type": "node", "id": 4428950596, "lat": 7.2932688, "lon": 80.7761988, "tags": {"addr:city": "Rambukwella", "addr:street": "Kandy - Mahiyanganaya- Padiyathalawa Road", "amenity": "place_of_worship", "name": "Rambukwella Purana Rajamaha Viharaya", "religion": "buddhist"}}, {"type": "node", "id": 4428950604, "lat": 7.3158506, "lon": 80.7875177, "tags": {"addr:city": "Gabbela", "addr:street": "Retiyagma Rd", "amenity": "place_of_worship", "name": "Sri Pusparamaya", "religion": "buddhist"}}, {"type": "node", "id": 4428950608, "lat": 7.3285297, "lon": 80.7749006, "tags": {"addr:street": "Rangala Rd", "amenity": "place_of_worship", "name": "Amupitiya Maha Viharaya", "religion": "buddhist"}}, {"type": "node", "id": 4437637819, "lat": 7.0583342, "lon": 80.5368306, "tags": {"amenity": "place_of_worship", "check_date": "2025-11-21", "name": "Sripada Piriwena", "religion": "buddhist"}}, {"type": "node", "id": 4441833519, "lat": 7.17489, "lon": 80.5794731, "tags": {"addr:city": "Bothalapitiya", "addr:street": "Peradeniya-Badulla-Chenkaladi Road", "amenity": "place_of_worship", "name": "Bothalapitiya Gangathilakaya Temple", "religion": "buddhist"}}, {"type": "node", "id": 4442011586, "lat": 6.9154445, "lon": 80.5053843, "tags": {"addr:street": "Norton - Maskeliya Road", "amenity": "place_of_worship", "name": "KiriwanEliya Temple", "religion": "buddhist"}}, {"type": "node", "id": 4442126052, "lat": 6.8242225, "lon": 80.5176682, "tags": {"addr:city": "Nallathanniya", "addr:street": "Nallathanniya - Sri Pada footpath", "amenity": "place_of_worship", "name": "Kalpa Wruksha Maha Viharaya", "religion": "buddhist"}}, {"type": "node", "id": 4443613151, "lat": 6.8261651, "lon": 80.5767091, "tags": {"addr:street": "Maskeliya-Upcot Road", "amenity": "place_of_worship", "name": "All Saints Church", "religion": "christian"}}, {"type": "node", "id": 4443704515, "lat": 6.813765, "lon": 80.5871295, "tags": {"addr:street": "Maskeliya-Upcot Road", "amenity": "place_of_worship", "name": "Amman Kovil", "religion": "hindu"}}, {"type": "node", "id": 4443704520, "lat": 6.8374418, "lon": 80.6147184, "tags": {"addr:city": "Norwood", "addr:street": "Norwood-Bogawantalawa Road", "amenity": "place_of_worship", "check_date": "2025-12-30", "name": "Darmarajaha Maha Viharaya", "religion": "buddhist"}}, {"type": "node", "id": 4445183974, "lat": 7.1677102, "lon": 80.573899, "tags": {"addr:city": "Gampola", "addr:street": "Peradeniya-Badulla-Chenkaladi Road", "amenity": "place_of_worship", "name": "Saliyamala Rajamaha Viharaya", "religion": "buddhist"}}, {"type": "node", "id": 4447514121, "lat": 6.8795137, "lon": 80.8135554, "tags": {"addr:city": "Ambewela", "addr:street": "Ambewela Road", "amenity": "place_of_worship", "name": "Ambewella Buddhist Temple", "religion": "buddhist"}}, {"type": "node", "id": 4447532688, "lat": 6.9298398, "lon": 80.7865992, "tags": {"addr:city": "Meepilimana", "addr:street": "Blackpool - Ambewela Road", "amenity": "place_of_worship", "name": "Meepilimana Sri Mahindaramaya", "religion": "buddhist"}}, {"type": "node", "id": 4462929654, "lat": 7.168548, "lon": 80.5622601, "tags": {"addr:city": "Unambuwa", "addr:street": "Kadugannawa-Gampola Road", "amenity": "place_of_worship", "name": "Wana Vasala Purana Viharaya", "religion": "buddhist"}}, {"type": "node", "id": 4462929657, "lat": 7.1687686, "lon": 80.5557525, "tags": {"addr:city": "Rathmalkaduwa", "addr:street": "Rathmalkaduwa Road", "amenity": "place_of_worship", "name": "Sri Bodhirukkaramaya", "religion": "buddhist"}}, {"type": "node", "id": 4462929909, "lat": 7.1641484, "lon": 80.554729, "tags": {"amenity": "place_of_worship", "religion": "buddhist"}}, {"type": "node", "id": 4464475429, "lat": 7.2292772, "lon": 80.7494097, "tags": {"addr:city": "Mailapitiya", "addr:street": "Thennekumbura-Rikillagaskada-Ragala Road", "amenity": "place_of_worship", "name": "Mailapitiya Sri Bodirajarama Viharaya", "religion": "buddhist"}}, {"type": "node", "id": 4464475431, "lat": 7.233641, "lon": 80.7506853, "tags": {"addr:city": "Mailapitiya", "amenity": "place_of_worship", "name": "Sri Sastrananda Pirivena", "religion": "buddhist"}}, {"type": "node", "id": 4464475459, "lat": 7.196861, "lon": 80.7600891, "tags": {"addr:city": "Unavinna", "addr:street": "Tennakubura Rikillagaskada Ragala Road", "amenity": "place_of_worship", "name": "Unuwinna Temple", "religion": "buddhist"}}, {"type": "node", "id": 4464475464, "lat": 7.1810845, "lon": 80.7706516, "tags": {"addr:city": "Hanguranketha", "addr:street": "Pussalamankada Rd", "amenity": "place_of_worship", "name": "Sri Vidyakeerthi Maha Piriwena - Thissapela", "religion": "buddhist"}}, {"type": "node", "id": 4464544053, "lat": 7.222305, "lon": 80.7293315, "tags": {"amenity": "place_of_worship", "name": "Thalawa Rajamaha Viharaya", "religion": "buddhist"}}, {"type": "node", "id": 4465977993, "lat": 7.0596634, "lon": 80.5912648, "tags": {"addr:city": "Harangala", "addr:street": "Harangala Road", "amenity": "place_of_worship", "name": "Sri Kalyanawardhanaramaya", "religion": "buddhist"}}, {"type": "node", "id": 4466117253, "lat": 7.0664648, "lon": 80.5845644, "tags": {"addr:city": "Kothmale", "addr:street": "Ulapane-Pussellawa Road", "amenity": "place_of_worship", "name": "Nugawela Abhinawaramaya", "religion": "buddhist"}}, {"type": "node", "id": 4476430163, "lat": 7.2888283, "lon": 80.6104983, "tags": {"addr:street": "Srimath Kudaratwatte Mawatha", "amenity": "place_of_worship", "name": "Sri Bodhimalu Viharaya", "religion": "buddhist"}}, {"type": "node", "id": 4516487072, "lat": 7.0860363, "lon": 80.5540421, "tags": {"amenity": "place_of_worship", "name": "Pallegama Temple", "religion": "buddhist"}}, {"type": "node", "id": 4553577706, "lat": 7.3023037, "lon": 80.5601319, "tags": {"amenity": "place_of_worship", "name": "Nelligala International Buddhist Center", "religion": "buddhist"}}, {"type": "node", "id": 4615720699, "lat": 7.0753267, "lon": 80.6754276, "tags": {"addr:street": "Peradeniya - Badulla - Chenkaladi Road", "amenity": "place_of_worship", "name": "Sugatharamaya Temple", "religion": "buddhist"}}, {"type": "node", "id": 4678340977, "lat": 6.9739572, "lon": 80.7758689, "tags": {"amenity": "place_of_worship", "name": "Theeswarar Temple", "religion": "hindu"}}, {"type": "node", "id": 4683733221, "lat": 7.294712, "lon": 80.6368078, "tags": {"addr:city": "Kandy", "addr:street": "Kotugodella Veediya", "amenity": "place_of_worship", "religion": "muslim"}}, {"type": "node", "id": 4698131489, "lat": 7.2973594, "lon": 80.7322216, "tags": {"amenity": "place_of_worship", "name:en": "Buddha Statue"}}, {"type": "node", "id": 4747247124, "lat": 6.9161443, "lon": 80.8355665, "tags": {"addr:housenumber": "300", "addr:postcode": "90364", "addr:street": "Boragas-Silmiyapura Road", "amenity": "place_of_worship", "name:en": "Silmiyapura Jummah Masjid"}}, {"type": "node", "id": 4775405860, "lat": 6.9408332, "lon": 80.7736111, "tags": {"addr:city": "Ruwan Eliya", "addr:street": "Ambewela Road", "amenity": "place_of_worship", "name": "Sri Rathnaloka Piriwena", "religion": "buddhist"}}, {"type": "node", "id": 4775629633, "lat": 7.0811514, "lon": 80.7923261, "tags": {"addr:city": "Padiyapelella", "addr:street": "Padiyapelella - Mandaramnuwara Road", "amenity": "place_of_worship", "description": "This is a ancient budddhist temple in the Idampitiya village.", "name": "Morapaya Rajamaha Viharaya", "religion": "buddhist"}}, {"type": "node", "id": 4775771128, "lat": 6.9390365, "lon": 80.7408058, "tags": {"addr:city": "Nanu Oya", "addr:street": "Hatton-Nuwara Eliya Road", "amenity": "place_of_worship", "name": "Nanu Oya Sri Wardhanaramaya", "religion": "buddhist"}}, {"type": "node", "id": 4781478596, "lat": 6.9050903, "lon": 80.9129221, "tags": {"addr:city": "Welimada", "addr:street": "Old Post Office Road", "amenity": "place_of_worship", "name": "Sri Gangarama Viharaya", "religion": "buddhist"}}, {"type": "node", "id": 4793159820, "lat": 6.9536172, "lon": 80.858638, "tags": {"addr:city": "Uduhawara", "addr:street": "Korandekumbura Road", "amenity": "place_of_worship", "name": "Sri Medhanandarama Viharaya", "religion": "buddhist"}}, {"type": "node", "id": 4793217576, "lat": 6.9228582, "lon": 80.8911599, "tags": {"addr:city": "Ambagasdowa", "addr:street": "karagahulpatha - Dauldena -Ambagasdowa Road", "amenity": "place_of_worship", "name": "Ambagasdowa Sri Sumanajothi Viharaya", "religion": "buddhist"}}, {"type": "node", "id": 4793293595, "lat": 6.9005247, "lon": 80.8633379, "tags": {"addr:city": "Gawarammana", "addr:street": "A5 Peradeniya-Badulla-Chenkaladi Road", "amenity": "place_of_worship", "name": "Vidurupola Sri Piyatissa Piriwena", "religion": "buddhist"}}, {"type": "node", "id": 4798878220, "lat": 7.0903207, "lon": 80.7985121, "tags": {"addr:city": "Padiyapelella", "addr:street": "Ragala - Thannnakubura Road", "amenity": "place_of_worship", "name": "Sri Bodhirukkharama Rajamaha Viharaya", "religion": "buddhist"}}, {"type": "node", "id": 4803245442, "lat": 6.9130302, "lon": 80.866066, "tags": {"addr:street": "Vidurupola Road", "amenity": "place_of_worship", "name": "Vidurupola Sri Sumangalarama Viharaya", "religion": "buddhist"}}, {"type": "node", "id": 4829970684, "lat": 6.9669361, "lon": 80.7680428, "tags": {"addr:city": "Nuwara Eliya", "addr:street": "A5 Nuwara Eliya-Badulla Road", "amenity": "place_of_worship", "name": "International Buddhist Center", "name:si": "\u0d85\u0db1\u0dca\u0dad\u0dbb\u0dca\u0da2\u0dcf\u0dad\u0dd2\u0d9a \u0db6\u0dde\u0daf\u0dca\u0db0 \u0db8\u0db0\u0dca\u200d\u0dba\u0dc3\u0dca\u0dae\u0dcf\u0db1\u0dba", "religion": "buddhist"}}, {"type": "node", "id": 4885452684, "lat": 6.8752536, "lon": 80.8755755, "tags": {"amenity": "place_of_worship", "name": "Udubadana Temple", "religion": "buddhist"}}, {"type": "node", "id": 4885452685, "lat": 6.8812504, "lon": 80.8500624, "tags": {"amenity": "place_of_worship", "name": "Hewanakumbura Temple", "religion": "buddhist"}}, {"type": "node", "id": 4885454561, "lat": 6.9343561, "lon": 80.8102074, "tags": {"amenity": "place_of_worship", "religion": "buddhist"}}, {"type": "node", "id": 4885454562, "lat": 6.9349792, "lon": 80.8046606, "tags": {"amenity": "place_of_worship", "name": "Seetha Eliya Temple", "religion": "buddhist"}}, {"type": "node", "id": 4886158579, "lat": 6.9454164, "lon": 80.8500168, "tags": {"amenity": "place_of_worship", "name": "Buddhist Temple", "religion": "buddhist"}}, {"type": "node", "id": 4886159026, "lat": 6.9675255, "lon": 80.8667403, "tags": {"amenity": "place_of_worship", "name": "Buddhist Temple", "religion": "buddhist"}}, {"type": "node", "id": 4886159106, "lat": 6.9543704, "lon": 80.8890027, "tags": {"amenity": "place_of_worship", "name": "Buddhist Temple", "religion": "buddhist"}}, {"type": "node", "id": 4888268004, "lat": 6.8135364, "lon": 80.9161346, "tags": {"amenity": "place_of_worship", "name": "Udakendagolla Temple", "religion": "buddhist"}}, {"type": "node", "id": 4888272926, "lat": 6.8060659, "lon": 80.9102672, "tags": {"amenity": "place_of_worship", "name": "Rathakarawwa Viharaya", "religion": "buddhist"}}, {"type": "node", "id": 4895513006, "lat": 6.9370853, "lon": 80.9882578, "tags": {"amenity": "place_of_worship", "name": "Buddhist Temple", "religion": "buddhist"}}, {"type": "node", "id": 4901574643, "lat": 7.0499786, "lon": 80.661673, "tags": {"alt_name": "Niyangandora Rajamaha Viharaya", "amenity": "place_of_worship", "name": "Niyangamdora Rajamaha Viharaya", "religion": "buddhist"}}, {"type": "node", "id": 4901574655, "lat": 7.0143335, "lon": 80.6652635, "tags": {"amenity": "place_of_worship", "name": "Punduloya Buddhist Temble", "name:en": "Buddha Statue", "religion": "buddhist"}}, {"type": "node", "id": 4919739846, "lat": 7.3397037, "lon": 80.9931264, "tags": {"amenity": "place_of_worship", "name": "Buddha Statue", "religion": "buddhist"}}, {"type": "node", "id": 4924740553, "lat": 7.0576799, "lon": 80.5673483, "tags": {"addr:city": "Hapugastalawa", "addr:postcode": "20668", "addr:street": "Hurihela Road", "amenity": "place_of_worship", "denomination": "sunni", "name": "Masjidhul Hijra", "religion": "muslim"}}, {"type": "node", "id": 4966804123, "lat": 6.8124311, "lon": 80.9910178, "tags": {"amenity": "place_of_worship", "name": "Obada Ella Sri Sudharmarama Purana Viharaya", "religion": "buddhist"}}, {"type": "node", "id": 4977345021, "lat": 7.2967028, "lon": 80.7357234, "tags": {"addr:street": "Main Street", "amenity": "place_of_worship", "name": "Sri Rajawalukaramaya", "religion": "buddhist"}}, {"type": "node", "id": 4977345321, "lat": 6.8981746, "lon": 80.5924478, "tags": {"addr:street": "Hatton - Nuwara Eliya Road", "amenity": "place_of_worship", "name:en": "Saman Dewalaya", "religion": "buddhist"}}, {"type": "node", "id": 4977345622, "lat": 7.3381795, "lon": 80.5869031, "tags": {"addr:street": "Ullandupitiya Road", "amenity": "place_of_worship", "name": "Temple with Ancient Bo Tree", "religion": "buddhist"}}, {"type": "node", "id": 5080962666, "lat": 7.2948187, "lon": 80.7478313, "tags": {"addr:street": "Victoria Gof Club Road", "amenity": "place_of_worship", "name": "Sri Indrasara Viharasthanaya", "religion": "buddhist"}}, {"type": "node", "id": 5081629267, "lat": 7.0448561, "lon": 80.6485422, "tags": {"amenity": "place_of_worship", "name": "Temple", "religion": "buddhist"}}, {"type": "node", "id": 5160622076, "lat": 7.3926955, "lon": 80.5803633, "tags": {"amenity": "place_of_worship", "name": "Pabbatharama Viharaya Dolapihilla", "religion": "buddhist"}}, {"type": "node", "id": 5190045621, "lat": 7.2911897, "lon": 80.6308957, "tags": {"amenity": "place_of_worship", "religion": "muslim"}}, {"type": "node", "id": 5211060089, "lat": 7.0745617, "lon": 80.8337519, "tags": {"amenity": "place_of_worship", "name": "Kovil", "religion": "hindu"}}, {"type": "node", "id": 5211060845, "lat": 7.1046416, "lon": 80.8259533, "tags": {"amenity": "place_of_worship", "religion": "buddhist"}}, {"type": "node", "id": 5212561681, "lat": 6.9793317, "lon": 80.8061358, "tags": {"amenity": "place_of_worship", "name": "Buddhist Temple", "religion": "buddhist"}}, {"type": "node", "id": 5218122162, "lat": 6.9193442, "lon": 80.7510218, "tags": {"addr:city": "Perakumpura", "addr:street": "Perakumpura Road", "amenity": "place_of_worship", "name": "Perakumpura Temple", "religion": "buddhist"}}, {"type": "node", "id": 5220191054, "lat": 7.0533028, "lon": 80.8790946, "tags": {"amenity": "place_of_worship", "name": "Harasbedda Temple", "religion": "buddhist"}}, {"type": "node", "id": 5235318875, "lat": 7.1383989, "lon": 80.7231778, "tags": {"amenity": "place_of_worship", "name": "Gannewa-Udagama Temple", "religion": "buddhist"}}, {"type": "node", "id": 5255241494, "lat": 7.2823232, "lon": 80.5718446, "tags": {"amenity": "place_of_worship", "name": "Sooriyagoda Raja Maha Viharaya", "religion": "buddhist"}}, {"type": "node", "id": 5255323420, "lat": 7.0552434, "lon": 80.6483431, "tags": {"amenity": "place_of_worship", "name": "Pusulpitiya Raja Maha Viharaya", "religion": "buddhist"}}, {"type": "node", "id": 5265769069, "lat": 6.8168336, "lon": 80.9690677, "tags": {"addr:street": "Diyathalawa - Bandarawela Road", "amenity": "place_of_worship", "name": "Kahagolla Aranya Senasanaya", "religion": "buddhist"}}, {"type": "node", "id": 5283973448, "lat": 7.0864035, "lon": 80.5512841, "tags": {"amenity": "place_of_worship", "name": "Bo Uyana Aranya Senasanaya", "religion": "buddhist"}}, {"type": "node", "id": 5318328523, "lat": 6.8228729, "lon": 80.5273381, "tags": {"amenity": "place_of_worship"}}, {"type": "node", "id": 5369723383, "lat": 7.3570136, "lon": 80.6249231, "tags": {"amenity": "place_of_worship", "name": "Buddhist Temple", "religion": "buddhist"}}, {"type": "node", "id": 5369723384, "lat": 7.3583942, "lon": 80.6314972, "tags": {"amenity": "place_of_worship", "name": "Anuragala Rajamaha Viharaya", "religion": "buddhist"}}, {"type": "node", "id": 5369829776, "lat": 7.3060985, "lon": 80.6576541, "tags": {"amenity": "place_of_worship", "name": "Sirimalwaththa Rajamaha Viharaya", "religion": "buddhist"}}, {"type": "node", "id": 5392207197, "lat": 7.3056489, "lon": 80.6473196, "tags": {"amenity": "place_of_worship", "name": "Sri Anandabodi Viharaya", "religion": "buddhist"}}, {"type": "node", "id": 5395803305, "lat": 7.0341393, "lon": 80.9069762, "tags": {"addr:city": "Rupaha", "addr:street": "Rupaha Road", "amenity": "place_of_worship", "name": "Sri Janananda Maha Viharaya", "religion": "buddhist"}}, {"type": "node", "id": 5402678660, "lat": 7.1840817, "lon": 80.5926948, "tags": {"amenity": "place_of_worship", "name": "Temple", "religion": "buddhist"}}, {"type": "node", "id": 5402822934, "lat": 7.2484047, "lon": 80.6820156, "tags": {"amenity": "place_of_worship", "name": "Temple", "religion": "buddhist"}}, {"type": "node", "id": 5402823366, "lat": 7.2974975, "lon": 80.5943297, "tags": {"amenity": "place_of_worship", "name": "Yatihalagala Rajamaha Viharaya", "religion": "buddhist"}}, {"type": "node", "id": 5404926142, "lat": 7.2961191, "lon": 80.593147, "tags": {"amenity": "place_of_worship", "name": "Sri Sumanarama Maha Viharaya", "religion": "buddhist"}}, {"type": "node", "id": 5404926145, "lat": 7.3073569, "lon": 80.5911729, "tags": {"amenity": "place_of_worship", "name": "Buddhist Temple", "religion": "buddhist"}}, {"type": "node", "id": 5404926146, "lat": 7.3042682, "lon": 80.5908068, "tags": {"amenity": "place_of_worship", "name": "Buddhist Temple", "religion": "buddhist"}}, {"type": "node", "id": 5406840523, "lat": 7.1739434, "lon": 80.6514233, "tags": {"amenity": "place_of_worship", "name": "Sri Gnanawimalaramaya", "religion": "buddhist"}}, {"type": "node", "id": 5406840525, "lat": 7.1819589, "lon": 80.6312317, "tags": {"amenity": "place_of_worship", "name": "Gurukele Sri Bodhirajarama Viharaya", "religion": "buddhist"}}, {"type": "node", "id": 5406840533, "lat": 7.192525, "lon": 80.6070167, "tags": {"amenity": "place_of_worship", "name": "Godawela Purana Bodhimalu Viharaya", "religion": "buddhist"}}, {"type": "node", "id": 5406840546, "lat": 7.1984552, "lon": 80.6077301, "tags": {"amenity": "place_of_worship", "name": "Ganegoda Puarana Dewalaya", "religion": "buddhist"}}, {"type": "node", "id": 5406840547, "lat": 7.2003712, "lon": 80.6072688, "tags": {"amenity": "place_of_worship", "name": "Ganegoda Gangathilaka Rajamaha Viharaya", "religion": "buddhist"}}, {"type": "node", "id": 5406842203, "lat": 7.1689483, "lon": 80.6148219, "tags": {"amenity": "place_of_worship", "name": "Palle Legumdeniya Sri Punyawardhanaramaya", "religion": "buddhist"}}, {"type": "node", "id": 5406842209, "lat": 7.1794787, "lon": 80.6021512, "tags": {"amenity": "place_of_worship", "name": "Inguruwaththa Purana Viharaya", "religion": "buddhist"}}, {"type": "node", "id": 5406842212, "lat": 7.1740153, "lon": 80.6084248, "tags": {"amenity": "place_of_worship", "name": "Uda Inguruwatta Sri Siddhartha Maha Piriwena", "religion": "buddhist"}}, {"type": "node", "id": 5406843121, "lat": 7.1583299, "lon": 80.5789849, "tags": {"amenity": "place_of_worship", "name": "Buddhist Temple", "religion": "buddhist"}}, {"type": "node", "id": 5406843138, "lat": 7.1586199, "lon": 80.5783117, "tags": {"amenity": "place_of_worship", "name": "Mahara Sri Weluwanarama Maha Viharaya", "religion": "buddhist"}}, {"type": "node", "id": 5406843143, "lat": 7.1756945, "lon": 80.5847919, "tags": {"amenity": "place_of_worship", "name": "Naranwita Purana Viharaya", "religion": "buddhist"}}, {"type": "node", "id": 5456235813, "lat": 6.8523358, "lon": 80.9884135, "tags": {"amenity": "place_of_worship", "religion": "buddhist"}}, {"type": "node", "id": 5469843821, "lat": 7.0739827, "lon": 80.6805935, "tags": {"amenity": "place_of_worship", "name": "Shri Bhakta Hanuman Kovil", "religion": "hindu"}}, {"type": "node", "id": 5475026669, "lat": 7.2684899, "lon": 80.6216738, "tags": {"amenity": "place_of_worship", "name": "Heerassagala Jummah Mosque", "religion": "muslim"}}, {"type": "node", "id": 5478642731, "lat": 7.3160556, "lon": 80.7153636, "tags": {"amenity": "place_of_worship", "name": "Temple", "religion": "buddhist"}}, {"type": "node", "id": 5561677792, "lat": 7.0772687, "lon": 80.6229731, "tags": {"amenity": "place_of_worship", "fixme": "Religion and name"}}, {"type": "node", "id": 5602225819, "lat": 7.2560906, "lon": 80.5426677, "tags": {"addr:city": "pilimathalawa", "addr:postcode": "20450", "addr:street": "Alanduwaka", "amenity": "place_of_worship", "name": "Alanduwaka kudagala purana viharaya", "name:si": "\u0d85\u0dbd\u0db3\u0dd4\u0dc0\u0d9a \u0d9a\u0dd4\u0da9\u0dcf\u0d9c\u0dbd \u0db4\u0dd4\u0dbb\u0dcf\u0dab \u0dc0\u0dd2\u0dc4\u0dcf\u0dbb\u0dba", "religion": "buddhist"}}, {"type": "node", "id": 5630887394, "lat": 7.2109594, "lon": 80.6162408, "tags": {"amenity": "place_of_worship", "name": "Vishakha Dharma Asramaya", "religion": "buddhist"}}, {"type": "node", "id": 5640204529, "lat": 7.257575, "lon": 80.6339179, "tags": {"amenity": "place_of_worship", "religion": "christian"}}, {"type": "node", "id": 5652140419, "lat": 7.2898882, "lon": 80.5842501, "tags": {"amenity": "place_of_worship", "name": "Buddhist Temple", "religion": "buddhist"}}, {"type": "node", "id": 5656200796, "lat": 6.9135449, "lon": 80.9981377, "tags": {"amenity": "place_of_worship", "name": "Buddhist Temple", "religion": "buddhist"}}, {"type": "node", "id": 5656305089, "lat": 6.8857986, "lon": 80.9789908, "tags": {"amenity": "place_of_worship", "name": "Buddhist Temple", "religion": "buddhist"}}, {"type": "node", "id": 5678395565, "lat": 7.0350205, "lon": 80.7824358, "tags": {"amenity": "place_of_worship", "name": "Udawela Temple", "religion": "buddhist"}}, {"type": "node", "id": 5678396964, "lat": 7.0386851, "lon": 80.7829273, "tags": {"amenity": "place_of_worship", "name": "Mandaramnuwara Temple", "religion": "buddhist"}}, {"type": "node", "id": 5678476974, "lat": 7.2851338, "lon": 80.6341539, "tags": {"amenity": "place_of_worship", "religion": "buddhist"}}, {"type": "node", "id": 5679751100, "lat": 7.2346975, "lon": 80.6107758, "tags": {"amenity": "place_of_worship", "name": "Buddhist Temple", "religion": "buddhist"}}, {"type": "node", "id": 5679751434, "lat": 7.2191443, "lon": 80.6269955, "tags": {"amenity": "place_of_worship", "name": "Buddhist Temple", "religion": "buddhist"}}, {"type": "node", "id": 5769738654, "lat": 7.1610076, "lon": 80.6285618, "tags": {"amenity": "place_of_worship", "religion": "buddhist"}}, {"type": "node", "id": 5793613855, "lat": 7.2574545, "lon": 80.5331633, "tags": {"amenity": "place_of_worship", "name": "Buddha Statue", "religion": "buddhist"}}, {"type": "node", "id": 5909690086, "lat": 6.8938443, "lon": 80.5960138, "tags": {"addr:street": "Hatton-Maskeliya Road", "amenity": "place_of_worship", "check_date": "2025-12-30", "name:de": "Hinduistischer Tempel", "name:en": "Hinduist Temple"}}, {"type": "node", "id": 6050372485, "lat": 7.3162294, "lon": 80.7981928, "tags": {"amenity": "place_of_worship", "name:en": "Monasterio Budista"}}, {"type": "node", "id": 6054914069, "lat": 7.2308659, "lon": 80.7269141, "tags": {"amenity": "place_of_worship", "name": "Buddhist Temple", "religion": "buddhist"}}, {"type": "node", "id": 6062530311, "lat": 7.3300638, "lon": 80.5793004, "tags": {"addr:street": "Kurunegala - Kandy Road", "amenity": "place_of_worship", "name": "Sri Sudarshanaramaya", "religion": "buddhist"}}, {"type": "node", "id": 6066663510, "lat": 7.320861, "lon": 80.5086118, "tags": {"amenity": "place_of_worship", "name": "Buddhist Temple", "religion": "buddhist"}}, {"type": "node", "id": 6066663512, "lat": 7.3265062, "lon": 80.5100656, "tags": {"amenity": "place_of_worship", "name": "Weliwita Sri Sanghikaramaya", "religion": "buddhist"}}, {"type": "node", "id": 6078188581, "lat": 7.3066637, "lon": 80.5507208, "tags": {"addr:street": "Kurugama Tea Factory Rd", "amenity": "place_of_worship", "name": "Kurugama Kovil", "religion": "hindu"}}, {"type": "node", "id": 6168510354, "lat": 7.3676673, "lon": 80.5652145, "tags": {"amenity": "place_of_worship", "name": "Buddhist Temple", "religion": "buddhist"}}, {"type": "node", "id": 6168510355, "lat": 7.3642278, "lon": 80.5708927, "tags": {"amenity": "place_of_worship", "name": "Buddhist Temple", "religion": "buddhist"}}, {"type": "node", "id": 6186156907, "lat": 7.1342897, "lon": 80.6013331, "tags": {"amenity": "place_of_worship", "name": "Pallegama Purana Viharaya", "religion": "buddhist"}}, {"type": "node", "id": 6186156912, "lat": 7.1323867, "lon": 80.5863985, "tags": {"amenity": "place_of_worship", "name": "Nawa Devita Sri Gangaramaya", "religion": "buddhist"}}, {"type": "node", "id": 6186156930, "lat": 7.08521, "lon": 80.5674595, "tags": {"amenity": "place_of_worship", "name": "Buddhist Temple", "religion": "buddhist"}}, {"type": "node", "id": 6186156960, "lat": 7.0979595, "lon": 80.5903816, "tags": {"amenity": "place_of_worship", "name": "Nayapana Waththa Temple", "religion": "buddhist"}}, {"type": "node", "id": 6195831334, "lat": 6.8677334, "lon": 80.9260064, "tags": {"amenity": "place_of_worship", "name": "Buddhist Temple", "religion": "buddhist"}}, {"type": "node", "id": 6203606420, "lat": 7.2186629, "lon": 80.7347837, "tags": {"amenity": "place_of_worship", "name": "Buddhist Temple", "religion": "buddhist"}}, {"type": "node", "id": 6238086717, "lat": 6.9165683, "lon": 80.9048438, "tags": {"amenity": "place_of_worship", "name": "Buddha Statue", "religion": "buddhist"}}, {"type": "node", "id": 6268380351, "lat": 7.1590431, "lon": 80.5225003, "tags": {"amenity": "place_of_worship", "name": "Buddhist Temple", "religion": "buddhist"}}, {"type": "node", "id": 6268380495, "lat": 7.1478495, "lon": 80.5303243, "tags": {"amenity": "place_of_worship", "name": "Buddhist Temple", "religion": "buddhist"}}, {"type": "node", "id": 6284303994, "lat": 6.9444818, "lon": 80.7950033, "tags": {"amenity": "place_of_worship", "name": "Katumana Sri Seethawanaramaya", "religion": "buddhist"}}, {"type": "node", "id": 6303719655, "lat": 6.9140321, "lon": 80.6890158, "tags": {"amenity": "place_of_worship", "name": "Hindu Kovil", "religion": "hindu"}}, {"type": "node", "id": 6323174895, "lat": 6.8100741, "lon": 80.8948445, "tags": {"amenity": "place_of_worship", "name": "Buddhist Temple", "religion": "buddhist"}}, {"type": "node", "id": 6325739509, "lat": 7.2155177, "lon": 80.6102246, "tags": {"amenity": "place_of_worship"}}, {"type": "node", "id": 6325739538, "lat": 7.2249188, "lon": 80.6150687, "tags": {"amenity": "place_of_worship", "name": "Buddhist Temple", "religion": "buddhist"}}, {"type": "node", "id": 6325739547, "lat": 7.2203313, "lon": 80.6215677, "tags": {"amenity": "place_of_worship", "name": "Buddhist Temple", "religion": "buddhist"}}, {"type": "node", "id": 6350263896, "lat": 7.0128267, "lon": 80.95377, "tags": {"amenity": "place_of_worship", "name": "Dimbulana Sri Piyadharshanaramaya", "religion": "buddhist"}}, {"type": "node", "id": 6356581440, "lat": 6.9675228, "lon": 80.9830249, "tags": {"amenity": "place_of_worship", "religion": "buddhist"}}, {"type": "node", "id": 6356581444, "lat": 6.9312475, "lon": 80.9631242, "tags": {"amenity": "place_of_worship", "name": "Pallegama Temple", "religion": "buddhist"}}, {"type": "node", "id": 6364403682, "lat": 6.9005187, "lon": 80.9644693, "tags": {"amenity": "place_of_worship", "name": "Buddhist Temple", "religion": "buddhist"}}, {"type": "node", "id": 6380141252, "lat": 7.0258337, "lon": 80.8535761, "tags": {"amenity": "place_of_worship", "name": "Rathnayakapatana Temple", "religion": "buddhist"}}, {"type": "node", "id": 6401046216, "lat": 6.9710412, "lon": 80.8869991, "tags": {"amenity": "place_of_worship", "name": "Kovil", "religion": "hindu"}}, {"type": "node", "id": 6452750608, "lat": 7.2175732, "lon": 80.7262248, "tags": {"amenity": "place_of_worship", "name": "Buddhist Temple", "religion": "buddhist"}}, {"type": "node", "id": 6469594610, "lat": 7.2143761, "lon": 80.7314014, "tags": {"amenity": "place_of_worship", "religion": "buddhist"}}, {"type": "node", "id": 6495326845, "lat": 7.2951261, "lon": 80.6403217, "tags": {"addr:city": "Kandy", "amenity": "place_of_worship", "name": "Sri Vishnu Devala", "religion": "buddhist"}}, {"type": "node", "id": 6512858882, "lat": 7.2422383, "lon": 80.526258, "tags": {"amenity": "place_of_worship", "religion": "buddhist"}}, {"type": "node", "id": 6512858913, "lat": 7.2456255, "lon": 80.523431, "tags": {"amenity": "place_of_worship", "religion": "buddhist"}}, {"type": "node", "id": 6512859195, "lat": 7.2508406, "lon": 80.5188847, "tags": {"amenity": "place_of_worship", "religion": "buddhist"}}, {"type": "node", "id": 6575361341, "lat": 7.0092701, "lon": 80.6383932, "tags": {"amenity": "place_of_worship", "religion": "buddhist"}}, {"type": "node", "id": 6576256345, "lat": 7.0669649, "lon": 80.8131659, "tags": {"amenity": "place_of_worship", "name": "Merigold Sri Sumanagalaramaya", "religion": "buddhist"}}, {"type": "node", "id": 6576256854, "lat": 7.0684981, "lon": 80.7829817, "tags": {"amenity": "place_of_worship", "name": "Wellagiriya Temple", "religion": "buddhist"}}, {"type": "node", "id": 6580342429, "lat": 7.2800796, "lon": 80.668576, "tags": {"amenity": "place_of_worship", "name": "Fatima", "religion": "christian"}}, {"type": "node", "id": 6592922958, "lat": 7.0439088, "lon": 80.617083, "tags": {"amenity": "place_of_worship", "name": "Tispanekanda Sri Gunaratana Piriwena", "religion": "buddhist"}}, {"type": "node", "id": 6604712570, "lat": 7.2926445, "lon": 80.6497872, "tags": {"amenity": "place_of_worship", "name": "Thilanka Hotel", "phone": "+94 81 4 475200", "religion": "buddhist", "tourism": "hotel", "url": "thilankahotel.com"}}, {"type": "node", "id": 6625415892, "lat": 7.3229411, "lon": 80.6247637, "tags": {"amenity": "place_of_worship", "denomination": "sufi", "name": "Katugastota Grand Mosque", "religion": "muslim"}}, {"type": "node", "id": 6634814557, "lat": 6.8987666, "lon": 80.9076494, "tags": {"amenity": "place_of_worship", "religion": "buddhist"}}, {"type": "node", "id": 6712782148, "lat": 7.3061399, "lon": 80.9012066, "tags": {"amenity": "place_of_worship", "religion": "buddhist"}}, {"type": "node", "id": 6712782149, "lat": 7.2981559, "lon": 80.8826843, "tags": {"amenity": "place_of_worship", "religion": "buddhist"}}, {"type": "node", "id": 6712782150, "lat": 7.2890502, "lon": 80.9006864, "tags": {"amenity": "place_of_worship", "religion": "buddhist"}}, {"type": "node", "id": 6712782312, "lat": 7.2607478, "lon": 80.8817056, "tags": {"amenity": "place_of_worship", "religion": "buddhist"}}, {"type": "node", "id": 6712782317, "lat": 7.2645933, "lon": 80.887111, "tags": {"amenity": "place_of_worship", "religion": "buddhist"}}, {"type": "node", "id": 6723183283, "lat": 7.0115107, "lon": 80.8928122, "tags": {"amenity": "place_of_worship", "name": "Galakadapatana Sri Sudharsanaramaya", "religion": "buddhist"}}, {"type": "node", "id": 6815539011, "lat": 6.8551794, "lon": 80.9842287, "tags": {"amenity": "place_of_worship", "religion": "buddhist"}}, {"type": "node", "id": 6816873354, "lat": 6.8215208, "lon": 80.9212387, "tags": {"amenity": "place_of_worship", "religion": "buddhist"}}, {"type": "node", "id": 6832390742, "lat": 6.9230076, "lon": 80.851836, "tags": {"amenity": "place_of_worship", "religion": "buddhist"}}, {"type": "node", "id": 6900548229, "lat": 7.1428861, "lon": 80.7356581, "tags": {"amenity": "place_of_worship", "name": "Delumgahakotuwa Purana Viharaya", "religion": "buddhist"}}, {"type": "node", "id": 6900548442, "lat": 7.15052, "lon": 80.7431679, "tags": {"amenity": "place_of_worship", "religion": "buddhist"}}, {"type": "node", "id": 6900548645, "lat": 7.1577636, "lon": 80.741445, "tags": {"amenity": "place_of_worship", "religion": "buddhist"}}, {"type": "node", "id": 6905338587, "lat": 6.9384537, "lon": 80.6896039, "tags": {"amenity": "place_of_worship", "name": "Rathnagiriya Temple", "religion": "buddhist"}}, {"type": "node", "id": 6967289222, "lat": 6.8438734, "lon": 80.9252252, "tags": {"amenity": "place_of_worship", "religion": "buddhist"}}, {"type": "node", "id": 6996712097, "lat": 7.1468899, "lon": 80.6441479, "tags": {"amenity": "place_of_worship", "religion": "buddhist"}}, {"type": "node", "id": 6996712125, "lat": 7.1356625, "lon": 80.6698242, "tags": {"amenity": "place_of_worship", "religion": "buddhist"}}, {"type": "node", "id": 6996712129, "lat": 7.1482381, "lon": 80.6707218, "tags": {"amenity": "place_of_worship", "religion": "buddhist"}}, {"type": "node", "id": 6996712153, "lat": 7.1609511, "lon": 80.6627688, "tags": {"amenity": "place_of_worship", "religion": "buddhist"}}, {"type": "node", "id": 7030791976, "lat": 7.3134958, "lon": 80.641652, "tags": {"amenity": "place_of_worship", "religion": "buddhist"}}, {"type": "node", "id": 7030823323, "lat": 7.2615379, "lon": 80.5724504, "tags": {"amenity": "place_of_worship", "religion": "buddhist"}}, {"type": "node", "id": 7033499917, "lat": 7.2597368, "lon": 80.590843, "tags": {"amenity": "place_of_worship", "religion": "buddhist"}}, {"type": "node", "id": 7033569651, "lat": 7.307389, "lon": 80.6418871, "tags": {"amenity": "place_of_worship", "name": "Sri Sumana Vivekasramaya", "religion": "buddhist"}}, {"type": "node", "id": 7066604318, "lat": 7.0268258, "lon": 80.8766417, "tags": {"amenity": "place_of_worship", "religion": "buddhist"}}, {"type": "node", "id": 7079882636, "lat": 6.946011, "lon": 80.6527032, "tags": {"amenity": "place_of_worship", "denomination": "roman_catholic", "religion": "christian"}}, {"type": "node", "id": 7079883043, "lat": 6.9452597, "lon": 80.5387892, "tags": {"amenity": "place_of_worship", "denomination": "roman_catholic", "name": "St. John the Baptist", "religion": "christian"}}, {"type": "node", "id": 7082447609, "lat": 6.9776729, "lon": 80.7869935, "tags": {"amenity": "place_of_worship", "religion": "hindu"}}, {"type": "node", "id": 7082458428, "lat": 6.9711258, "lon": 80.7945368, "tags": {"amenity": "place_of_worship", "religion": "hindu"}}, {"type": "node", "id": 7085260262, "lat": 7.0796499, "lon": 80.67323, "tags": {"amenity": "place_of_worship", "religion": "hindu"}}, {"type": "node", "id": 7085319508, "lat": 7.0801783, "lon": 80.671811, "tags": {"amenity": "place_of_worship", "religion": "muslim"}}, {"type": "node", "id": 7093523810, "lat": 6.8670144, "lon": 80.9668833, "tags": {"amenity": "place_of_worship", "name": "Konthahela Temple", "religion": "buddhist"}}, {"type": "node", "id": 7099948097, "lat": 6.9176747, "lon": 80.8812967, "tags": {"amenity": "place_of_worship", "religion": "buddhist"}}, {"type": "node", "id": 7114389385, "lat": 6.9508407, "lon": 80.6332208, "tags": {"amenity": "place_of_worship", "name:en": "Temple with view", "name:fr": "Temple avec vue"}}, {"type": "node", "id": 7123737374, "lat": 7.0562464, "lon": 80.571234, "tags": {"addr:street": "Hurihela Road", "amenity": "place_of_worship", "denomination": "sunni", "name": "Masjidhul Minhaj (Jumma Masjidh)", "religion": "muslim"}}, {"type": "node", "id": 7123737376, "lat": 7.0615053, "lon": 80.5684293, "tags": {"addr:city": "hapugastalawa", "addr:postcode": "20668", "addr:street": "Downside Road", "amenity": "place_of_worship", "denomination": "sunni", "email": "haqqani888@gmail.com", "name": "Masjidhul Noor (Jumma Masjidh);Al Hamidhiyyah Arabic College", "phone": "0094542240314", "religion": "muslim", "service_times": "worship", "website": "https://www.alhamidhiyyah.com/"}}, {"type": "node", "id": 7166069085, "lat": 6.8753958, "lon": 80.5289036, "tags": {"amenity": "place_of_worship"}}, {"type": "node", "id": 7182364548, "lat": 7.3003645, "lon": 80.5283429, "tags": {"amenity": "place_of_worship", "name": "Udawela Temple", "religion": "buddhist"}}, {"type": "node", "id": 7183582488, "lat": 7.2358922, "lon": 80.5713889, "tags": {"amenity": "place_of_worship", "religion": "buddhist"}}, {"type": "node", "id": 7183582797, "lat": 7.2239856, "lon": 80.5784987, "tags": {"addr:hamlet": "Handessa", "amenity": "place_of_worship", "name": "Dumpela Viharaya", "religion": "buddhist"}}, {"type": "node", "id": 7190791489, "lat": 7.1665026, "lon": 80.7354328, "tags": {"amenity": "place_of_worship", "religion": "buddhist"}}, {"type": "node", "id": 7190791490, "lat": 7.178589, "lon": 80.7408427, "tags": {"amenity": "place_of_worship", "religion": "buddhist"}}, {"type": "node", "id": 7190791496, "lat": 7.1542216, "lon": 80.758134, "tags": {"amenity": "place_of_worship", "religion": "buddhist"}}, {"type": "node", "id": 7190791543, "lat": 7.1513119, "lon": 80.7322168, "tags": {"amenity": "place_of_worship", "religion": "buddhist"}}, {"type": "node", "id": 7190791636, "lat": 7.1448688, "lon": 80.7234648, "tags": {"amenity": "place_of_worship", "religion": "buddhist"}}, {"type": "node", "id": 7190791637, "lat": 7.1485974, "lon": 80.7542887, "tags": {"amenity": "place_of_worship", "religion": "buddhist"}}, {"type": "node", "id": 7190791638, "lat": 7.1320266, "lon": 80.7588566, "tags": {"amenity": "place_of_worship", "religion": "buddhist"}}, {"type": "node", "id": 7190791639, "lat": 7.1407303, "lon": 80.7535136, "tags": {"amenity": "place_of_worship", "religion": "buddhist"}}, {"type": "node", "id": 7205330800, "lat": 7.3989039, "lon": 80.7334117, "tags": {"addr:street": "Madulkelle - Kabaragala - Kandenuwara Road", "amenity": "place_of_worship", "name": "Madulkelle Temple", "religion": "buddhist"}}, {"type": "node", "id": 7214620496, "lat": 7.3236384, "lon": 80.6357512, "tags": {"amenity": "place_of_worship", "denomination": "theravada", "name": "Mawilmada Sri Vishuddharamaya", "religion": "buddhist"}}, {"type": "node", "id": 7220783756, "lat": 7.3202718, "lon": 80.6436557, "tags": {"amenity": "place_of_worship", "name": "Mawaweli Uyana Bo Tree", "religion": "buddhist"}}, {"type": "node", "id": 7235286488, "lat": 7.2935703, "lon": 80.6284893, "tags": {"amenity": "place_of_worship", "religion": "buddhist"}}, {"type": "node", "id": 7239680474, "lat": 6.982095, "lon": 80.9186516, "tags": {"amenity": "place_of_worship", "religion": "buddhist"}}, {"type": "node", "id": 7254708736, "lat": 7.2782398, "lon": 80.6117725, "tags": {"amenity": "place_of_worship", "name": "Sri Wajiraramaya", "religion": "buddhist"}}, {"type": "node", "id": 7267121492, "lat": 7.3970438, "lon": 80.5887271, "tags": {"amenity": "place_of_worship", "religion": "buddhist"}}, {"type": "node", "id": 7267121493, "lat": 7.3921536, "lon": 80.5910201, "tags": {"amenity": "place_of_worship", "religion": "buddhist"}}, {"type": "node", "id": 7276195397, "lat": 7.2380103, "lon": 80.7085571, "tags": {"amenity": "place_of_worship", "religion": "buddhist"}}, {"type": "node", "id": 7276376656, "lat": 7.2121063, "lon": 80.7795739, "tags": {"amenity": "place_of_worship", "religion": "buddhist"}}, {"type": "node", "id": 7276376657, "lat": 7.1910148, "lon": 80.7909304, "tags": {"amenity": "place_of_worship", "religion": "buddhist"}}, {"type": "node", "id": 7276376660, "lat": 7.1422285, "lon": 80.7931606, "tags": {"amenity": "place_of_worship", "religion": "buddhist"}}, {"type": "node", "id": 7276376675, "lat": 7.1634262, "lon": 80.8154726, "tags": {"amenity": "place_of_worship", "name": "Udagalauda Temple", "religion": "buddhist"}}, {"type": "node", "id": 7276381716, "lat": 7.1298266, "lon": 80.8039352, "tags": {"amenity": "place_of_worship", "religion": "buddhist"}}, {"type": "node", "id": 7278972268, "lat": 7.1838231, "lon": 80.7775019, "tags": {"amenity": "place_of_worship", "religion": "buddhist"}}, {"type": "node", "id": 7290900051, "lat": 6.9276213, "lon": 80.9013185, "tags": {"amenity": "place_of_worship", "religion": "buddhist"}}, {"type": "node", "id": 7323226156, "lat": 6.8317448, "lon": 80.8804786, "tags": {"amenity": "place_of_worship", "religion": "buddhist"}}, {"type": "node", "id": 7332113225, "lat": 7.273353, "lon": 80.5490311, "tags": {"amenity": "place_of_worship", "religion": "buddhist"}}, {"type": "node", "id": 7414125786, "lat": 6.9685345, "lon": 80.6108308, "tags": {"amenity": "place_of_worship", "name": "Bogahawaththa Bodhirukkharamaya", "religion": "buddhist"}}, {"type": "node", "id": 7432453522, "lat": 7.2213567, "lon": 80.5889493, "tags": {"amenity": "place_of_worship", "name": "Bogahagoda Temple", "religion": "buddhist"}}, {"type": "node", "id": 7454419976, "lat": 6.9437922, "lon": 80.9008849, "tags": {"amenity": "place_of_worship", "religion": "buddhist"}}, {"type": "node", "id": 7474159715, "lat": 6.8769695, "lon": 80.9114634, "tags": {"amenity": "place_of_worship", "religion": "buddhist"}}, {"type": "node", "id": 7559300498, "lat": 6.9124265, "lon": 80.9309471, "tags": {"amenity": "place_of_worship", "religion": "buddhist"}}, {"type": "node", "id": 7577233570, "lat": 7.2619613, "lon": 80.6364287, "tags": {"addr:city": "Kandy", "addr:hamlet": "Hanatana", "addr:street": "Hantana Road", "amenity": "place_of_worship", "name": "Sandagiri Maha Viharaya", "religion": "buddhist"}}, {"type": "node", "id": 7577233611, "lat": 7.2622303, "lon": 80.6368251, "tags": {"amenity": "place_of_worship", "name": "Sandagiri Maha Seya", "religion": "buddhist"}}, {"type": "node", "id": 7637719653, "lat": 7.3554548, "lon": 80.8653563, "tags": {"amenity": "place_of_worship", "religion": "buddhist"}}, {"type": "node", "id": 7653396592, "lat": 7.0847576, "lon": 80.5395913, "tags": {"amenity": "place_of_worship", "name": "Katukithula Temple", "religion": "buddhist"}}, {"type": "node", "id": 7653396597, "lat": 7.0757986, "lon": 80.5347041, "tags": {"amenity": "place_of_worship", "religion": "buddhist"}}, {"type": "node", "id": 7655409875, "lat": 7.0728323, "lon": 80.5428633, "tags": {"amenity": "place_of_worship", "religion": "buddhist"}}, {"type": "node", "id": 7799891194, "lat": 7.3908031, "lon": 80.7853337, "tags": {"amenity": "place_of_worship", "religion": "hindu"}}, {"type": "node", "id": 7905101879, "lat": 7.27382, "lon": 80.625771, "tags": {"District": "Kandy District", "amenity": "place_of_worship", "city": "Kandy", "name": "Kandy Summit Meditation Centre", "religion": "buddhist"}}, {"type": "node", "id": 8004074743, "lat": 7.2550732, "lon": 80.5897643, "tags": {"amenity": "place_of_worship", "name": "Sri Bhodirukkarama Temple", "religion": "buddhist"}}, {"type": "node", "id": 8004100341, "lat": 7.3092075, "lon": 80.6494181, "tags": {"amenity": "place_of_worship", "name": "Aruppola Meheni Aranya", "religion": "buddhist"}}, {"type": "node", "id": 8004100342, "lat": 7.3013281, "lon": 80.6527506, "tags": {"amenity": "place_of_worship", "name": "Dhammavivekaramaya", "religion": "buddhist"}}, {"type": "node", "id": 8021286623, "lat": 7.2554699, "lon": 80.606764, "tags": {"amenity": "place_of_worship", "religion": "hindu"}}, {"type": "node", "id": 8058526126, "lat": 6.9335267, "lon": 80.5595161, "tags": {"amenity": "place_of_worship", "religion": "buddhist"}}, {"type": "node", "id": 8065116880, "lat": 6.8725347, "lon": 80.5650991, "tags": {"amenity": "place_of_worship", "religion": "buddhist"}},