{"version": 0.6, "generator": "Overpass API 0.7.62.11 87bfad18", "osm3s": {"timestamp_osm_base": "2026-05-16T05:37:39Z", "copyright": "The data included in this document is from www.openstreetmap.org. The data is made available under ODbL."}, "elements": [{"type": "node", "id": 2380923876, "lat": 7.284675, "lon": 80.6840532, "tags": {"building": "office", "name": "Kundasale Sri Lanka Inst. of Tourism & Hotel Management"}}, {"type": "node", "id": 2828417387, "lat": 7.2837317, "lon": 80.6322078, "tags": {"name": "Institute of Fundamental Studies", "office": "government", "phone": "+94812232002", "website": "http://www.ifs.ac.lk/"}}, {"type": "node", "id": 3062236833, "lat": 7.2908923, "lon": 80.6380106, "tags": {"addr:city": "Kandy", "addr:street": "Sangaraja Mawatha", "name": "Chamber of Commerce and Industry of Central Province", "office": "government"}}, {"type": "node", "id": 3385716662, "lat": 6.9761088, "lon": 80.7626095, "tags": {"addr:city": "Nuwara Eliya", "addr:street": "Kandy - Nuwara Eliya Road", "name": "President's House", "office": "government"}}, {"type": "node", "id": 3393538282, "lat": 6.9729637, "lon": 80.7685091, "tags": {"addr:city": "Nuwara Eliya", "name": "Nuwara Eliya Municipal Council", "office": "government"}}, {"type": "node", "id": 3632318230, "lat": 7.2785895, "lon": 80.6356791, "tags": {"name": "Hanthana Water Board Office", "office": "government"}}, {"type": "node", "id": 3729745643, "lat": 7.3276899, "lon": 80.5919018, "tags": {"government": "administrative", "name": "Divisional Secretariat Office- Harispaththuwa", "office": "government"}}, {"type": "node", "id": 3729768965, "lat": 7.3182634, "lon": 80.6221363, "tags": {"name": "PD Office Kandy North Pathadumbara Integrated Water Supply Project", "office": "company", "opening_hours": "Mo-Fr 08:30-16:30"}}, {"type": "node", "id": 3729777617, "lat": 7.3174066, "lon": 80.6219716, "tags": {"name": "NJS Office", "office": "company"}}, {"type": "node", "id": 3729803865, "lat": 7.3274314, "lon": 80.5786267, "tags": {"government": "administrative", "name": "Harispaththuwa Regional office", "office": "government"}}, {"type": "node", "id": 3755864738, "lat": 7.1620266, "lon": 80.5687436, "tags": {"addr:city": "Gampola", "addr:street": "Gampola-Nawalapitiya Road", "name": "Gampola CTB depot", "office": "government"}}, {"type": "node", "id": 3790080139, "lat": 7.1321149, "lon": 80.589396, "tags": {"addr:street": "Peradeniya - Badulla - Chenkaladi Road", "name": "Udapalatha Pradeshiya Saba", "office": "government"}}, {"type": "node", "id": 3810910298, "lat": 7.2719942, "lon": 80.6030376, "tags": {"addr:street": "Gannoruwa Road", "name": "Institute of Continuing Education - Department of Animal Production And Health", "office": "government"}}, {"type": "node", "id": 3839352149, "lat": 6.9684781, "lon": 80.7728909, "tags": {"check_date": "2024-12-14", "name": "Nuwara Eliya CTB Bus Depot", "office": "government"}}, {"type": "node", "id": 3840345616, "lat": 7.3719738, "lon": 80.5252738, "tags": {"addr:city": "Galagedara CP", "addr:street": "Galagedara-Rambukkana Road", "name": "Thumpane Pradeshiya Sabha", "office": "government"}}, {"type": "node", "id": 3840345640, "lat": 7.3720433, "lon": 80.5235094, "tags": {"name:en": "Magistrate Court-Galagedara", "office": "government"}}, {"type": "node", "id": 3874368602, "lat": 7.3338124, "lon": 80.6742898, "tags": {"addr:street": "Katugastota-Bambarella Road", "name": "Pathadumbara Pradeshiya Sabha", "office": "government"}}, {"type": "node", "id": 3998841961, "lat": 7.2777515, "lon": 80.5948466, "tags": {"addr:city": "Gannoruwa", "addr:street": "Gannoruwa Road", "name": "Gannoruwa Seed Certification & Plant Protection Center", "office": "government"}}, {"type": "node", "id": 3998841989, "lat": 7.2723289, "lon": 80.5924234, "tags": {"addr:street": "Gannoruwa Road", "name": "Tea Small Holdings Development Authority", "office": "government"}}, {"type": "node", "id": 4019244696, "lat": 7.3126688, "lon": 80.632798, "tags": {"addr:street": "Katugastota Road", "name": "Hairu Group", "office": "company"}}, {"type": "node", "id": 4019244701, "lat": 7.3119531, "lon": 80.6339969, "tags": {"check_date": "2024-08-20", "name": "Central Finance Company Limited Vehicle Yard", "office": "company"}}, {"type": "node", "id": 4019244703, "lat": 7.3122458, "lon": 80.6342786, "tags": {"addr:street": "Katugastota Road", "check_date": "2024-08-20", "name": "Central Finance Company Limited", "office": "company"}}, {"type": "node", "id": 4019244708, "lat": 7.3103915, "lon": 80.6358852, "tags": {"addr:street": "Katugastota Road", "name": "Lanka ORIX Leasing Company", "office": "company"}}, {"type": "node", "id": 4019244710, "lat": 7.3094284, "lon": 80.6364673, "tags": {"addr:street": "Katugastota Road", "name": "Indra Finance Limited", "office": "company"}}, {"type": "node", "id": 4035898200, "lat": 7.287259, "lon": 80.6446747, "tags": {"name": "Department of Immigration and Emigration", "office": "government"}}, {"type": "node", "id": 4142250036, "lat": 7.161306, "lon": 80.5737107, "tags": {"addr:city": "Gampola", "addr:street": "Peradeniya - Badulla - Chenkaladi Road", "name": "National Youth Corps Training Center", "office": "government"}}, {"type": "node", "id": 4196877835, "lat": 7.2660284, "lon": 80.5657182, "tags": {"name": "Yatinuwara Pradeshiya Sabha", "office": "government"}}, {"type": "node", "id": 4322782241, "lat": 7.0942647, "lon": 80.8626117, "tags": {"government": "education", "name": "Divisional Education Office - Walapane", "office": "government"}}, {"type": "node", "id": 4322786822, "lat": 7.0945705, "lon": 80.8633918, "tags": {"name": "Red Cross Office", "office": "company"}}, {"type": "node", "id": 4433563789, "lat": 7.2949782, "lon": 80.6454949, "tags": {"name": "Venturit Private Limited", "office": "company", "type": "software services"}}, {"type": "node", "id": 4437619887, "lat": 7.0646418, "lon": 80.6845632, "tags": {"name": "Divisional Secretariat - Kotmale", "office": "government"}}, {"type": "node", "id": 4437640311, "lat": 7.056978, "lon": 80.5384077, "tags": {"name": "Ceylon Electricity Board", "office": "government"}}, {"type": "node", "id": 4437646896, "lat": 7.0462062, "lon": 80.5394114, "tags": {"name": "Customer Service Center - CEB", "office": "government"}}, {"type": "node", "id": 4775265668, "lat": 6.9668301, "lon": 80.7671645, "tags": {"addr:city": "Nuwara Eliya", "addr:postcode": "22200", "addr:street": "A5 Nuwara Eliya-Badulla Road", "name": "Central Bank Regional Office", "office": "government"}}, {"type": "node", "id": 4793183941, "lat": 6.9399067, "lon": 80.8752824, "tags": {"addr:city": "Karagahaulpatha", "addr:street": "Rendapola - Medawela - Ambagasdowa Road", "government": "administrative", "name": "Agrarian Services Center", "office": "government"}}, {"type": "node", "id": 4807539228, "lat": 6.957652, "lon": 80.9291732, "tags": {"addr:street": "Udupussellawa - Welimada Road", "government": "administrative", "name": "Uva Paranagama Divisional Secretariat", "office": "government"}}, {"type": "node", "id": 4807599244, "lat": 6.9738262, "lon": 80.7686661, "tags": {"addr:city": "Nuwara Eliya", "addr:street": "Old Udupussellawa Road", "government": "administrative", "name": "Nuwara Eliya District Secretariat", "office": "government"}}, {"type": "node", "id": 4858955840, "lat": 7.3191345, "lon": 80.6220666, "tags": {"government": "public_service", "name": "Greater Kandy Water Supply Project", "office": "government"}}, {"type": "node", "id": 4901575895, "lat": 7.0148885, "lon": 80.6649578, "tags": {"name": "Kothmale Pradeshiya Sabha", "office": "government"}}, {"type": "node", "id": 4918978143, "lat": 7.3333552, "lon": 80.9913276, "tags": {"government": "ministry", "name": "Mahiyangana Agrarian Services Office", "office": "government", "wheelchair": "limited"}}, {"type": "node", "id": 4977345621, "lat": 7.2999321, "lon": 80.7335074, "tags": {"addr:street": "Telecom Mawatha", "name:en": "Office of the Agrarian Instructor", "office": "government", "opening_hours": "Mo-Fr; Sa-Su 10:00-16:00"}}, {"type": "node", "id": 5034009421, "lat": 7.2793214, "lon": 80.6548193, "tags": {"addr:city": "Kandy", "addr:housenumber": "363, Udugama", "addr:postcode": "20000", "addr:street": "Ampitiya Road", "name": "IFS Kandy Office", "office": "company", "opening_hours": "Mo-Fr 08:00-17:00", "website": "https://www.ifsworld.com/"}}, {"type": "node", "id": 5088481838, "lat": 6.8048274, "lon": 80.9613499, "tags": {"name": "Water Board", "office": "government"}}, {"type": "node", "id": 5144523086, "lat": 6.8295569, "lon": 80.9936503, "tags": {"addr:city": "Bandarawela", "addr:housenumber": "290", "addr:postcode": "90100", "addr:street": "Badulla Road", "email": "info@ceydigital.com", "name": "Ceydigital Solutions (Pvt) Ltd", "office": "company", "phone": "+9476 530 8854", "website": "https://www.ceydigital.com/"}}, {"type": "node", "id": 5160643035, "lat": 7.3777813, "lon": 80.5872007, "tags": {"name": "Pujapitiya Pradeshiya Sabha", "office": "government"}}, {"type": "node", "id": 5160643036, "lat": 7.3776674, "lon": 80.5873553, "tags": {"name": "Batugoda Govijana Kendraya", "office": "government"}}, {"type": "node", "id": 5160643037, "lat": 7.3774877, "lon": 80.5874591, "tags": {"name": "Pujapitiya Divisional Secretariat", "office": "government"}}, {"type": "node", "id": 5164039024, "lat": 7.2961076, "lon": 80.6395663, "tags": {"name": "810 SQN Army Camp", "office": "government"}}, {"type": "node", "id": 5164942021, "lat": 7.3820646, "lon": 80.5689145, "tags": {"name": "Marathugoda Divi Neguma Bank", "office": "government"}}, {"type": "node", "id": 5181354226, "lat": 7.3994317, "lon": 80.5787984, "tags": {"name": "Godahena Elders Home", "office": "government"}}, {"type": "node", "id": 5187795640, "lat": 7.2659357, "lon": 80.5960011, "tags": {"name:en": "Department of National Botanic Garden", "office": "government"}}, {"type": "node", "id": 5187795822, "lat": 7.2650365, "lon": 80.5961366, "tags": {"name:en": "Sri Lanka Telecom Galaha", "office": "government"}}, {"type": "node", "id": 5187800522, "lat": 7.2662798, "lon": 80.5961131, "tags": {"name:en": "Young Farmers Clubs Head Quarters", "office": "government"}}, {"type": "node", "id": 5188048521, "lat": 7.267498, "lon": 80.6012812, "tags": {"name:en": "Department of Export Agriculture", "office": "government"}}, {"type": "node", "id": 5188056122, "lat": 7.2682546, "lon": 80.6025427, "tags": {"name": "Foreign Ministry Regional Consular Office - Kandy", "office": "government", "survey:date": "2024-08-25"}}, {"type": "node", "id": 5188057721, "lat": 7.2676791, "lon": 80.6017878, "tags": {"name:en": "Provincial Ministry Central Province", "office": "government"}}, {"type": "node", "id": 5188059022, "lat": 7.2699501, "lon": 80.6044552, "tags": {"name:en": "Department of Animal production and Health", "office": "government"}}, {"type": "node", "id": 5188069021, "lat": 7.2686736, "lon": 80.6033311, "tags": {"name:en": "Provincial Ministry Development Central Province", "office": "government"}}, {"type": "node", "id": 5188089321, "lat": 7.2700543, "lon": 80.6048037, "tags": {"name:en": "Ministry of Water Supply and Drainage Getembe", "office": "government"}}, {"type": "node", "id": 5188178921, "lat": 7.2895716, "lon": 80.6333471, "tags": {"addr:city": "Kandy", "addr:street": "Baladaksha Mawatha", "alt_name": "UDA Kandy Office", "government": "administrative", "name": "Urban Development Authority - Kandy Provincial Office", "office": "government"}}, {"type": "node", "id": 5191180322, "lat": 6.9055155, "lon": 80.9096689, "tags": {"name": "Medical Officer of Health - Welimada", "office": "government"}}, {"type": "node", "id": 5193024599, "lat": 7.2762315, "lon": 80.5971635, "tags": {"check_date": "2024-08-29", "name": "National Agriculture Information & Communication Centre", "office": "government"}}, {"type": "node", "id": 5197703094, "lat": 7.3995708, "lon": 80.5784521, "tags": {"name": "Divineguma Bank Dolapihilla", "office": "government"}}, {"type": "node", "id": 5197705031, "lat": 7.3998102, "lon": 80.578672, "tags": {"name": "Godahena Grama Niladari Office", "office": "government"}}, {"type": "node", "id": 5212232840, "lat": 6.9692502, "lon": 80.7733995, "tags": {"addr:city": "Nuwara Eliya", "addr:postcode": "22200", "addr:street": "Nuwara Eliya - Udapussellawa Road", "check_date": "2024-12-14", "name": "Department of Motor Traffic", "office": "government"}}, {"type": "node", "id": 5242865221, "lat": 7.2964136, "lon": 80.6406485, "tags": {"name": "Central Province Governor's Office", "office": "government"}}, {"type": "node", "id": 5250505230, "lat": 7.3046848, "lon": 80.6506998, "tags": {"addr:city": "Kandy", "addr:street": "Dutugemunu Mawatha Road", "name": "Riverview lodge", "office": "company"}}, {"type": "node", "id": 5354034324, "lat": 7.3071675, "lon": 80.6488509, "tags": {"name:en": "KMC Workshop", "office": "government"}}, {"type": "node", "id": 5406843140, "lat": 7.1597961, "lon": 80.5743995, "tags": {"name": "Udapalatha Divisional Secretariat Office", "office": "government"}}, {"type": "node", "id": 5537203821, "lat": 7.2592512, "lon": 80.6785083, "tags": {"name": "Ketawala-Leula Agrarian Services Center", "office": "government"}}, {"type": "node", "id": 5600638483, "lat": 7.3795776, "lon": 80.74266, "tags": {"name": "Kundasale Water Supply Scheme", "office": "government"}}, {"type": "node", "id": 5624277927, "lat": 7.2680985, "lon": 80.602959, "tags": {"name": "Department of Export Agriculture", "office": "government"}}, {"type": "node", "id": 5655111784, "lat": 7.0820894, "lon": 80.5754622, "tags": {"addr:city": "Kotmale", "government": "public_service", "name": "Mahaweli Environment and Forest conservation Division (EFCD)", "office": "government"}}, {"type": "node", "id": 5655115056, "lat": 7.0843302, "lon": 80.5708607, "tags": {"government": "public_service", "name": "Mahaweli Kotmale BM Office", "office": "government"}}, {"type": "node", "id": 5655115057, "lat": 7.0852478, "lon": 80.5694784, "tags": {"name": "Kotmale International Training Institute (KITI)", "office": "government"}}, {"type": "node", "id": 5655116573, "lat": 7.0828843, "lon": 80.5756241, "tags": {"government": "public_service", "name": "Kotmale Dam Office (EIC)", "office": "government"}}, {"type": "node", "id": 5802558653, "lat": 7.3190722, "lon": 80.878554, "tags": {"name:en": "Divisional Secratariet Office - Udadumbara", "office": "government"}}, {"type": "node", "id": 5930272486, "lat": 6.812231, "lon": 80.954883, "tags": {"addr:postcode": "90150", "addr:street": "Fox Hill Road", "email": "slma@army.lk", "name": "Sri Lanka Military Academy", "name:ja": "\u30b9\u30ea\u30e9\u30f3\u30ab\u8ecd\u4e8b\u30a2\u30ab\u30c7\u30df\u30fc", "office": "government", "opening_hours": "24/7", "phone": "+94 572 229 071", "website": "https://www.army.lk/"}}, {"type": "node", "id": 5933352785, "lat": 7.3721304, "lon": 80.5249906, "tags": {"email": "dsthumpane@Gmail.com", "name": "Divisional Secretariat Thumpane", "name:en": "Thumpane Divisional Secretariat-Galagedara", "office": "government", "opening_hours": "Mo-Fr 09:00-18:00", "phone": "0812461234", "website": "http://www.thumpane.ds.gov.lk"}}, {"type": "node", "id": 6178963432, "lat": 6.9634946, "lon": 80.7767978, "tags": {"name": "Nuwara Eliya Army Camp", "office": "government"}}, {"type": "node", "id": 6218088731, "lat": 7.3633553, "lon": 80.7135057, "tags": {"name": "Panwila Divisional Secretariat Office", "office": "government"}}, {"type": "node", "id": 6293658248, "lat": 7.2907542, "lon": 80.6326975, "tags": {"name": "SLT Kandy Regional Office", "office": "company"}}, {"type": "node", "id": 6303719674, "lat": 6.9231465, "lon": 80.6884029, "tags": {"name": "Agrarian Services Office", "office": "government"}}, {"type": "node", "id": 6303719675, "lat": 6.922819, "lon": 80.688356, "tags": {"name": "Prajamula Bank", "office": "government"}}, {"type": "node", "id": 6303719995, "lat": 6.9146046, "lon": 80.7060385, "tags": {"addr:city": "Talawakele", "addr:street": "TRI Road", "name": "Sri Lanka Tea Research Institute", "office": "government"}}, {"type": "node", "id": 6365304603, "lat": 6.9282281, "lon": 80.8974624, "tags": {"addr:street": "Udupussellawa - Welimada Road", "government": "administrative", "name": "Ambagasdowa Agrarian Services Office", "office": "government"}}, {"type": "node", "id": 6370311591, "lat": 7.2912145, "lon": 80.6440459, "tags": {"name": "District Survay Office Kandy", "office": "government"}}, {"type": "node", "id": 6370311650, "lat": 7.292151, "lon": 80.6435256, "tags": {"name": "Diyawadana Nilame's Bungalow", "office": "government"}}, {"type": "node", "id": 6370311658, "lat": 7.2912651, "lon": 80.6434947, "tags": {"name": "Chief Minister's Bungalow", "office": "government"}}, {"type": "node", "id": 6370311659, "lat": 7.2908314, "lon": 80.6438179, "tags": {"name": "Ministry of Health Central Province", "office": "government"}}, {"type": "node", "id": 6370311703, "lat": 7.2925301, "lon": 80.643032, "tags": {"name": "Department of Archaeology", "office": "government"}}, {"type": "node", "id": 6370311704, "lat": 7.2930483, "lon": 80.6423735, "tags": {"name": "Department of Buddhist Affairs", "office": "government"}}, {"type": "node", "id": 6495293948, "lat": 7.2919376, "lon": 80.6310013, "tags": {"name": "Zonal Educational Office", "office": "government"}}, {"type": "node", "id": 6602152811, "lat": 7.2954846, "lon": 80.6331387, "tags": {"government": "administrative", "name": "Kandy Police Officers' Quarters", "office": "government"}}, {"type": "node", "id": 6602152858, "lat": 7.2942501, "lon": 80.6323394, "tags": {"government": "public_service", "name": "Kandurata FM (Former Mahanuwara Sewaya)", "office": "government"}}, {"type": "node", "id": 6602152874, "lat": 7.294612, "lon": 80.6302701, "tags": {"government": "ministry", "name": "Department of Textile Industries", "office": "government"}}, {"type": "node", "id": 6611413479, "lat": 7.2892737, "lon": 80.6477319, "tags": {"name": "Inland Revenue Department - Kandy Reginal Office", "office": "government"}}, {"type": "node", "id": 6611413482, "lat": 7.2890834, "lon": 80.6473088, "tags": {"name": "Judges Bunglow", "office": "government"}}, {"type": "node", "id": 6611417529, "lat": 7.2911946, "lon": 80.6467335, "tags": {"name": "Forest Department", "office": "government"}}, {"type": "node", "id": 6611417536, "lat": 7.291412, "lon": 80.6477078, "tags": {"name": "Associates-Chartered Accountants", "office": "company"}}, {"type": "node", "id": 6612660681, "lat": 7.2958411, "lon": 80.6400861, "tags": {"name": "Army Head Quarters", "office": "government"}}, {"type": "node", "id": 6612661916, "lat": 7.2968428, "lon": 80.6385072, "tags": {"name": "President's House", "office": "government", "wheelchair": "yes"}}, {"type": "node", "id": 6625416792, "lat": 7.2774203, "lon": 80.6732337, "tags": {"name": "Engineering Materials Laboratory", "office": "government"}}, {"type": "node", "id": 6634733043, "lat": 7.2759548, "lon": 80.634386, "tags": {"office": "government"}}, {"type": "node", "id": 7017306716, "lat": 6.9726105, "lon": 80.7798433, "tags": {"addr:city": "Nuwara Eliya", "addr:housenumber": "13/1", "addr:street": "Hospital Road", "name": "CDN Construction", "office": "company", "opening_hours": "Mo-Fr 09:00-17:00"}}, {"type": "node", "id": 7134833985, "lat": 7.2393071, "lon": 80.5948488, "tags": {"name:en": "Gune ayyas House", "office": "company"}}, {"type": "node", "id": 7183582766, "lat": 7.2287252, "lon": 80.5742996, "tags": {"addr:street": "Pilimathalawa - Daulgala Road", "name": "Udunuwara Coopeartive Office", "office": "government"}}, {"type": "node", "id": 7183582768, "lat": 7.2277995, "lon": 80.5744096, "tags": {"addr:hamlet": "Daulagala", "addr:street": "Pilimathalawa - Daulgala Road", "name": "Udunuwara Divisional Secretariat Office", "office": "government"}}, {"type": "node", "id": 7236319707, "lat": 7.2939779, "lon": 80.6339833, "tags": {"addr:city": "Kandy", "addr:street": "Colombo - Kandy Road", "name": "Kandy DIG's Office", "office": "government"}}, {"type": "node", "id": 7572625857, "lat": 7.2897405, "lon": 80.6421013, "tags": {"addr:city": "Kandy", "addr:street": "Saranankara Road", "name": "Caltex Regional Warehouse", "office": "company"}}, {"type": "node", "id": 8018183532, "lat": 7.1337667, "lon": 80.5892041, "tags": {"addr:street": "Delpitiya - Pupuressa Road", "government": "administrative", "name": "Delpitiya Agrarian Services Center", "office": "government"}}, {"type": "node", "id": 8345400456, "lat": 7.2027393, "lon": 80.5972544, "tags": {"government": "administrative", "name": "Grama Niladhari - Pitawalawatta", "office": "government"}}, {"type": "node", "id": 8411336654, "lat": 7.264365, "lon": 80.587825, "tags": {"addr:city": "Peradeniya", "addr:street": "Galwala Road", "government": "administrative", "name": "CEB Bill Payment/Consumer/ Area Engineers Office", "office": "government"}}, {"type": "node", "id": 8529725320, "lat": 7.2822579, "lon": 80.6851322, "tags": {"name": "National Water Supply & Drainage Board Office (Kandy-East) Customer Service Centre", "office": "government"}}, {"type": "node", "id": 8728437254, "lat": 7.2477237, "lon": 80.591674, "tags": {"government": "register_office", "name": "Marriage Registrar", "office": "government"}}, {"type": "node", "id": 9271781756, "lat": 7.1973273, "lon": 80.6683465, "tags": {"government": "public_service", "name": "Government Veterinary Office Galaha", "office": "government"}}, {"type": "node", "id": 9271781793, "lat": 7.1965108, "lon": 80.6694928, "tags": {"addr:city": "Galaha", "addr:street": "Galaha - Pupuressa Road", "government": "public_service", "name": "Agrarian Service Center", "name:si": "\u0d9c\u0ddc\u0dc0\u0dd2\u0da2\u0db1 \u0dc3\u0dda\u0dc0\u0dcf \u0db8\u0db0\u0dca\u200d\u0dba\u0dc3\u0dca\u0dae\u0dcf\u0db1\u0dba", "office": "government"}}, {"type": "node", "id": 9991534235, "lat": 7.0756767, "lon": 80.891568, "tags": {"government": "agriculture_office", "name": "Agrarian Service Center Nildandahinna", "office": "government"}}, {"type": "node", "id": 9991534236, "lat": 7.0758574, "lon": 80.8913403, "tags": {"government": "administrative", "name": "Divisional Secretariat Walapane", "office": "government"}}, {"type": "node", "id": 10112849520, "lat": 6.8704443, "lon": 80.8686689, "tags": {"building": "office"}}, {"type": "node", "id": 10223351423, "lat": 6.8325338, "lon": 80.9883839, "tags": {"government": "administrative", "name": "BANDARAWELA DIVISIONAL SECRETARIAT", "office": "government"}}, {"type": "node", "id": 10223361669, "lat": 6.8324607, "lon": 80.9883818, "tags": {"office": "government"}}, {"type": "node", "id": 10266557594, "lat": 7.3451433, "lon": 80.6177054, "tags": {"office": "government"}}, {"type": "node", "id": 10928589847, "lat": 6.9174032, "lon": 80.6004707, "tags": {"name": "Goverment Teachers Collage", "office": "government"}}, {"type": "node", "id": 11530113055, "lat": 6.8354654, "lon": 80.5703248, "tags": {"name": "maskeliya pradeshiya sabha", "office": "government"}}, {"type": "node", "id": 12136217831, "lat": 7.2682036, "lon": 80.6024976, "tags": {"name": "Department of Trade, Commerce and Tourism - Central Province", "office": "government", "survey:date": "2024-08-25"}}, {"type": "node", "id": 12136217832, "lat": 7.2684133, "lon": 80.6025877, "tags": {"name": "Library Services Board - Central Province", "office": "government", "survey:date": "2024-08-25"}}, {"type": "node", "id": 12136228575, "lat": 7.2680134, "lon": 80.6023096, "tags": {"name": "Office of the Registrar of Pesticides - Peradeniya", "office": "government", "survey:date": "2024-08-25"}}, {"type": "node", "id": 12136228576, "lat": 7.2677819, "lon": 80.6025194, "tags": {"name": "Department of Agrarian Development - District Office Kandy", "office": "government", "survey:date": "2024-08-25"}}, {"type": "node", "id": 12169866975, "lat": 7.1221387, "lon": 80.8528553, "tags": {"name": "Hunan Construction Engineering Group Corporation", "office": "company"}}, {"type": "node", "id": 13161714351, "lat": 7.292075, "lon": 80.6333875, "tags": {"addr:city": "Kandy", "addr:street": "Lamagaraya Road", "government": "public_service", "name": "CEB Kandy", "office": "government"}}, {"type": "node", "id": 13249054531, "lat": 7.0687616, "lon": 80.6850646, "tags": {"addr:city": "Tawalantenna", "addr:postcode": "20838", "addr:street": "Tawalantenna-Talawakele Road", "name": "Sri Lanka Telecom - Ramboda", "office": "company"}}, {"type": "way", "id": 229493811, "center": {"lat": 7.28148, "lon": 80.6842448}, "nodes": [2380847314, 2380847293, 2380847312, 2380847316, 2380847314], "tags": {"building": "yes", "name": "Kundasale Children's Park", "office": "government"}}, {"type": "way", "id": 244841621, "center": {"lat": 6.8081778, "lon": 80.9592261}, "nodes": [2521106402, 2521106397, 2521106410, 2521106411, 2521106427, 2521106426, 2521106432, 2521106439, 2521106431, 2521106429, 2521106407, 2521106408, 2521106396, 2521106394, 2521106383, 2521106380, 2521106381, 2521106379, 2521106387, 2521106388, 2521106402], "tags": {"building": "yes", "building:levels": "1", "name": "Agrarian Service Center", "office": "government"}}, {"type": "way", "id": 244847035, "center": {"lat": 6.8115694, "lon": 80.9556501}, "nodes": [2521164573, 2521164578, 2521164540, 2521164534, 2521164573], "tags": {"building": "office"}}, {"type": "way", "id": 244914950, "center": {"lat": 6.8165872, "lon": 80.9589329}, "nodes": [2521876876, 2521876901, 2521876896, 2521876871, 2521876854, 2521876823, 2521876811, 2521876775, 2521876770, 2521876727, 2521876699, 2521876675, 2521876716, 2521876804, 2521876778, 2521876806, 2521876737, 2521876669, 2521876655, 2521876651, 2521876649, 2521876647, 2521876646, 2521876642, 2521876638, 2521876636, 2521876635, 2521876634, 2521876633, 2521876632, 2521876624, 2521876622, 2521876619, 2521876616, 2521876607, 2521876604, 2521876600, 2521876598, 2521876595, 2521876599, 2559467433, 2559467434, 2521876613, 2521876617, 2521876620, 2521876623, 2521876625, 2521876628, 2521876631, 2521876630, 2521876626, 2559467430, 2559467431, 2559467432, 2521876621, 2559467426, 2559467429, 2559467427, 2521876618, 2559467425, 2521876597, 2521876594, 2521876593, 2521876592, 2521876590, 2521876588, 2521876587, 2521876585, 2521876584, 2521876582, 2521876581, 2521876580, 2521876579, 2521876578, 2521876577, 2521876576, 2521876575, 2559467435, 2521876574, 2521876572, 2521876571, 2521876570, 2521876569, 2521876568, 2521876565, 2521876564, 2521876563, 2559467436, 2521876562, 2521876560, 2521876558, 2521876556, 2521876555, 2521876554, 2521876553, 2521876552, 2521876551, 2521876550, 2521876549, 2521876548, 2521876547, 2521876546, 2521876544, 2521876541, 2521876540, 2559467437, 2521876537, 2521876535, 2521876534, 2559467439, 2521876531, 2521876529, 2521876527, 2521876526, 2521876524, 2521876522, 2521876521, 2521876519, 2521876517, 2521876516, 2521876503, 2521876501, 2521876500, 2521876499, 2521876498, 2521876497, 2521876495, 2521876494, 2521876492, 2521876489, 2559467440, 2521876483, 2521876486, 2521876484, 2559467441, 2521876482, 2559467442, 2521876478, 2521876479, 2559467443, 2521876488, 2521876491, 2521876493, 2521876502, 2521876525, 2521876528, 2521876530, 2521876533, 2521876536, 2521876545, 2521876538, 2521876532, 2521876515, 2521876481, 2521876477, 2521876474, 2521876470, 2521876468, 2521876464, 2521876473, 2559467635, 2559467632, 2559467630, 2559467628, 2559467626, 2559467638, 2559467600, 2559467609, 2559467607, 2559467605, 2559467611, 2559467603, 2559467623, 2559467621, 2559467616, 2559467618, 2559467614, 2559467587, 2559467593, 2559467598, 2559467596, 2559467591, 2559467589, 2521876876], "tags": {"area": "yes", "name": "Institute of Surveying & Mapping", "office": "government"}}, {"type": "way", "id": 244935480, "center": {"lat": 6.8316079, "lon": 80.9873075}, "nodes": [2522067445, 2522067479, 2522067435, 2522067390, 2522067396, 2522067378, 2522067382, 2522067400, 2522067445], "tags": {"building": "yes", "name": "railway quaters", "office": "government"}}, {"type": "way", "id": 245405537, "center": {"lat": 6.8302531, "lon": 80.9861233}, "nodes": [2526145918, 2526145933, 10156030583, 2526145929, 2526145913, 2526145918], "tags": {"building": "yes", "name": "irrigation quaters", "office": "government"}}, {"type": "way", "id": 245405539, "center": {"lat": 6.8306022, "lon": 80.9862167}, "nodes": [2526145965, 5299616108, 5299616111, 5299616110, 5299616109, 2526146007, 2526145979, 2526145950, 2526145965], "tags": {"building": "yes", "name": "Irrigation zonal office", "office": "government"}}, {"type": "way", "id": 254656424, "center": {"lat": 7.0695279, "lon": 80.5833143}, "nodes": [2604637538, 2604637540, 2604637542, 2604637544, 2604637538], "tags": {"addr:city": "Gampola Through", "addr:housename": "Divitional Survey Office-Kotmale", "addr:street": "Nayapana Colony", "building": "office", "building:levels": "1"}}, {"type": "way", "id": 287815998, "center": {"lat": 7.2719766, "lon": 80.6094661}, "nodes": [2913832214, 2913832215, 2913832216, 2913832217, 2913832218, 2913832219, 2913832220, 2913832221, 2913832214], "tags": {"building": "office", "description": "Kandy Court Complex offices"}}, {"type": "way", "id": 298282116, "center": {"lat": 7.2943483, "lon": 80.634047}, "nodes": [2019657936, 8939055438, 3021908322, 5504401135, 257927925, 4180006455, 257927926, 2019657936], "tags": {"name": "Ceylon Electricity Board", "office": "government"}}, {"type": "way", "id": 314206745, "center": {"lat": 7.1750547, "lon": 80.7791801}, "nodes": [3202543872, 3202543873, 3202543874, 3202543875, 3202543876, 3202543877, 3202543878, 3202543872], "tags": {"building": "office", "name": "Zonal Education Office - Hanguranketha"}}, {"type": "way", "id": 367593651, "center": {"lat": 7.2778016, "lon": 80.5940853}, "nodes": [3715037052, 3715037053, 3715037054, 3715037055, 3715037056, 3715037057, 3715037058, 3715037059, 3715037060, 3715037061, 3715037062, 3715037063, 3715037064, 3715037052], "tags": {"addr:city": "peradeniya", "addr:street": "Gannoruwa Road", "building": "yes", "name": "Provincial Surveyor General's Office", "office": "government"}}, {"type": "way", "id": 455231216, "center": {"lat": 7.0547553, "lon": 80.5352411}, "nodes": [4516492452, 4516492453, 4516492454, 4516492455, 4516492456, 4516492457, 4516492452], "tags": {"building": "yes", "name": "Urban Council, Nawalapitiya", "office": "government"}}, {"type": "way", "id": 455231336, "center": {"lat": 7.0554135, "lon": 80.5361272}, "nodes": [4516494148, 4516494149, 4516494150, 4516494151, 4516494152, 4516494153, 4516494154, 4516494155, 4516494156, 4516494157, 4516494158, 4516494159, 4516494148], "tags": {"building": "yes", "name": "Divisional Secretary Office, Pasbage Korale", "office": "government"}}, {"type": "way", "id": 494128849, "center": {"lat": 7.2870631, "lon": 80.6360639}, "nodes": [4859304601, 4859304600, 4859304599, 4859304598, 4859304601], "tags": {"building": "yes", "government": "healthcare", "name": "Regional Director of Health Services Office-Kandy", "office": "government"}}, {"type": "way", "id": 558134310, "center": {"lat": 7.3035925, "lon": 80.6338159}, "nodes": [5382076689, 5382076688, 5382076687, 5382076686, 5382076689], "tags": {"building": "yes", "name": "Mahaiyawa General Cemetery Office", "office": "government"}}, {"type": "way", "id": 573434598, "center": {"lat": 7.2950647, "lon": 80.6356793}, "nodes": [8936981850, 8936981846, 8936981847, 8936981848, 8936981845, 8936981850], "tags": {"name": "UB FInance Company Limited - Kandy Branch", "office": "company"}}, {"type": "way", "id": 573434604, "center": {"lat": 7.2956432, "lon": 80.6352225}, "nodes": [8936981827, 5507443978, 8936981822, 5507443961, 5507443975, 5507443974, 8939055495, 8936981821, 8936981820, 8939055500, 5507443942, 8936981831, 8936981833, 8936981827], "tags": {"name": "Sinha Regiment Officers Mess", "office": "government"}}, {"type": "way", "id": 573434605, "center": {"lat": 7.2962304, "lon": 80.635352}, "nodes": [8936981833, 8936981831, 5507443980, 8936981829, 8939055482, 8936981832, 8936981833], "tags": {"addr:city": "Kandy", "addr:street": "Yatinuwara Veediya", "name": "National Housing Development Authority - Kandy District Office", "office": "government"}}, {"type": "way", "id": 573434607, "center": {"lat": 7.2968433, "lon": 80.6350963}, "nodes": [8936981829, 5507443980, 8936974808, 8939055491, 8939055484, 8939055492, 5507443990, 8936981829], "tags": {"alt_name:si": "\u0d9a\u0da0\u0dca\u0da0\u0dda\u0dbb\u0dd2\u0dba", "name": "Kandy District Secretariat", "office": "government"}}, {"type": "way", "id": 585726105, "center": {"lat": 6.9717876, "lon": 80.7733433}, "nodes": [5596836736, 5596836732, 5596836730, 5596836729, 5596836731, 5596836735, 5596836734, 5596836733, 5596836736], "tags": {"building": "yes", "name": "Forest Conservation Office-Uva & Central Provinces", "office": "government"}}, {"type": "way", "id": 585726106, "center": {"lat": 6.9715185, "lon": 80.7738731}, "nodes": [5596836740, 5596836739, 5596836738, 5596836737, 5596836740], "tags": {"building": "yes", "name": "Range & District Forest Office", "office": "government"}}, {"type": "way", "id": 589119520, "center": {"lat": 7.2490759, "lon": 80.594584}, "nodes": [5625831648, 5625831647, 5625831646, 5625831645, 5625831644, 5625831643, 5625831642, 5625831641, 5625831640, 5625831639, 5625831638, 5625831637, 5625831636, 5625831635, 5625831648], "tags": {"name": "PeradeniyaWaterboard", "office": "government"}}, {"type": "way", "id": 589167392, "center": {"lat": 7.2542484, "lon": 80.5967864}, "nodes": [5626174423, 7062344455, 5626174422, 5626174421, 5626174423], "tags": {"amenity": "Administrative", "building": "office", "building:age": "more_than_20", "building:foundation_height": "1.5_to_3", "building:levels": "3", "building:material": "plaster", "building:number": "5", "name": "Administration Building", "roof:material": "asbestos", "roof:shape": "hipped"}}, {"type": "way", "id": 897802707, "center": {"lat": 7.2810583, "lon": 80.6852866}, "nodes": [8343935045, 8343935046, 8343935047, 8343935048, 8343935049, 8343935050, 8343935051, 8343935052, 8343935053, 8343935054, 8343935055, 8343935056, 8343935045], "tags": {"building": "yes", "office": "government"}}, {"type": "way", "id": 897841321, "center": {"lat": 7.2817278, "lon": 80.6895127}, "nodes": [8344236782, 8344236783, 8344236784, 8344236785, 8344236782], "tags": {"building": "yes", "name": "Grama Niladhari - Kundasale North", "office": "government"}}, {"type": "way", "id": 898457529, "center": {"lat": 7.2825878, "lon": 80.6733938}, "nodes": [8349108142, 8349108143, 8349108144, 8349108145, 8349108142], "tags": {"building": "yes", "name": "Grama Niladhari - Pandiwattte", "office": "government"}}, {"type": "way", "id": 966244695, "center": {"lat": 7.2950363, "lon": 80.6363041}, "nodes": [8939412558, 8939412555, 8939412556, 8939412557, 8939412558], "tags": {"addr:city": "Kandy", "addr:street": "Raja Veediya", "building": "yes", "name": "Ceylinco", "office": "company"}}, {"type": "way", "id": 1001993393, "center": {"lat": 7.0961421, "lon": 80.8618549}, "nodes": [9247938191, 9247938192, 9247938193, 9247938194, 9247938191], "tags": {"building": "yes", "government": "administrative", "name": "Walapane Pradeshiya Sabha", "office": "government"}}, {"type": "way", "id": 1002491152, "center": {"lat": 6.8690706, "lon": 80.5983041}, "nodes": [9252028308, 9252028309, 9252028310, 9252028311, 9252028312, 9252028313, 9252028308], "tags": {"addr:city": "hatton", "building": "industrial", "name": "Wanarajah Estate Office", "office": "company"}}, {"type": "way", "id": 1039251397, "center": {"lat": 6.9738282, "lon": 80.7703454}, "nodes": [9570168708, 9570168705, 9570168704, 9570168702, 9570168701, 9570168700, 9570168699, 9570168697, 9570168695, 9570168708], "tags": {"amenity": "school", "name": "post office", "office": "government"}}, {"type": "way", "id": 1090848867, "center": {"lat": 7.0760394, "lon": 80.8914197}, "nodes": [9991516871, 9991516872, 9991516873, 9991516874, 9991516871], "tags": {"building": "yes", "government": "public_service", "office": "government"}}, {"type": "way", "id": 1090848869, "center": {"lat": 7.0758751, "lon": 80.8913153}, "nodes": [9991516879, 9991516880, 9991516881, 9991516882, 9991516879], "tags": {"building": "yes", "government": "administrative", "name": "Divisional Secretariat Walapane", "office": "government"}}, {"type": "way", "id": 1090848871, "center": {"lat": 7.0757043, "lon": 80.8913509}, "nodes": [9991516887, 9991516888, 9991516889, 9991516890, 9991516891, 9991516892, 9991516887], "tags": {"building": "yes", "office": "government"}}, {"type": "way", "id": 1090848872, "center": {"lat": 7.0756613, "lon": 80.8910764}, "nodes": [9991516893, 9991516894, 9991516895, 9991516896, 9991516893], "tags": {"building": "yes", "office": "government"}}, {"type": "way", "id": 1090848873, "center": {"lat": 7.0755588, "lon": 80.8910865}, "nodes": [9991516897, 9991516898, 9991516899, 9991516900, 9991516897], "tags": {"building": "yes", "government": "public_service", "office": "government"}}, {"type": "way", "id": 1090848874, "center": {"lat": 7.0756601, "lon": 80.8915308}, "nodes": [9991516901, 9991516902, 9991516903, 9991516904, 9991516905, 9991516906, 9991516901], "tags": {"building": "yes", "government": "agriculture", "name": "Agrarian Service Center Nildandahinna", "office": "government"}}, {"type": "way", "id": 1102273449, "center": {"lat": 7.3278561, "lon": 80.5917379}, "nodes": [10086316911, 10086316908, 10086316909, 10086316910, 10086316911], "tags": {"building": "office", "name": "Nugawela GN office"}}, {"type": "way", "id": 1105113369, "center": {"lat": 6.8554793, "lon": 80.8790391}, "nodes": [10112904082, 10112904081, 10112904080, 10112904079, 10112904082], "tags": {"building": "office"}}, {"type": "way", "id": 1105113370, "center": {"lat": 6.8554511, "lon": 80.8791125}, "nodes": [10112904086, 10112904085, 10112904084, 10112904083, 10112904086], "tags": {"building": "office"}}, {"type": "way", "id": 1105113371, "center": {"lat": 6.8553721, "lon": 80.8793306}, "nodes": [10112904090, 10112904089, 10112904088, 10112904087, 10112904090], "tags": {"building": "office"}}, {"type": "way", "id": 1108466633, "center": {"lat": 6.959052, "lon": 80.609426}, "nodes": [10142204047, 10142204048, 10142204049, 10142204050, 10142204047], "tags": {"addr:place": "Dimbula Lower", "addr:subdistrict": "Talawakelle", "addr:village": "Bogahawatta", "building": "yes", "description": "*=DIMBULLE LOWER DIVISION", "name": "Swaraj Rajendra", "office": "government"}}, {"type": "way", "id": 1174687548, "center": {"lat": 6.9734241, "lon": 80.7697033}, "nodes": [10915382154, 10915382141, 10915382123, 10915382132, 10915382136, 10915382124, 10915382154], "tags": {"addr:city": "Nuwara Eliya", "addr:street": "Old Udupussellawa Road", "building": "public", "government": "administrative", "name": "Nuwara Eliya Divisional Secretariat", "office": "government"}}, {"type": "way", "id": 1201257013, "center": {"lat": 6.8466015, "lon": 80.7646592}, "nodes": [11137794728, 11137794729, 11137794730, 11137794731, 11137794728], "tags": {"addr:place": "Dimbula Lower", "addr:subdistrict": "Talawakelle", "addr:village": "Bogahawatta", "building": "yes", "description": "*=DIMBULLE LOWER DIVISION", "name": "Swaraj Rajendra", "note": "Please check also https://www.openstreetmap.org/way/1219074580 (other aerial image, other addr:place!)", "office": "government"}}, {"type": "way", "id": 1220989477, "center": {"lat": 6.8433432, "lon": 80.7658612}, "nodes": [11314007565, 11314007562, 11314007563, 11314007564, 11314007565], "tags": {"addr:place": "Dayagama East 1st Division", "addr:subdistrict": "Talawakelle", "addr:village": "Dayagama East", "building": "yes", "description": "*=DAYAGAMA EAST 1ST DIVISION", "name": "Prajasakthi Center", "office": "government"}}, {"type": "way", "id": 1220989480, "center": {"lat": 6.9156568, "lon": 80.5709115}, "nodes": [11314024877, 11314024874, 11314024875, 11314024876, 11314024877], "tags": {"addr:place": "Western", "addr:subdistrict": "Norwood", "addr:village": "Panmor", "building": "yes", "description": "*=Stradhon Estate, factory group hatton", "name": "Child Care Center", "note": "Please check also https://www.openstreetmap.org/way/1219512494 and https://www.openstreetmap.org/way/1054403704 (different areial images?)", "office": "government"}}, {"type": "way", "id": 1221513884, "center": {"lat": 6.8893168, "lon": 80.7359073}, "nodes": [11329062621, 11329062620, 11329062619, 11329062618, 11329062621], "tags": {"addr:place": "Ouvahkelle", "addr:subdistrict": "Talawakelle", "addr:village": "Thangakele", "building": "office", "name": "World Vision Office", "office": "ngo"}}, {"type": "way", "id": 1466279320, "center": {"lat": 7.3333252, "lon": 80.9901952}, "nodes": [13448615047, 13448615048, 13448615049, 13448615050, 13448615047], "tags": {"building": "office", "building:levels": "1", "name": "Assistant Director of Agriculture (Inter Province) - Mahiyanganaya"}}, {"type": "relation", "id": 7748829, "center": {"lat": 7.290628, "lon": 80.6335138}, "members": [{"type": "way", "ref": 286531884, "role": "outer"}, {"type": "way", "ref": 542017778, "role": "inner"}], "tags": {"addr:city": "Kandy", "addr:street": "William Gopallawa Mawatha", "building": "yes", "building:levels": "2", "email": "planfuturecp@gmail.com", "height": "5", "name": "Department of Education", "office": "government", "type": "multipolygon"}}, {"type": "relation", "id": 8223088, "center": {"lat": 7.2698707, "lon": 80.6040286}, "members": [{"type": "way", "ref": 400942215, "role": "outer"}, {"type": "way", "ref": 581539954, "role": "inner"}], "tags": {"addr:city": "Gatambe", "addr:street": "Colombo-Kandy Road", "building": "yes", "name": "Central Provincial Council", "office": "government", "type": "multipolygon"}}]}