{"version": 0.6, "generator": "Overpass API 0.7.62.11 87bfad18", "osm3s": {"timestamp_osm_base": "2026-05-16T05:37:39Z", "copyright": "The data included in this document is from www.openstreetmap.org. The data is made available under ODbL."}, "elements": [{"type": "node", "id": 4359586156, "lat": 7.8739554, "lon": 80.0097732, "tags": {"amenity": "marketplace", "name": "Weekly fair"}}, {"type": "node", "id": 5519613642, "lat": 8.129649, "lon": 80.2838764, "tags": {"amenity": "marketplace"}}, {"type": "node", "id": 7820393758, "lat": 7.7528813, "lon": 80.1184638, "tags": {"addr:city": "Nikaweratiya", "addr:street": "Nikaweratiya - Maho - Madagalla Road", "amenity": "marketplace", "name": "Fair"}}, {"type": "node", "id": 7837077798, "lat": 7.7497686, "lon": 80.1166283, "tags": {"addr:city": "Nikaweratiya", "addr:street": "Katugastota-Kurunegala-Puttalam Road", "amenity": "marketplace", "name": "Nikaweratiya Market"}}, {"type": "node", "id": 10246967641, "lat": 8.0302512, "lon": 79.828289, "tags": {"amenity": "marketplace", "check_date": "2022-12-08", "name": "Public Market"}}, {"type": "way", "id": 278136116, "center": {"lat": 7.57239, "lon": 80.2507767}, "nodes": [4568154453, 2825598035, 2825598036, 2825598037, 2825598038, 2825598039, 4568154454, 4568154455, 4568154453], "tags": {"amenity": "marketplace", "name": "Bamunakotuwa Friday Fair"}}, {"type": "way", "id": 568190610, "center": {"lat": 8.1637624, "lon": 80.2180857}, "nodes": [5466902050, 5466902049, 5466902048, 5466902047, 5466902046, 5466902045, 5466902044, 5466902043, 5466902050], "tags": {"amenity": "marketplace", "name": "Rajanganaya Fair"}}, {"type": "way", "id": 617104615, "center": {"lat": 7.6203964, "lon": 80.2446603}, "nodes": [5833706721, 5833706718, 5833706719, 5833706720, 5833706721], "tags": {"addr:city": "Wariyapola", "addr:postcode": "60400", "amenity": "marketplace", "opening_hours": "sunrise-sunset"}}, {"type": "way", "id": 720143524, "center": {"lat": 7.6191959, "lon": 80.2420479}, "nodes": [6758927717, 6758927718, 6011762788, 6011762787, 6758927720, 6766626774, 6758927717], "tags": {"addr:city": "Wariyapola", "addr:street": "Chilaw Road", "amenity": "marketplace", "name": "Wariyapola Sunday Fair", "name:si": "\u0dc0\u0dcf\u0dbb\u0dd2\u0dba\u0db4\u0ddc\u0dbd \u0d89\u0dbb\u0dd2\u0daf\u0dcf \u0dc3\u0dad\u0dd2\u0db4\u0ddc\u0dbd"}}, {"type": "way", "id": 764506444, "center": {"lat": 7.6498628, "lon": 79.9891504}, "nodes": [7142177092, 7142177093, 7142177097, 7142177094, 7142177095, 7142177096, 7142177092], "tags": {"amenity": "marketplace", "name": "Weerapokuna Marketplace"}}, {"type": "way", "id": 766605295, "center": {"lat": 7.6006196, "lon": 79.9632117}, "nodes": [7159840083, 7159840084, 7159887085, 7159887086, 7159840083], "tags": {"addr:city": "Bowatta", "addr:street": "Bowaththa - Puwakgahawela Road", "amenity": "marketplace", "name": "Bowatta Market"}}, {"type": "way", "id": 1200619284, "center": {"lat": 7.8200294, "lon": 80.2750355}, "nodes": [11132266480, 11132271529, 11132271528, 11132271530, 11132271531, 11132271532, 11132266498, 11132266499, 11132266481, 11132266486, 11132413193, 11132266482, 11132266487, 11132266488, 11132266489, 11132266496, 11132266483, 11132266497, 11132266490, 11132271515, 11132266484, 11132271539, 11132266485, 11132266480], "tags": {"amenity": "marketplace", "name": "Mahawa sathi pola"}}]}