{"version": 0.6, "generator": "Overpass API 0.7.62.11 87bfad18", "osm3s": {"timestamp_osm_base": "2026-05-16T05:37:39Z", "copyright": "The data included in this document is from www.openstreetmap.org. The data is made available under ODbL."}, "elements": [{"type": "node", "id": 3070201674, "lat": 7.548396, "lon": 80.1268967, "tags": {"addr:city": "Maavi Ela", "addr:street": "Munamaldeniya Katupotha Road", "name": "Divisional Secretariet Office", "office": "government"}}, {"type": "node", "id": 3070267401, "lat": 7.6057411, "lon": 80.1013546, "tags": {"name": "Archaeology Office", "office": "government"}}, {"type": "node", "id": 3178588436, "lat": 7.6933858, "lon": 79.8918254, "tags": {"building": "yes", "name": "Coconut Research Institute", "office": "government"}}, {"type": "node", "id": 4359583235, "lat": 7.8754726, "lon": 80.0127225, "tags": {"name": "Anamaduwa divisional Secratariet office", "office": "government"}}, {"type": "node", "id": 4359586967, "lat": 7.8733162, "lon": 80.0092823, "tags": {"name": "Anamaduwa pradeshiya Sabah", "office": "government"}}, {"type": "node", "id": 4682160917, "lat": 7.8110621, "lon": 79.8250937, "tags": {"addr:city": "Mundalama", "name": "Divisional Secretariat", "office": "government"}}, {"type": "node", "id": 5052913598, "lat": 7.7484964, "lon": 80.1129055, "tags": {"name": "Nikaweratiya Agrarian services Center", "office": "government"}}, {"type": "node", "id": 5466902042, "lat": 8.1636336, "lon": 80.2186114, "tags": {"name": "Rajanganaya Pradeshiya Sabha", "office": "government"}}, {"type": "node", "id": 5519611946, "lat": 7.9766542, "lon": 80.2645138, "tags": {"name": "Sri Lanka Transport Board Galgamuwa Depot", "office": "government"}}, {"type": "node", "id": 6158294155, "lat": 8.1469332, "lon": 80.2927771, "tags": {"name": "Agrarian Services Center", "office": "government"}}, {"type": "node", "id": 6158294421, "lat": 8.151577, "lon": 80.2977526, "tags": {"name": "Thabuttegama Zonal Education Office", "office": "government"}}, {"type": "node", "id": 6865491141, "lat": 7.6116134, "lon": 79.8139357, "tags": {"name": "District Veterinary Investigation Centre", "office": "government"}}, {"type": "node", "id": 7851664889, "lat": 7.7475962, "lon": 80.1189109, "tags": {"addr:city": "Nikaweratiya", "addr:street": "Rest House Rd", "name": "Zonal Education Office", "office": "government"}}, {"type": "node", "id": 7895555309, "lat": 7.753306, "lon": 80.114312, "tags": {"addr:city": "Nikaweratiya", "addr:country": "LK", "addr:district": "Kurunegala district", "addr:street": "Katugastota-Kurunegala-Puttalam Road", "name": "HNB Finance Limited", "office": "company"}}, {"type": "node", "id": 7895555310, "lat": 7.754621, "lon": 80.113756, "tags": {"addr:city": "Nikaweratiya", "addr:country": "LK", "addr:district": "Kurunegala district", "addr:street": "Katugastota-Kurunegala-Puttalam Road", "name": "Senkadagala Finance", "office": "company"}}, {"type": "node", "id": 7895931106, "lat": 7.7586056, "lon": 80.1115382, "tags": {"addr:city": "Nikaweratiya", "name": "State Timber Corporation Nikaweratiya Depot", "office": "government"}}, {"type": "node", "id": 11059485507, "lat": 7.5538269, "lon": 80.2138632, "tags": {"addr:street": "Mahakeliya - Katupotha Road", "name:en": "RIO COCO Lanka", "office": "company", "opening_hours": "24/7"}}, {"type": "node", "id": 11059493805, "lat": 7.6184462, "lon": 80.240131, "tags": {"addr:postcode": "60400", "addr:street": "Sri Deepankara Mawatha", "email": "kolithabandara1@yahoo.com", "name": "A. M. L. Kolitha Bandara", "office": "company", "opening_hours": "Mo-Su 07:00-18:00", "phone": "+94777276483", "website": "https://kolitha-bandara.business.site/?m=true"}}, {"type": "way", "id": 407966418, "center": {"lat": 7.6344857, "lon": 80.2360777}, "nodes": [4099865639, 4099865640, 4099865641, 4099865642, 4099865639], "tags": {"addr:city": "Wariyapola", "building": "yes", "name": "Wariyapola CTB Bus Depot", "office": "government"}}, {"type": "way", "id": 720985698, "center": {"lat": 7.6253263, "lon": 80.2422579}, "nodes": [6764808360, 6764808361, 6764808362, 6764808363, 6764808360], "tags": {"addr:city": "Wariyapola", "addr:postcode": "60400", "addr:street": "Puttalam Road", "building": "yes", "government": "administrative", "name": "Wariyapola Local Council", "name:si": "\u0dc0\u0dcf\u0dbb\u0dd2\u0dba\u0db4\u0ddc\u0dbd \u0db4\u0dca\u200d\u0dbb\u0dcf\u0daf\u0dda\u0dc1\u0dd3\u0dba \u0dc3\u0db7\u0dcf\u0dc0", "office": "government"}}, {"type": "way", "id": 757759599, "center": {"lat": 7.9766817, "lon": 80.2645151}, "nodes": [7076812170, 7076812167, 7076812168, 7076812169, 7076812170], "tags": {"building": "yes", "office": "government"}}, {"type": "way", "id": 758295798, "center": {"lat": 8.0055821, "lon": 80.1054888}, "nodes": [7081767708, 7081767707, 7081767704, 7081767709, 7081767710, 7081767711, 7081767705, 7081767706, 7081767708], "tags": {"building": "yes", "name": "Agrarian servis center - Nawagathagama", "office": "government"}}, {"type": "way", "id": 759553783, "center": {"lat": 7.8185771, "lon": 80.274524}, "nodes": [7095338230, 7095338229, 7095338228, 7095338227, 7095338230], "tags": {"building": "yes", "building:levels": "1", "layer": "1", "office": "government"}}, {"type": "way", "id": 759553784, "center": {"lat": 7.8187211, "lon": 80.2743495}, "nodes": [7095338234, 7095338233, 7095338232, 7095338231, 7095338234], "tags": {"building": "yes", "building:levels": "1", "layer": "1", "office": "government"}}, {"type": "way", "id": 759553785, "center": {"lat": 7.8186083, "lon": 80.2743421}, "nodes": [7095338238, 7095338237, 7095338236, 7095338235, 7095338238], "tags": {"building": "yes", "building:levels": "1", "layer": "1", "office": "government"}}, {"type": "way", "id": 760432074, "center": {"lat": 7.8480467, "lon": 79.9036489}, "nodes": [7103612217, 7103612216, 7103612215, 7103612214, 7103612213, 7103612212, 7103612217], "tags": {"name": "Pradeshiya lekam karyalaya", "office": "government"}}, {"type": "way", "id": 760432077, "center": {"lat": 7.8487163, "lon": 79.9041123}, "nodes": [7103612239, 7103612238, 7103612237, 7103612236, 7103612235, 7103612234, 7103612233, 7103612232, 7103612231, 7103612230, 7103612239], "tags": {"name": "Govijana sewa madyasthanaya,Mahakubukkadawala", "office": "government"}}, {"type": "way", "id": 760700384, "center": {"lat": 7.5347611, "lon": 80.1891553}, "nodes": [7106360597, 7106360596, 7106360595, 7106360594, 7106360593, 7106360592, 7106360591, 7106360590, 7106360589, 7106360588, 7106360587, 7106360586, 7106360585, 7106292184, 7106360597], "tags": {"name": "Trendi Ware Private Limited", "office": "company", "wheelchair": "limited"}}, {"type": "way", "id": 1069477627, "center": {"lat": 7.7524178, "lon": 80.1179084}, "nodes": [9816329139, 9816329140, 9816329141, 9816329142, 9816329139], "tags": {"addr:city": "Nikaweratiya", "addr:postcode": "60470", "addr:street": "Maho Road", "government": "administrative", "name": "Nikaweratiya Pradeshiya Sabhawa Premises", "office": "government"}}]}