{"version": 0.6, "generator": "Overpass API 0.7.62.11 87bfad18", "osm3s": {"timestamp_osm_base": "2026-05-16T05:37:39Z", "copyright": "The data included in this document is from www.openstreetmap.org. The data is made available under ODbL."}, "elements": [{"type": "node", "id": 1731515226, "lat": 7.9075945, "lon": 79.8224814, "tags": {"amenity": "place_of_worship", "name": "Mohideen Jummah Mosque", "religion": "muslim"}}, {"type": "node", "id": 1976181051, "lat": 7.5154335, "lon": 80.0496252, "tags": {"amenity": "place_of_worship", "name": "Kadawalagedara Church", "religion": "christian"}}, {"type": "node", "id": 2186928764, "lat": 7.6227824, "lon": 80.2396863, "tags": {"addr:city": "Wariyapola", "amenity": "place_of_worship", "name": "Wariyapola Raja Maha Viharaya", "religion": "buddhist"}}, {"type": "node", "id": 2186928821, "lat": 7.6214212, "lon": 80.2449756, "tags": {"addr:city": "Wariyapola", "amenity": "place_of_worship", "name": "Sri Visuddharamaya", "religion": "buddhist"}}, {"type": "node", "id": 2831639436, "lat": 7.5898171, "lon": 80.2401144, "tags": {"amenity": "place_of_worship", "name": "Gonnawa Sri Wishnu Devalaya", "religion": "buddhist"}}, {"type": "node", "id": 2910633277, "lat": 7.5398672, "lon": 80.165175, "tags": {"amenity": "place_of_worship", "name": "Kanogama Temple", "religion": "buddhist"}}, {"type": "node", "id": 3064822021, "lat": 7.5826113, "lon": 80.2773055, "tags": {"amenity": "place_of_worship", "name": "Kolalegala Old Temple", "religion": "buddhist"}}, {"type": "node", "id": 3066229288, "lat": 7.5396123, "lon": 80.2030008, "tags": {"amenity": "place_of_worship", "religion": "buddhist"}}, {"type": "node", "id": 3066383279, "lat": 7.5293248, "lon": 80.2835259, "tags": {"amenity": "place_of_worship", "name": "Temple", "religion": "buddhist"}}, {"type": "node", "id": 3070215060, "lat": 7.5654468, "lon": 80.1230921, "tags": {"amenity": "place_of_worship", "name": "Dematawa Sudharshanaraamaya", "religion": "buddhist"}}, {"type": "node", "id": 3070234984, "lat": 7.5973239, "lon": 80.1081299, "tags": {"amenity": "place_of_worship", "name": "Panduwasnuwara Rajamaha Viharaya", "religion": "buddhist"}}, {"type": "node", "id": 3070240241, "lat": 7.5777769, "lon": 80.1240461, "tags": {"amenity": "place_of_worship", "name": "Dematawa Aranya", "religion": "buddhist"}}, {"type": "node", "id": 3082304743, "lat": 7.6481714, "lon": 80.2661523, "tags": {"amenity": "place_of_worship", "religion": "buddhist"}}, {"type": "node", "id": 3082575210, "lat": 7.5748745, "lon": 80.2816019, "tags": {"amenity": "place_of_worship", "religion": "buddhist"}}, {"type": "node", "id": 3206578211, "lat": 7.6746067, "lon": 79.8812117, "tags": {"amenity": "place_of_worship", "religion": "buddhist"}}, {"type": "node", "id": 3228001483, "lat": 7.716935, "lon": 80.1609594, "tags": {"amenity": "place_of_worship", "religion": "buddhist"}}, {"type": "node", "id": 3655123396, "lat": 7.559749, "lon": 79.8051494, "tags": {"addr:city": "Merawala", "amenity": "place_of_worship", "name": "St.Lukes Church", "religion": "christian"}}, {"type": "node", "id": 3655123418, "lat": 7.5582428, "lon": 79.8059514, "tags": {"addr:city": "Merawala", "amenity": "place_of_worship", "name": "St.Joseph's Church", "religion": "christian"}}, {"type": "node", "id": 3655230114, "lat": 7.6354967, "lon": 79.801046, "tags": {"addr:city": "Karukupone", "amenity": "place_of_worship", "name": "St.Anthony's Church", "religion": "christian"}}, {"type": "node", "id": 3678294036, "lat": 7.6102701, "lon": 79.9223994, "tags": {"amenity": "place_of_worship", "religion": "buddhist"}}, {"type": "node", "id": 3689570331, "lat": 7.5177168, "lon": 80.0008543, "tags": {"amenity": "place_of_worship", "religion": "buddhist"}}, {"type": "node", "id": 3689575410, "lat": 7.5032605, "lon": 80.0103997, "tags": {"amenity": "place_of_worship", "religion": "buddhist"}}, {"type": "node", "id": 3691169047, "lat": 7.7993339, "lon": 79.822235, "tags": {"addr:city": "Mundalama", "amenity": "place_of_worship", "name": "St.Jame's Church", "religion": "christian"}}, {"type": "node", "id": 3691169054, "lat": 7.8041427, "lon": 79.8257577, "tags": {"addr:city": "Mundalama", "amenity": "place_of_worship", "name": "Mundalama Temple", "religion": "buddhist"}}, {"type": "node", "id": 3691169081, "lat": 7.7933333, "lon": 79.8631493, "tags": {"amenity": "place_of_worship", "religion": "buddhist"}}, {"type": "node", "id": 3692732852, "lat": 7.9029448, "lon": 79.8238252, "tags": {"addr:city": "Madurankuliya", "amenity": "place_of_worship", "name": "Sri Saranankararamaya", "religion": "buddhist"}}, {"type": "node", "id": 3692732865, "lat": 7.907297, "lon": 79.8223848, "tags": {"addr:city": "Madurankuliya", "amenity": "place_of_worship", "name": "Munneswaran Kovil"}}, {"type": "node", "id": 3692975147, "lat": 7.962158, "lon": 79.8308253, "tags": {"addr:city": "Erukkalampiddy", "amenity": "place_of_worship", "name": "Jumma Mosque", "religion": "muslim"}}, {"type": "node", "id": 3693030341, "lat": 7.9568537, "lon": 79.8309999, "tags": {"addr:city": "Erukkalampiddy", "amenity": "place_of_worship", "name": "Our Lady of Guadalupe Church", "religion": "christian"}}, {"type": "node", "id": 3693030345, "lat": 7.9573318, "lon": 79.8291385, "tags": {"addr:city": "Erukkalampiddy", "amenity": "place_of_worship", "name": "Sri Anandaramaya", "religion": "buddhist"}}, {"type": "node", "id": 3693072133, "lat": 7.9782479, "lon": 79.8330053, "tags": {"addr:city": "Palavi", "amenity": "place_of_worship", "name": "Jumma Masjid", "religion": "muslim"}}, {"type": "node", "id": 3693072143, "lat": 7.9807443, "lon": 79.8309158, "tags": {"addr:city": "Palaviya", "amenity": "place_of_worship", "religion": "buddhist"}}, {"type": "node", "id": 3695439413, "lat": 7.565865, "lon": 79.9720077, "tags": {"amenity": "place_of_worship", "religion": "buddhist"}}, {"type": "node", "id": 3696377776, "lat": 7.9893421, "lon": 79.8360204, "tags": {"addr:city": "Palavi", "amenity": "place_of_worship", "check_date": "2025-07-18", "name": "Kobbekaduwa Viharaya", "religion": "buddhist"}}, {"type": "node", "id": 3696397685, "lat": 7.999094, "lon": 79.8373393, "tags": {"addr:city": "Puttalam", "amenity": "place_of_worship", "name": "Rathmalyaya Masjid", "religion": "muslim"}}, {"type": "node", "id": 3700820155, "lat": 7.5120305, "lon": 79.9477087, "tags": {"amenity": "place_of_worship", "religion": "buddhist"}}, {"type": "node", "id": 3701214810, "lat": 7.5024192, "lon": 79.9993172, "tags": {"amenity": "place_of_worship", "religion": "buddhist"}}, {"type": "node", "id": 3701270134, "lat": 7.575145, "lon": 79.9162933, "tags": {"amenity": "place_of_worship", "religion": "buddhist"}}, {"type": "node", "id": 3728776501, "lat": 7.5666603, "lon": 80.2862294, "tags": {"amenity": "place_of_worship", "name": "Kapila Viharaya", "religion": "buddhist"}}, {"type": "node", "id": 3729754398, "lat": 7.6129141, "lon": 80.2962866, "tags": {"amenity": "place_of_worship", "name": "Gedige Dewalaya", "religion": "buddhist"}}, {"type": "node", "id": 3729754399, "lat": 7.6119883, "lon": 80.2967365, "tags": {"amenity": "place_of_worship", "denomination": "theravada", "name": "Sri Gangaramaya Temple", "religion": "buddhist"}}, {"type": "node", "id": 3733498355, "lat": 7.7484608, "lon": 79.892629, "tags": {"amenity": "place_of_worship", "name": "Temple", "religion": "buddhist"}}, {"type": "node", "id": 3850853357, "lat": 7.9335928, "lon": 80.1142663, "tags": {"amenity": "place_of_worship", "name": "Kalu Bandara Devalaya & Traditional SInhala Medicine Centre", "religion": "buddhist"}}, {"type": "node", "id": 3977624239, "lat": 7.6819008, "lon": 80.2110043, "tags": {"amenity": "place_of_worship", "religion": "buddhist"}}, {"type": "node", "id": 3997862126, "lat": 7.5343313, "lon": 79.985674, "tags": {"amenity": "place_of_worship", "name": "Temple", "religion": "buddhist"}}, {"type": "node", "id": 3997873466, "lat": 7.5140011, "lon": 80.0151328, "tags": {"amenity": "place_of_worship", "name": "Temple", "religion": "buddhist"}}, {"type": "node", "id": 4019083170, "lat": 7.535632, "lon": 80.1051312, "tags": {"amenity": "place_of_worship", "name": "Temple", "religion": "buddhist"}}, {"type": "node", "id": 4031018219, "lat": 7.6697414, "lon": 80.0063072, "tags": {"amenity": "place_of_worship", "name": "Temple", "religion": "buddhist"}}, {"type": "node", "id": 4086938112, "lat": 7.5591217, "lon": 80.0479239, "tags": {"amenity": "place_of_worship", "name": "Temple", "religion": "buddhist"}}, {"type": "node", "id": 4086966345, "lat": 7.6391796, "lon": 80.02305, "tags": {"amenity": "place_of_worship", "name": "Temple", "religion": "buddhist"}}, {"type": "node", "id": 4095200280, "lat": 8.0879988, "lon": 80.2461968, "tags": {"amenity": "place_of_worship", "name": "Thammannawa Temple", "religion": "buddhist"}}, {"type": "node", "id": 4099787026, "lat": 7.6554066, "lon": 80.2206105, "tags": {"addr:city": "Paadeniya", "amenity": "place_of_worship", "name": "Paadeniya Rajamaha Viharaya", "religion": "buddhist"}}, {"type": "node", "id": 4105143445, "lat": 8.0346598, "lon": 80.273753, "tags": {"amenity": "place_of_worship", "name": "Buduruwakanda Rajamaha Viharaya", "religion": "buddhist"}}, {"type": "node", "id": 4151769792, "lat": 7.634013, "lon": 80.072551, "tags": {"amenity": "place_of_worship", "name": "Temple", "religion": "buddhist"}}, {"type": "node", "id": 4167524973, "lat": 7.5826726, "lon": 80.094539, "tags": {"amenity": "place_of_worship", "name": "Temple", "religion": "buddhist"}}, {"type": "node", "id": 4167546170, "lat": 7.5875684, "lon": 80.0680944, "tags": {"amenity": "place_of_worship", "religion": "buddhist"}}, {"type": "node", "id": 4184042265, "lat": 7.9372109, "lon": 80.0130107, "tags": {"amenity": "place_of_worship", "name": "Temple", "religion": "buddhist"}}, {"type": "node", "id": 4212448626, "lat": 7.7434081, "lon": 80.0290671, "tags": {"amenity": "place_of_worship", "name": "Temple", "religion": "buddhist"}}, {"type": "node", "id": 4214666475, "lat": 7.5655823, "lon": 80.0077435, "tags": {"amenity": "place_of_worship", "name": "Temple", "religion": "buddhist"}}, {"type": "node", "id": 4349441661, "lat": 7.8666594, "lon": 80.0220681, "tags": {"amenity": "place_of_worship", "name": "Temple", "religion": "buddhist"}}, {"type": "node", "id": 4359577221, "lat": 7.878681, "lon": 80.0105357, "tags": {"amenity": "place_of_worship", "religion": "buddhist"}}, {"type": "node", "id": 4388530429, "lat": 7.631144, "lon": 79.98578, "tags": {"addr:city": "Hiripokuna", "amenity": "place_of_worship", "denomination": "catholic", "name": "St. Helen's Church", "religion": "christian"}}, {"type": "node", "id": 4451261130, "lat": 7.9071092, "lon": 80.2444255, "tags": {"amenity": "place_of_worship", "name": "Sri Bodhirajaramaya", "religion": "buddhist"}}, {"type": "node", "id": 4592537824, "lat": 7.5824593, "lon": 80.1272781, "tags": {"amenity": "place_of_worship", "name": "Temple", "religion": "buddhist"}}, {"type": "node", "id": 4602127685, "lat": 7.8837799, "lon": 79.8729731, "tags": {"amenity": "place_of_worship", "name": "Temple", "religion": "buddhist"}}, {"type": "node", "id": 4603044483, "lat": 7.5478017, "lon": 80.059476, "tags": {"amenity": "place_of_worship", "name": "Temple", "religion": "buddhist"}}, {"type": "node", "id": 4682160919, "lat": 7.8508784, "lon": 79.8221715, "tags": {"amenity": "place_of_worship", "religion": "christian"}}, {"type": "node", "id": 4682160922, "lat": 7.8858356, "lon": 79.8171559, "tags": {"amenity": "place_of_worship", "religion": "buddhist"}}, {"type": "node", "id": 4693051356, "lat": 7.6371935, "lon": 80.0873486, "tags": {"amenity": "place_of_worship", "name": "Temple", "religion": "buddhist"}}, {"type": "node", "id": 4693053599, "lat": 7.6368698, "lon": 80.0943627, "tags": {"amenity": "place_of_worship", "name": "Temple", "religion": "buddhist"}}, {"type": "node", "id": 4693063726, "lat": 7.6193011, "lon": 80.1353965, "tags": {"amenity": "place_of_worship", "name": "Temple", "religion": "buddhist"}}, {"type": "node", "id": 4693063822, "lat": 7.6248586, "lon": 80.1487058, "tags": {"amenity": "place_of_worship", "name": "Temple", "religion": "buddhist"}}, {"type": "node", "id": 4695733509, "lat": 7.507047, "lon": 80.2554738, "tags": {"addr:city": "Pathinwatte", "amenity": "place_of_worship", "name": "Shailathalarama Viharaya", "religion": "buddhist"}}, {"type": "node", "id": 4695792597, "lat": 7.5009793, "lon": 80.2668452, "tags": {"amenity": "place_of_worship", "name": "Temple", "religion": "buddhist"}}, {"type": "node", "id": 4742486163, "lat": 7.6719361, "lon": 80.0325959, "tags": {"amenity": "place_of_worship", "name": "Manelembuwa Raja Maha Viharaya", "religion": "buddhist"}}, {"type": "node", "id": 4742486164, "lat": 7.6809752, "lon": 80.033141, "tags": {"amenity": "place_of_worship", "name": "Temple", "religion": "buddhist"}}, {"type": "node", "id": 4999823264, "lat": 7.8821849, "lon": 80.1010153, "tags": {"amenity": "place_of_worship", "name": "Temple", "religion": "buddhist"}}, {"type": "node", "id": 5166957624, "lat": 7.6259779, "lon": 80.1014208, "tags": {"amenity": "place_of_worship", "description": "Archaeological Ruins", "name": "Sri Jettathissa Raja Maha Viharaya", "religion": "buddhist"}}, {"type": "node", "id": 5166965478, "lat": 7.8549165, "lon": 80.0735106, "tags": {"amenity": "place_of_worship", "name": "Mahamithawa Sri Sumittaramaya Tampita Viharaya", "religion": "buddhist"}}, {"type": "node", "id": 5235834192, "lat": 7.7574892, "lon": 80.2331853, "tags": {"amenity": "place_of_worship", "religion": "buddhist"}}, {"type": "node", "id": 5248832453, "lat": 7.5329762, "lon": 80.1244583, "tags": {"amenity": "place_of_worship", "name": "Temple", "religion": "buddhist"}}, {"type": "node", "id": 5248832907, "lat": 7.5451835, "lon": 80.1174655, "tags": {"amenity": "place_of_worship", "name": "Temple", "religion": "buddhist"}}, {"type": "node", "id": 5248849720, "lat": 7.5015163, "lon": 80.137456, "tags": {"amenity": "place_of_worship", "name": "Temple", "religion": "buddhist"}}, {"type": "node", "id": 5262396878, "lat": 7.8039026, "lon": 80.0650224, "tags": {"amenity": "place_of_worship", "name": "Temple", "religion": "buddhist"}}, {"type": "node", "id": 5270552525, "lat": 8.0720658, "lon": 79.9231646, "tags": {"amenity": "place_of_worship", "name": "Temple", "religion": "buddhist"}}, {"type": "node", "id": 5306163746, "lat": 7.6880197, "lon": 80.1170495, "tags": {"amenity": "place_of_worship", "name": "Temple", "religion": "buddhist"}}, {"type": "node", "id": 5338789418, "lat": 7.7791361, "lon": 79.8778045, "tags": {"amenity": "place_of_worship", "name": "Dewala Handiya Temple", "religion": "buddhist"}}, {"type": "node", "id": 5414035121, "lat": 8.1710198, "lon": 80.1119372, "tags": {"amenity": "place_of_worship", "name": "Buddhist Temple", "religion": "buddhist"}}, {"type": "node", "id": 5414035124, "lat": 8.1497423, "lon": 80.125123, "tags": {"amenity": "place_of_worship", "name": "Solewewa Temple", "religion": "buddhist"}}, {"type": "node", "id": 5432559672, "lat": 7.5901298, "lon": 79.9710872, "tags": {"amenity": "place_of_worship", "name": "Temple", "religion": "buddhist"}}, {"type": "node", "id": 5459902973, "lat": 7.6662636, "lon": 80.0906095, "tags": {"amenity": "place_of_worship", "name": "Temple", "religion": "buddhist"}}, {"type": "node", "id": 5459961692, "lat": 7.6511197, "lon": 80.078358, "tags": {"amenity": "place_of_worship", "name": "Temple", "religion": "buddhist"}}, {"type": "node", "id": 5459962292, "lat": 7.6724693, "lon": 80.0753646, "tags": {"amenity": "place_of_worship", "religion": "buddhist"}}, {"type": "node", "id": 5460703336, "lat": 7.5841007, "lon": 80.1781304, "tags": {"amenity": "place_of_worship", "name": "Temple", "religion": "buddhist"}}, {"type": "node", "id": 5472155881, "lat": 7.539277, "lon": 79.9306948, "tags": {"amenity": "place_of_worship", "name": "Temple", "religion": "buddhist"}}, {"type": "node", "id": 5472308629, "lat": 7.5560353, "lon": 79.9361718, "tags": {"amenity": "place_of_worship", "name": "Temple", "religion": "buddhist"}}, {"type": "node", "id": 5509690786, "lat": 7.5375312, "lon": 80.2474815, "tags": {"amenity": "place_of_worship", "name": "Temple", "religion": "buddhist"}}, {"type": "node", "id": 5516239022, "lat": 7.5213335, "lon": 80.2495274, "tags": {"amenity": "place_of_worship", "name:en": "Thembilipola Rajamaha Viharaya"}}, {"type": "node", "id": 5519137621, "lat": 7.7319766, "lon": 80.2426668, "tags": {"amenity": "place_of_worship", "name": "Rideebendiella Eyyanayake Devalaya"}}, {"type": "node", "id": 5519611529, "lat": 7.8267946, "lon": 80.2953599, "tags": {"amenity": "place_of_worship", "name": "Kaikawala Rajamaha Viharaya"}}, {"type": "node", "id": 5533614314, "lat": 7.5216475, "lon": 80.281168, "tags": {"amenity": "place_of_worship", "name": "Temple", "religion": "buddhist"}}, {"type": "node", "id": 5566235412, "lat": 7.7006787, "lon": 80.1281002, "tags": {"amenity": "place_of_worship", "name": "Church", "religion": "christian"}}, {"type": "node", "id": 5615284411, "lat": 7.907164, "lon": 80.0028411, "tags": {"amenity": "place_of_worship", "name": "Temple", "religion": "buddhist"}}, {"type": "node", "id": 5617369235, "lat": 7.6345982, "lon": 79.9594783, "tags": {"amenity": "place_of_worship", "name": "Temple", "religion": "buddhist"}}, {"type": "node", "id": 5618892911, "lat": 7.6262267, "lon": 79.8684526, "tags": {"amenity": "place_of_worship", "name": "Temple", "religion": "buddhist"}}, {"type": "node", "id": 5633961673, "lat": 7.5025736, "lon": 80.035537, "tags": {"amenity": "place_of_worship", "religion": "buddhist"}}, {"type": "node", "id": 5643602664, "lat": 7.5884877, "lon": 79.9666576, "tags": {"amenity": "place_of_worship", "name": "Temple", "religion": "buddhist"}}, {"type": "node", "id": 5643678408, "lat": 7.5680996, "lon": 79.8964689, "tags": {"amenity": "place_of_worship", "name": "Temple", "religion": "buddhist"}}, {"type": "node", "id": 5646676111, "lat": 7.8012368, "lon": 80.0378251, "tags": {"amenity": "place_of_worship", "name": "Temple", "religion": "buddhist"}}, {"type": "node", "id": 5646680600, "lat": 7.7948413, "lon": 80.0404922, "tags": {"amenity": "place_of_worship", "name": "Temple", "religion": "buddhist"}}, {"type": "node", "id": 5646724277, "lat": 7.8407194, "lon": 79.9938759, "tags": {"amenity": "place_of_worship", "name": "Temple", "religion": "buddhist"}}, {"type": "node", "id": 5646753492, "lat": 7.8252749, "lon": 80.001402, "tags": {"amenity": "place_of_worship", "name": "Temple", "religion": "buddhist"}}, {"type": "node", "id": 5680725013, "lat": 7.574473, "lon": 80.0774575, "tags": {"amenity": "place_of_worship", "name": "Temple", "religion": "buddhist"}}, {"type": "node", "id": 5759107143, "lat": 7.8941352, "lon": 80.1128408, "tags": {"addr:city": "BANJUL", "amenity": "place_of_worship", "name": "MASJID", "religion": "muslim", "service_times": "Mo-Su"}}, {"type": "node", "id": 5836028056, "lat": 7.5191436, "lon": 80.0886535, "tags": {"amenity": "place_of_worship"}}, {"type": "node", "id": 5872453030, "lat": 7.5621264, "lon": 80.0341327, "tags": {"amenity": "place_of_worship", "religion": "buddhist"}}, {"type": "node", "id": 5969129292, "lat": 8.1176971, "lon": 80.0797501, "tags": {"amenity": "place_of_worship", "name": "Kumbukwewa Weherabendi Welimalu Viharaya", "religion": "buddhist"}}, {"type": "node", "id": 6200808333, "lat": 7.8832535, "lon": 80.1790385, "tags": {"amenity": "place_of_worship", "name": "Temple", "religion": "buddhist"}}, {"type": "node", "id": 6200826559, "lat": 7.8302241, "lon": 80.197523, "tags": {"amenity": "place_of_worship", "name": "Temple", "religion": "buddhist"}}, {"type": "node", "id": 6316564285, "lat": 7.5635042, "lon": 79.8071817, "tags": {"addr:street": "Colombo-Chilaw Road", "amenity": "place_of_worship", "name:en": "Pastor Anju Costha"}}, {"type": "node", "id": 6387483247, "lat": 8.1562314, "lon": 80.0933361, "tags": {"amenity": "place_of_worship", "name": "Buddhist Temple", "religion": "buddhist"}}, {"type": "node", "id": 6598938759, "lat": 8.1835811, "lon": 80.0857503, "tags": {"amenity": "place_of_worship", "name": "Sri Suamangalaramaya", "religion": "buddhist"}}, {"type": "node", "id": 6598949103, "lat": 8.1487863, "lon": 80.0571705, "tags": {"amenity": "place_of_worship", "name": "Sri Mahindaramaya", "religion": "buddhist"}}, {"type": "node", "id": 6819106265, "lat": 7.8209213, "lon": 80.2954402, "tags": {"amenity": "place_of_worship", "name": "Kaikawala Purana Rajamaha Viharaya", "religion": "buddhist"}}, {"type": "node", "id": 6865476556, "lat": 8.0265913, "lon": 79.8308827, "tags": {"amenity": "place_of_worship", "name": "St. Clement's Church", "religion": "christian"}}, {"type": "node", "id": 6865491342, "lat": 8.0317653, "lon": 79.8275273, "tags": {"amenity": "place_of_worship", "name": "Mohideen Jumma Masjid", "religion": "muslim"}}, {"type": "node", "id": 7182050954, "lat": 8.167568, "lon": 80.0746005, "tags": {"amenity": "place_of_worship", "denomination": "roman_catholic", "religion": "christian"}}, {"type": "node", "id": 7182103473, "lat": 8.1373191, "lon": 80.0431351, "tags": {"amenity": "place_of_worship", "denomination": "roman_catholic", "religion": "christian"}}, {"type": "node", "id": 7279785907, "lat": 7.6556012, "lon": 79.8392156, "tags": {"amenity": "place_of_worship", "denomination": "roman_catholic", "religion": "christian"}}, {"type": "node", "id": 7297259283, "lat": 8.0510619, "lon": 80.0970295, "tags": {"amenity": "place_of_worship", "religion": "buddhist"}}, {"type": "node", "id": 7732803739, "lat": 7.7488268, "lon": 80.1171585, "tags": {"addr:city": "Nikaweratiya", "addr:street": "Katugastota-Kurunegala-Puttalam Road", "amenity": "place_of_worship", "name": "Roman Catholic Church", "religion": "christian"}}, {"type": "node", "id": 7793068385, "lat": 7.5664638, "lon": 79.8034489, "tags": {"addr:housenumber": "178/6", "addr:street": "Perani Mawatha, Maikkulama", "amenity": "place_of_worship", "name:en": "The Society of the Divine Saviour (Salvatorians)", "phone": "0094322220019", "website": "https://sds.org/"}}, {"type": "node", "id": 7820405186, "lat": 7.7513929, "lon": 80.1147546, "tags": {"addr:city": "Nikaweratiya", "addr:street": "Katugastota-Kurunegala-Puttalam Road", "amenity": "place_of_worship", "name": "Jayanthi Bauddha Madyasthanaya"}}, {"type": "node", "id": 7982025088, "lat": 7.804818, "lon": 80.12767, "tags": {"amenity": "place_of_worship", "name": "Sulugulu Rajamaha Viharaya, Kadawalagedara", "religion": "buddhist"}}, {"type": "node", "id": 8290325670, "lat": 7.6331144, "lon": 80.2145451, "tags": {"amenity": "place_of_worship", "religion": "buddhist"}}, {"type": "node", "id": 8290325676, "lat": 7.6365331, "lon": 80.2134106, "tags": {"amenity": "place_of_worship", "religion": "buddhist"}}, {"type": "node", "id": 8507795306, "lat": 7.6692252, "lon": 80.121848, "tags": {"amenity": "place_of_worship", "religion": "buddhist"}}, {"type": "node", "id": 8507795316, "lat": 7.6778935, "lon": 80.0987488, "tags": {"amenity": "place_of_worship", "religion": "buddhist"}}, {"type": "node", "id": 9399109141, "lat": 7.9996814, "lon": 80.2727893, "tags": {"amenity": "place_of_worship", "name": "Pillair Kovil", "religion": "hindu"}}, {"type": "node", "id": 9399149904, "lat": 7.9954195, "lon": 80.2709046, "tags": {"amenity": "place_of_worship", "name": "St. Benedict's Church", "religion": "christian"}}, {"type": "node", "id": 9399150943, "lat": 7.9908498, "lon": 80.2682363, "tags": {"amenity": "place_of_worship", "name": "Galgamuwa Mosque", "religion": "muslim"}}, {"type": "node", "id": 9399192569, "lat": 7.9982689, "lon": 80.2720067, "tags": {"amenity": "place_of_worship", "name": "Town Thakkiya Mosque", "religion": "muslim"}}, {"type": "node", "id": 9399718789, "lat": 8.0039864, "lon": 80.2556236, "tags": {"amenity": "place_of_worship", "name": "Palukandewa temple"}}, {"type": "node", "id": 9399745816, "lat": 8.0623545, "lon": 80.2804265, "tags": {"amenity": "place_of_worship", "name": "Bo Sewana Temple", "religion": "buddhist"}}, {"type": "node", "id": 9399883064, "lat": 8.0041043, "lon": 80.2510965, "tags": {"amenity": "place_of_worship", "name": "Palukandewa temple", "religion": "buddhist"}}, {"type": "node", "id": 9399883066, "lat": 8.0041563, "lon": 80.253829, "tags": {"amenity": "place_of_worship", "name": "Jumma Masjid Palukandewa", "religion": "muslim"}}, {"type": "node", "id": 9399883083, "lat": 7.9983785, "lon": 80.2462524, "tags": {"amenity": "place_of_worship", "name": "Rambottukulama Temple", "religion": "buddhist"}}, {"type": "node", "id": 9399892404, "lat": 7.9976096, "lon": 80.1790783, "tags": {"amenity": "place_of_worship", "name": "Palugolla Kodigala Aranya Senasanaya", "religion": "buddhist"}}, {"type": "node", "id": 9400611520, "lat": 8.0007619, "lon": 80.2808496, "tags": {"amenity": "place_of_worship", "name": "Assembly of God Church", "religion": "christian"}}, {"type": "node", "id": 9400611523, "lat": 8.0062133, "lon": 80.289911, "tags": {"amenity": "place_of_worship", "name": "Kankaniyagama Viharasthanaya", "religion": "buddhist"}}, {"type": "node", "id": 9400611544, "lat": 8.0016381, "lon": 80.2848458, "tags": {"amenity": "place_of_worship", "name": "Kithu Sevana Church", "religion": "christian"}}, {"type": "node", "id": 9400611565, "lat": 8.0066063, "lon": 80.2915114, "tags": {"amenity": "place_of_worship", "name": "Sri Sambodhi Viharaya", "religion": "buddhist"}}, {"type": "node", "id": 9400769325, "lat": 7.9273743, "lon": 80.2885362, "tags": {"amenity": "place_of_worship", "name": "Ataragalla Bhikkhuni Aramaya", "religion": "buddhist"}}, {"type": "node", "id": 9400769326, "lat": 7.9272511, "lon": 80.2875004, "tags": {"amenity": "place_of_worship", "religion": "buddhist"}}, {"type": "node", "id": 9400843371, "lat": 7.9195361, "lon": 80.2408819, "tags": {"amenity": "place_of_worship", "name": "Ambanpola Temple", "religion": "buddhist"}}, {"type": "node", "id": 9400906560, "lat": 7.9598768, "lon": 80.2547567, "tags": {"amenity": "place_of_worship", "name": "Thisarana Sarana Aramaya", "religion": "buddhist"}}, {"type": "node", "id": 9400906562, "lat": 7.9881815, "lon": 80.2654442, "tags": {"amenity": "place_of_worship", "name": "Aluth Herathgama Old Temple", "religion": "buddhist"}}, {"type": "node", "id": 9411088017, "lat": 8.0526133, "lon": 80.2976998, "tags": {"amenity": "place_of_worship", "name": "Sri Sambodhi Viharaya", "religion": "buddhist"}}, {"type": "node", "id": 9444101302, "lat": 7.9002836, "lon": 80.2811187, "tags": {"amenity": "place_of_worship", "name": "Abakolawewa Temple", "religion": "buddhist"}}, {"type": "node", "id": 9458927274, "lat": 7.9515657, "lon": 80.1321199, "tags": {"amenity": "place_of_worship", "religion": "buddhist"}}, {"type": "node", "id": 9458963159, "lat": 7.9732022, "lon": 80.1794772, "tags": {"amenity": "place_of_worship", "religion": "buddhist"}}, {"type": "node", "id": 9458966634, "lat": 7.9838494, "lon": 80.2080281, "tags": {"amenity": "place_of_worship", "religion": "buddhist"}}, {"type": "node", "id": 9459033942, "lat": 7.956329, "lon": 80.29142, "tags": {"amenity": "place_of_worship", "religion": "buddhist"}}, {"type": "node", "id": 10129937574, "lat": 7.8633169, "lon": 80.2863682, "tags": {"amenity": "place_of_worship", "name": "rajjallegama raja maha viharaya", "religion": "buddhist"}}, {"type": "node", "id": 10130637780, "lat": 7.8549169, "lon": 80.0614676, "tags": {"amenity": "place_of_worship", "religion": "buddhist"}}, {"type": "node", "id": 10814383242, "lat": 8.0944959, "lon": 80.2755459, "tags": {"amenity": "place_of_worship", "name:en": "Gold stupa"}}, {"type": "node", "id": 10815682005, "lat": 7.5943025, "lon": 80.2694001, "tags": {"amenity": "place_of_worship", "name:en": "Temple with elephant relief"}}, {"type": "node", "id": 10815930107, "lat": 7.5961482, "lon": 80.1051534, "tags": {"amenity": "place_of_worship", "name:en": "Ancient stupa"}}, {"type": "node", "id": 10815930108, "lat": 7.5974547, "lon": 80.1074714, "tags": {"amenity": "place_of_worship", "name:en": "Relic chamber"}}, {"type": "node", "id": 10815930109, "lat": 7.5973401, "lon": 80.1080829, "tags": {"amenity": "place_of_worship", "name:en": "Reclining Buddha"}}, {"type": "node", "id": 10815937306, "lat": 7.5995147, "lon": 80.1035376, "tags": {"amenity": "place_of_worship", "name:en": "Old stupa"}}, {"type": "node", "id": 10815937307, "lat": 7.5973381, "lon": 80.1078852, "tags": {"amenity": "place_of_worship", "name:en": "Sacred tree", "place_of_worship": "sacred_tree"}}, {"type": "node", "id": 10815939805, "lat": 7.6008991, "lon": 80.103842, "tags": {"amenity": "place_of_worship", "name:en": "Old stupa"}}, {"type": "node", "id": 10815939905, "lat": 7.5981452, "lon": 80.1045935, "tags": {"amenity": "place_of_worship", "name:en": "Panthayathana ancient stupa"}}, {"type": "node", "id": 10815940007, "lat": 7.5973509, "lon": 80.1083992, "tags": {"amenity": "place_of_worship", "name:en": "Temple with colorful Buddha"}}, {"type": "node", "id": 10818950206, "lat": 7.6056576, "lon": 80.1016782, "tags": {"amenity": "place_of_worship", "name:en": "Ancient stupa"}}, {"type": "node", "id": 10818999405, "lat": 7.6054425, "lon": 80.1024506, "tags": {"amenity": "place_of_worship", "name:en": "Modern stupa"}}, {"type": "node", "id": 10821119103, "lat": 7.7774368, "lon": 80.2352628, "tags": {"amenity": "place_of_worship", "name": "Araliyagala Temple", "religion": "buddhist"}}, {"type": "node", "id": 10821167372, "lat": 7.7737225, "lon": 80.2323588, "tags": {"amenity": "place_of_worship", "religion": "none"}}, {"type": "node", "id": 10821677453, "lat": 7.7780768, "lon": 80.2538465, "tags": {"amenity": "place_of_worship", "religion": "buddhist"}}, {"type": "node", "id": 10981045205, "lat": 7.534056, "lon": 79.9008631, "tags": {"amenity": "place_of_worship", "name:en": "St. Perigrine Church", "religion": "christian"}}, {"type": "node", "id": 11075001678, "lat": 8.0404586, "lon": 79.8475492, "tags": {"amenity": "place_of_worship", "name": "mariyamman kovil", "religion": "hindu"}}, {"type": "node", "id": 11132172592, "lat": 7.78553, "lon": 80.264849, "tags": {"amenity": "place_of_worship", "denomination": "sinhala", "religion": "buddhist"}}, {"type": "node", "id": 11132405470, "lat": 7.8206565, "lon": 80.2736814, "tags": {"amenity": "place_of_worship", "denomination": "catholic", "name": "St.Thomas Church", "religion": "christian"}}, {"type": "node", "id": 11132413171, "lat": 7.8194141, "lon": 80.2745165, "tags": {"amenity": "place_of_worship", "denomination": "tamil", "name": "Murugan Kovila", "religion": "hindu"}}, {"type": "node", "id": 11175760942, "lat": 7.5959796, "lon": 80.267686, "tags": {"amenity": "place_of_worship"}}, {"type": "node", "id": 13016715288, "lat": 7.6481687, "lon": 80.2661614, "tags": {"amenity": "place_of_worship", "name": "temple", "name:si": "temple", "religion": "buddhist"}}, {"type": "node", "id": 13341794806, "lat": 8.0617313, "lon": 79.8974168, "tags": {"amenity": "place_of_worship", "religion": "buddhist"}}, {"type": "node", "id": 13341794807, "lat": 8.0632497, "lon": 79.8966189, "tags": {"amenity": "place_of_worship", "religion": "buddhist"}}, {"type": "node", "id": 13341794814, "lat": 8.0740762, "lon": 79.8939568, "tags": {"amenity": "place_of_worship", "religion": "buddhist"}}, {"type": "node", "id": 13346147130, "lat": 7.9127529, "lon": 79.9873431, "tags": {"addr:city": "Anamaduwa", "addr:postcode": "61500", "addr:street": "Dakunu Paliyagama, Anamaduwa", "amenity": "place_of_worship", "name": "Mahamevnawa Buddhist Monastery", "religion": "buddhist"}}, {"type": "node", "id": 13361163386, "lat": 7.9452216, "lon": 80.1771946, "tags": {"amenity": "place_of_worship"}}, {"type": "node", "id": 13378223437, "lat": 7.6836998, "lon": 79.8518796, "tags": {"amenity": "place_of_worship", "religion": "buddhist"}}, {"type": "way", "id": 247186940, "center": {"lat": 7.9195361, "lon": 80.2408922}, "nodes": [2541187412, 2541187413, 2541187414, 2541187415, 2541187416, 2541187417, 2541187418, 2541187419, 2541187420, 2541187421, 2541187412], "tags": {"amenity": "place_of_worship", "building": "yes", "religion": "buddhist"}}, {"type": "way", "id": 260108750, "center": {"lat": 7.9954005, "lon": 80.2709432}, "nodes": [2655963753, 2655963754, 2655963755, 2655963756, 2655963753], "tags": {"amenity": "place_of_worship", "building": "yes", "religion": "christian"}}, {"type": "way", "id": 278136140, "center": {"lat": 7.5667596, "lon": 80.2559509}, "nodes": [2825590130, 2825598520, 2825598521, 2825598522, 2825598523, 2825598524, 2825598525, 2825598526, 2825598527, 2825598528, 2825598529, 2825598530, 4568328363, 2825590136, 2825590134, 2825590133, 2825590132, 2825590131, 2825590130], "tags": {"amenity": "place_of_worship", "name": "Kadiharaya Sri Wijayasundararamaya", "religion": "buddhist"}}, {"type": "way", "id": 278508718, "center": {"lat": 7.5677242, "lon": 80.246458}, "nodes": [2828705716, 2828705717, 2828705718, 2828705719, 2828705720, 2828705721, 2828705722, 2828705723, 2828705724, 2828705725, 2828705726, 2828705727, 2828705728, 2828705729, 2828705730, 5779515061, 5779515058, 5779515057, 5779515060, 5779515059, 5779515062, 2828705716], "tags": {"amenity": "place_of_worship", "name": "Hidawa Sri Wijayasundararamaya", "religion": "buddhist"}}, {"type": "way", "id": 287234242, "center": {"lat": 7.9682584, "lon": 80.2601069}, "nodes": [2908690620, 2908690621, 2908690622, 2908690623, 2908690624, 2908690625, 2908690607, 2908690608, 2908690609, 2908690613, 2908690614, 2908690615, 2908690616, 2908690617, 2908690618, 2908690619, 2908690610, 2908690611, 2908690612, 2908690620], "tags": {"amenity": "place_of_worship", "building": "yes", "religion": "buddhist"}}, {"type": "way", "id": 320244460, "center": {"lat": 7.5808764, "lon": 79.8167384}, "nodes": [3655225719, 13513285519, 13513285520, 13513285521, 13513285518, 3267434932, 3267434933, 13513285510, 13513285516, 13513285517, 13513285511, 3267434935, 13513285512, 13513285514, 13513285515, 13513285513, 3655225719], "tags": {"addr:city": "Chilaw", "addr:street": "Wariyapola Road", "amenity": "place_of_worship", "building": "yes", "image": "https://photos.app.goo.gl/y1JuqUjSXf88ZBDk9", "name": "Munneswaram Kovil", "religion": "hindu", "url": "https://youtu.be/Aag_Jz2fK6w?si=GoVr1iarYTcl4kEK", "wikidata": "Q6936796", "wikimedia_commons": "Category:Munneswaram Hindu temple", "wikipedia": "en:Munneswaram temple"}}, {"type": "way", "id": 344285272, "center": {"lat": 7.5711899, "lon": 80.2496184}, "nodes": [2825597863, 3510253202, 3510206388, 3510206391, 3510206387, 3510253203, 3510206392, 3510206384, 3510206386, 3510206385, 3510253195, 3510253199, 2825597856, 2825597857, 2825597858, 2825597859, 2825597860, 2825597861, 2825597862, 2825597863], "tags": {"addr:city": "Bamunakotuwa", "addr:postcode": "60347", "amenity": "place_of_worship", "name": "Isipathanaramaya", "religion": "buddhist"}}, {"type": "way", "id": 354578690, "center": {"lat": 7.5627977, "lon": 80.2470445}, "nodes": [3602573320, 3602573321, 3602573322, 3602573323, 3602573324, 3602573325, 3602573326, 3602573320], "tags": {"amenity": "place_of_worship", "religion": "buddhist"}}, {"type": "way", "id": 387289516, "center": {"lat": 8.101672, "lon": 80.1944912}, "nodes": [3905973283, 3905973284, 3905973285, 3905973286, 3905973287, 3905973288, 3905973289, 3905973290, 3905973291, 3905973292, 3905973293, 3905973294, 3905973283], "tags": {"addr:city": "Rajanganaya", "amenity": "place_of_worship", "name": "Weheragala Rajamaha Viharaya", "religion": "buddhist"}}, {"type": "way", "id": 406914996, "center": {"lat": 8.153025, "lon": 80.2931045}, "nodes": [4089547621, 4089547622, 4089547623, 4089547624, 4089547625, 4089547626, 4089547627, 4089547628, 4089547621], "tags": {"amenity": "place_of_worship", "name": "Thabuttegama temple", "religion": "buddhist"}}, {"type": "way", "id": 407765608, "center": {"lat": 7.581867, "lon": 80.0398136}, "nodes": [4097990548, 4097990549, 4097990550, 4097990551, 4097990552, 4097990553, 4097990548], "tags": {"amenity": "place_of_worship", "building": "yes", "name": "Temple", "religion": "buddhist"}}, {"type": "way", "id": 409848368, "center": {"lat": 7.8267468, "lon": 80.0620201}, "nodes": [4117175022, 5779404183, 5779404182, 4117175023, 4117175024, 4117175025, 4117175026, 4117175027, 4117175028, 4117175029, 4117175022], "tags": {"amenity": "place_of_worship", "name": "Temple", "religion": "buddhist"}}, {"type": "way", "id": 437181880, "center": {"lat": 7.9985129, "lon": 79.8399805}, "nodes": [4350039000, 4350038998, 4350038999, 4350038997, 4350039000], "tags": {"amenity": "place_of_worship", "building": "yes", "religion": "muslim"}}, {"type": "way", "id": 437181911, "center": {"lat": 7.9967682, "lon": 79.8451904}, "nodes": [4350039667, 4350039670, 4350039668, 4350039669, 4350039667], "tags": {"amenity": "place_of_worship", "religion": "muslim"}}, {"type": "way", "id": 474863780, "center": {"lat": 7.5552015, "lon": 79.9962551}, "nodes": [4687260249, 4687260250, 4687260251, 4687260252, 5796250801, 5796250800, 4687260256, 4687260249], "tags": {"amenity": "place_of_worship", "name": "Temple", "religion": "buddhist"}}, {"type": "way", "id": 475905968, "center": {"lat": 7.5245421, "lon": 80.2545996}, "nodes": [4695859368, 4695859369, 4695859370, 4695859371, 4695859372, 4695859373, 4695859374, 4695859375, 4695859376, 4695859377, 4695859368], "tags": {"amenity": "place_of_worship", "name": "Thembilipola Rajamaha Viharaya", "religion": "buddhist"}}, {"type": "way", "id": 491252445, "center": {"lat": 7.5331953, "lon": 80.1855484}, "nodes": [4833933403, 4833933404, 5359334690, 5359334688, 5359334689, 5359334687, 4833933405, 3066124330, 5883253284, 4833923473, 4833933403], "tags": {"addr:city": "Umangawa Waththa, Katupotha", "addr:street": "Katupotha temple road", "amenity": "place_of_worship", "name": "Katupotha Temple", "religion": "buddhist"}}, {"type": "way", "id": 511047947, "center": {"lat": 7.8267908, "lon": 80.105846}, "nodes": [4999823977, 4999823976, 4999823975, 4999823974, 4999823973, 4999823972, 4999823971, 4999823970, 4999823969, 4999823968, 4999823967, 4999823966, 4999823965, 4999823964, 4999823977], "tags": {"amenity": "place_of_worship", "landuse": "reservoir", "name": "Temple", "religion": "buddhist", "reservoir_type": "water_storage"}}, {"type": "way", "id": 513149769, "center": {"lat": 7.5226978, "lon": 80.2856786}, "nodes": [5016854277, 5016854276, 5016854275, 5016854274, 13414075029, 5016854273, 5016854277], "tags": {"amenity": "place_of_worship", "name": "Demataluwa Purana Pothgul Viharaya", "religion": "buddhist"}}, {"type": "way", "id": 513149771, "center": {"lat": 7.5140197, "lon": 80.2994666}, "nodes": [5016854288, 5016854287, 13464861917, 5016854286, 5016854285, 5016854288], "tags": {"amenity": "place_of_worship", "name": "Buddhist Temple", "religion": "buddhist"}}, {"type": "way", "id": 517877951, "center": {"lat": 7.7438255, "lon": 80.1115001}, "nodes": [5052913593, 13511757576, 13511757575, 5052913597, 13511757581, 13511757580, 5052913596, 5052913592, 5052913595, 5052913594, 5052913593], "tags": {"amenity": "place_of_worship", "name": "Vishawakeerithi Maha Piriwena", "religion": "buddhist"}}, {"type": "way", "id": 533730090, "center": {"lat": 8.0078196, "lon": 79.8405135}, "nodes": [5177635376, 5177635377, 5177635378, 5177635379, 5177635376], "tags": {"amenity": "place_of_worship", "building": "yes", "religion": "hindu"}}, {"type": "way", "id": 550198490, "center": {"lat": 7.6899238, "lon": 80.2272426}, "nodes": [5314346875, 5314346874, 5314346873, 5314346872, 5314346871, 5314346870, 5314346869, 5314346868, 5314346875], "tags": {"amenity": "place_of_worship", "religion": "buddhist"}}, {"type": "way", "id": 550198535, "center": {"lat": 7.6513941, "lon": 80.296026}, "nodes": [5314353631, 5314353630, 5314353629, 5314353628, 5314353627, 5314353626, 5314353625, 5314353624, 5314353623, 5314353622, 5314353631], "tags": {"amenity": "place_of_worship", "name": "Buddhist Temple", "religion": "buddhist"}}, {"type": "way", "id": 552328057, "center": {"lat": 7.5835338, "lon": 79.8167871}, "nodes": [5332798917, 5332798916, 5332798915, 5332798914, 13513285532, 5332798913, 5332798912, 5332798917], "tags": {"amenity": "place_of_worship", "name": "Buddhist Temple", "religion": "buddhist"}}, {"type": "way", "id": 552328069, "center": {"lat": 7.5910716, "lon": 79.8317431}, "nodes": [5332799096, 5332799095, 5332799094, 5332799093, 5332799092, 5332799091, 5332799090, 5332799089, 5332799096], "tags": {"amenity": "place_of_worship", "name": "Buddhist Temple", "religion": "buddhist"}}, {"type": "way", "id": 552328149, "center": {"lat": 7.5633408, "lon": 79.84367}, "nodes": [5332800373, 5332800372, 5332800371, 5332800370, 5332800369, 5332800368, 5332800367, 5332800366, 5332800373], "tags": {"amenity": "place_of_worship", "name": "Buddhist Temple", "religion": "buddhist"}}, {"type": "way", "id": 553032367, "center": {"lat": 7.7262122, "lon": 79.8458742}, "nodes": [5338791528, 5338791527, 5338791526, 5338791525, 5338791528], "tags": {"amenity": "place_of_worship", "name": "Maha Maeliya Jayasumanaramaya", "religion": "buddhist"}}, {"type": "way", "id": 553032368, "center": {"lat": 7.7738058, "lon": 79.8588728}, "nodes": [5338791536, 5338791535, 5338791534, 5338791533, 5338791536], "tags": {"amenity": "place_of_worship", "name": "Angunawila Bodhirajaramaya", "religion": "buddhist"}}, {"type": "way", "id": 553032424, "center": {"lat": 7.83656, "lon": 79.8848386}, "nodes": [5338793055, 5338793054, 5338793053, 5338793052, 5338793055], "tags": {"amenity": "place_of_worship", "name": "Buddhist Temple", "religion": "buddhist"}}, {"type": "way", "id": 553073921, "center": {"lat": 7.6862241, "lon": 79.8282775}, "nodes": [5339157857, 5339157856, 5339157855, 5339157854, 5339157853, 5339157852, 5339157857], "tags": {"amenity": "place_of_worship", "name": "Sri Rathnagiri Rajamaha Viharaya", "religion": "buddhist"}}, {"type": "way", "id": 553221594, "center": {"lat": 8.1946618, "lon": 80.0216393}, "nodes": [5340462303, 5340462302, 5340462301, 5340462300, 5340462303], "tags": {"amenity": "place_of_worship", "name": "Ashoka Rajamaha Viharaya", "religion": "buddhist"}}, {"type": "way", "id": 555489673, "center": {"lat": 7.5505372, "lon": 80.2526667}, "nodes": [5359332376, 5359332375, 5359332374, 5359332373, 5359332372, 5359332371, 5359332370, 5359332369, 5359332368, 5359332367, 5359332376], "tags": {"amenity": "place_of_worship", "name": "Buddhist Temple", "religion": "buddhist"}}, {"type": "way", "id": 555489677, "center": {"lat": 7.5542432, "lon": 80.254506}, "nodes": [5359332391, 5359332390, 5359332389, 5359332388, 5359332387, 5359332386, 5359332385, 5359332384, 5359332391], "tags": {"amenity": "place_of_worship", "name": "Buddhist Temple", "religion": "buddhist"}}, {"type": "way", "id": 555489682, "center": {"lat": 7.5270228, "lon": 80.2143788}, "nodes": [5359333584, 5359333583, 5359333577, 5359333582, 5359333581, 5359333580, 5359333579, 5359333578, 5359333584], "tags": {"amenity": "place_of_worship", "name": "Buddhist Temple", "religion": "buddhist"}}, {"type": "way", "id": 555489736, "center": {"lat": 7.5647843, "lon": 80.215571}, "nodes": [5359334629, 5359334628, 5359334627, 5359334626, 5359334625, 5359334624, 5359334623, 5359334622, 5359334621, 5359334520, 5359334629], "tags": {"amenity": "place_of_worship", "name": "Buddhist Temple", "religion": "buddhist"}}, {"type": "way", "id": 555489741, "center": {"lat": 7.5573647, "lon": 80.2271944}, "nodes": [5359334659, 5359334658, 5359334657, 5359334656, 5359334655, 5359334654, 5359334653, 5359334652, 5359334651, 5359334650, 5359334659], "tags": {"amenity": "place_of_worship", "name": "Buddhist Temple", "religion": "buddhist"}}, {"type": "way", "id": 558233133, "center": {"lat": 7.6176779, "lon": 79.98277}, "nodes": [5382765118, 5382765117, 5382765116, 5382765115, 5382765114, 5382765113, 5382765112, 5382765111, 5382765118], "tags": {"amenity": "place_of_worship", "name": "Buddhist Temple", "religion": "buddhist"}}, {"type": "way", "id": 558233191, "center": {"lat": 7.6108095, "lon": 79.9662852}, "nodes": [5382768516, 5382768515, 5382768514, 5382768513, 5382768512, 5382768511, 5382768510, 5382768509, 5382768516], "tags": {"amenity": "place_of_worship", "religion": "buddhist"}}, {"type": "way", "id": 558233204, "center": {"lat": 7.6116655, "lon": 79.956758}, "nodes": [5382769004, 5382769003, 5382769002, 5382769001, 5382769000, 5382768999, 5382768998, 5382768997, 5382768996, 5382768995, 5382769004], "tags": {"amenity": "place_of_worship", "name": "Brahmanayagama Temple", "religion": "buddhist"}}, {"type": "way", "id": 561248479, "center": {"lat": 8.1443404, "lon": 80.1712677}, "nodes": [5412141220, 5412141219, 5412141218, 5412141217, 5412141216, 5412141215, 5412141214, 5412141213, 5412141212, 5412141211, 5412141220], "tags": {"amenity": "place_of_worship", "name": "Sri Saliya Ashokaramaya", "religion": "buddhist"}}, {"type": "way", "id": 561248499, "center": {"lat": 8.140906, "lon": 80.1618102}, "nodes": [5412142683, 5412142682, 5412142681, 5412142680, 5412142679, 5412142678, 5412142677, 5412142676, 5412142675, 5412142674, 5412142673, 5412142672, 5412142671, 5412142670, 5412142683], "tags": {"amenity": "place_of_worship", "name": "Saliya Ashokapuara Temple", "religion": "buddhist"}}, {"type": "way", "id": 561485094, "center": {"lat": 8.1566668, "lon": 80.1451846}, "nodes": [5414035594, 5414035585, 5414035586, 5414035587, 5414035588, 5414035589, 5414035590, 5414035591, 5414035592, 5414035593, 5414035594], "tags": {"amenity": "place_of_worship", "name": "Perakumpura Temple", "religion": "buddhist"}}, {"type": "way", "id": 568190485, "center": {"lat": 8.16597, "lon": 80.1983848}, "nodes": [5466900370, 5466900369, 5466900368, 5466900367, 5466900366, 5466900365, 5466900364, 5466900363, 5466900362, 5466900361, 5466900360, 5466900359, 5466900358, 5466900357, 5466900356, 5466900355, 5466900354, 5466900353, 5466900352, 5466900370], "tags": {"amenity": "place_of_worship", "name": "Yaya 5 Sri Ashokaramaya", "religion": "buddhist"}}, {"type": "way", "id": 568190519, "center": {"lat": 8.167352, "lon": 80.2102106}, "nodes": [5466900842, 5466900841, 5466900840, 5466900839, 5466900838, 5466900837, 5466900836, 5466900835, 5466900842], "tags": {"amenity": "place_of_worship", "name": "Buddhist Temple", "religion": "buddhist"}}, {"type": "way", "id": 568190632, "center": {"lat": 8.1575576, "lon": 80.215213}, "nodes": [5466902247, 5466902246, 5466902245, 5466902244, 5466902243, 5466902242, 5466902241, 5466902240, 5466902239, 5466902238, 5466902247], "tags": {"amenity": "place_of_worship", "religion": "buddhist"}}, {"type": "way", "id": 568473450, "center": {"lat": 8.1192537, "lon": 80.1742919}, "nodes": [5469010193, 5469010192, 5469010191, 5469010190, 5469010189, 5469010188, 5469010187, 5469010186, 5469010193], "tags": {"amenity": "place_of_worship", "name": "Pothanegama Temple", "religion": "buddhist"}}, {"type": "way", "id": 568473478, "center": {"lat": 8.1426052, "lon": 80.2086}, "nodes": [5469010608, 5469010607, 5469010606, 5469010605, 5469010604, 5469010603, 5469010602, 5469010601, 5469010600, 5469010599, 5469010608], "tags": {"amenity": "place_of_worship", "name": "Sri Bodhirukkarama Viharaya", "religion": "buddhist"}}, {"type": "way", "id": 581849907, "center": {"lat": 7.700466, "lon": 80.1145939}, "nodes": [5566235376, 5566235375, 5566235374, 5566235373, 5566235372, 5566235371, 5566235370, 5566235369, 5566235376], "tags": {"amenity": "place_of_worship", "name": "Buddhist Temple", "religion": "buddhist"}}, {"type": "way", "id": 581849908, "center": {"lat": 7.6999198, "lon": 80.121954}, "nodes": [5566235386, 5566235377, 5566235378, 5566235379, 5566235380, 5566235381, 5566235382, 5566235383, 5566235384, 5566235385, 5566235386], "tags": {"amenity": "place_of_worship", "name": "Yakadapatha Sri Pushparamaya", "religion": "buddhist"}}, {"type": "way", "id": 581849912, "center": {"lat": 7.6990307, "lon": 80.1308079}, "nodes": [5566235922, 5566235921, 5566235420, 5566235419, 5566235418, 5566235417, 5566235416, 5566235415, 5566235922], "tags": {"amenity": "place_of_worship", "name": "Habaralagahalanda Dewalaya", "religion": "buddhist"}}, {"type": "way", "id": 581849916, "center": {"lat": 7.7117333, "lon": 80.1432775}, "nodes": [5566235957, 5566235956, 5566235955, 5566235954, 5566235953, 5566235952, 5566235951, 5566235949, 5566235950, 5566235957], "tags": {"amenity": "place_of_worship", "name": "Buddhist Temple", "religion": "buddhist"}}, {"type": "way", "id": 581849933, "center": {"lat": 7.7214506, "lon": 80.1439628}, "nodes": [5566236097, 5566236096, 5566236095, 5566236094, 5566236093, 5566236092, 5566236091, 5566236090, 5566236089, 5566236088, 5566236087, 5566236086, 5566236097], "tags": {"amenity": "place_of_worship", "name": "Withikuliya Dharmachakra Viharaya", "religion": "buddhist"}}, {"type": "way", "id": 588167111, "center": {"lat": 7.9859607, "lon": 79.8816375}, "nodes": [3895615298, 5617821578, 5617821577, 5617821576, 5617821575, 5617821574, 5617821573, 3895615298], "tags": {"amenity": "place_of_worship", "name": "Bodhirajapura Sri Thambhapanni Viharaya", "religion": "buddhist"}}, {"type": "way", "id": 588324426, "center": {"lat": 7.9460378, "lon": 79.9005925}, "nodes": [5619216364, 5619216363, 5619216362, 5619216361, 5619216360, 5619216359, 5619216358, 5619216357, 5619216364], "tags": {"amenity": "place_of_worship", "name": "Sri Dharma Vijayarama Viharaya", "religion": "buddhist"}}, {"type": "way", "id": 588324477, "center": {"lat": 7.96134, "lon": 79.8940037}, "nodes": [5619216907, 5619216906, 5619216905, 5619216904, 5619216903, 5619216902, 5619216901, 5619216900, 5619216907], "tags": {"amenity": "place_of_worship", "name": "Buddhist Temple", "religion": "buddhist"}}, {"type": "way", "id": 588328653, "center": {"lat": 7.9941713, "lon": 79.8988867}, "nodes": [4602254848, 5619255752, 5619255751, 5619255750, 5619255749, 5619255748, 5619255747, 5619255746, 4602254848], "tags": {"amenity": "place_of_worship", "name": "Kalladiya Sri Sugatharama Viharaya", "religion": "buddhist"}}, {"type": "way", "id": 588871772, "center": {"lat": 8.1335367, "lon": 80.1888519}, "nodes": [5623763407, 5623763408, 5623763409, 5623763410, 5623763407], "tags": {"addr:city": "GIRIBAWA", "addr:housenumber": "R.L.B. TRACT 02, SALIYA ASHOKAPURA", "amenity": "place_of_worship", "name": "Sri Sudharmaramaya", "religion": "buddhist"}}, {"type": "way", "id": 589958590, "center": {"lat": 7.7262422, "lon": 79.8790994}, "nodes": [5633546226, 5633546227, 5633546228, 5633546229, 5633546230, 5633546231, 5633546232, 5633546233, 5633546234, 5633546235, 5633546236, 5633546237, 5633546226], "tags": {"amenity": "place_of_worship", "name": "Wijaya Sri Vardhanaramaya, Wijayakatupotha", "religion": "buddhist"}}, {"type": "way", "id": 589959525, "center": {"lat": 7.7279554, "lon": 79.8576489}, "nodes": [5633556223, 5633556224, 5633556225, 13429860637, 13429860636, 5633556227, 5660805204, 13429860638, 5633556228, 13429860633, 13429860632, 13429860634, 13429860635, 5633556223], "tags": {"amenity": "place_of_worship", "building": "yes", "name": "Wijayakatupotha Sadasarana Church", "religion": "christian"}}, {"type": "way", "id": 592047925, "center": {"lat": 7.7472868, "lon": 79.9771636}, "nodes": [5651403290, 5651403285, 5651403286, 5651403289, 5651403288, 5651403287, 5651403290], "tags": {"amenity": "place_of_worship", "building": "yes", "religion": "muslim"}}, {"type": "way", "id": 592059267, "center": {"lat": 7.5805338, "lon": 80.0228335}, "nodes": [5651482319, 5651482318, 5651482317, 5651482316, 5651482315, 5651482314, 5651482313, 5651482312, 5651482311, 5651482310, 5651482309, 5651482308, 5651482319], "tags": {"amenity": "place_of_worship", "name": "Buddhist Temple", "religion": "buddhist"}}, {"type": "way", "id": 592059291, "center": {"lat": 7.6001219, "lon": 80.0091885}, "nodes": [5651482955, 5651482954, 5651482953, 5651482952, 5651482951, 5651482950, 5651482949, 5651482948, 5651482955], "tags": {"amenity": "place_of_worship", "name": "Buddhist Temple", "religion": "buddhist"}}, {"type": "way", "id": 592059292, "center": {"lat": 7.5946876, "lon": 79.9934211}, "nodes": [5651482965, 5651482964, 5651482963, 5651482962, 5693342320, 5693342319, 5651482961, 5651482960, 5651482959, 5651482958, 5651482957, 5651482956, 5651482965], "tags": {"amenity": "place_of_worship", "name": "Buddhist Temple", "religion": "buddhist"}}, {"type": "way", "id": 592059301, "center": {"lat": 7.5900109, "lon": 80.0376052}, "nodes": [5651483381, 5651483380, 5651483379, 5651483378, 5651483377, 5651483376, 5651483375, 5651483374, 5651483373, 5651483372, 5651483371, 5651483370, 5651483381], "tags": {"amenity": "place_of_worship", "name": "Buddhist Temple", "religion": "buddhist"}}, {"type": "way", "id": 592658636, "center": {"lat": 7.674586, "lon": 79.8812321}, "nodes": [5655858261, 5655858260, 5655858259, 5655858258, 5655858257, 5655858256, 5655858255, 5655858254, 5655858261], "tags": {"amenity": "place_of_worship", "man_made": "stupa", "religion": "buddhist"}}, {"type": "way", "id": 593322610, "center": {"lat": 7.6713248, "lon": 79.9889845}, "nodes": [5660542259, 5660542258, 5660542257, 5660542256, 5660542255, 5660542254, 5660542253, 5660542259], "tags": {"amenity": "place_of_worship", "building": "temple", "name": "Makullapokuma Sri Sumanaramaya", "religion": "buddhist"}}, {"type": "way", "id": 593910512, "center": {"lat": 7.5769914, "lon": 79.8020658}, "nodes": [5664696288, 5664696287, 5664696286, 5664696285, 5664696284, 5664696283, 5664696288], "tags": {"addr:city": "Chilaw", "amenity": "place_of_worship", "building": "public", "name": "Sri Devagiri Viharaya", "religion": "buddhist"}}, {"type": "way", "id": 594095935, "center": {"lat": 7.575098, "lon": 79.9164527}, "nodes": [5665929415, 5665929416, 5665929417, 5665929418, 5665929415], "tags": {"amenity": "place_of_worship", "building": "yes", "religion": "buddhist"}}, {"type": "way", "id": 594149044, "center": {"lat": 7.6310892, "lon": 79.9859195}, "nodes": [5666239774, 5666239775, 5666239776, 5666239777, 5666239778, 5666239779, 5666239780, 5666239781, 5666239774], "tags": {"amenity": "place_of_worship", "building": "yes", "name": "St. Helen's Church", "religion": "christian"}}, {"type": "way", "id": 594166908, "center": {"lat": 7.5429904, "lon": 79.814571}, "nodes": [5666338952, 5666338953, 5666338954, 6865461845, 13513121957, 13513121956, 13513121955, 13513121954, 5666338955, 5666338956, 5666338957, 5666338952], "tags": {"amenity": "place_of_worship", "building": "temple", "image": "https://photos.app.goo.gl/hRjWuLA83woExG1q6", "name": "Holy Rosary Church", "religion": "christian"}}, {"type": "way", "id": 595178193, "center": {"lat": 7.5098841, "lon": 79.8297028}, "nodes": [5673127730, 5673127739, 5673127740, 5673121223, 3679877761, 5673121224, 5673095919, 5673127741, 5673127738, 5673127729, 5673127732, 5673127731, 5673127730], "tags": {"addr:city": "Madampe", "amenity": "place_of_worship", "building": "yes", "name": "Punchi Kataragama", "religion": "hindu"}}, {"type": "way", "id": 597700527, "center": {"lat": 8.1883405, "lon": 80.2572378}, "nodes": [5690128712, 5690128711, 5690128710, 5690128709, 5690128708, 5690128707, 5690128706, 5690128705, 5690128704, 5690128703, 5690128702, 5690128701, 5690128712], "tags": {"amenity": "place_of_worship", "name": "Oththappuwa Rajamaha Viharaya", "religion": "buddhist"}}, {"type": "way", "id": 598089762, "center": {"lat": 7.50781, "lon": 79.9313465}, "nodes": [5374821108, 5693027128, 5693027131, 5693027130, 5693027129, 5374821108], "tags": {"amenity": "place_of_worship", "name": "Temple", "religion": "buddhist"}}, {"type": "way", "id": 598213557, "center": {"lat": 7.594129, "lon": 79.8652135}, "nodes": [5693914489, 5693914465, 5693914517, 5693914503, 5693914498, 5693914489], "tags": {"amenity": "place_of_worship"}}, {"type": "way", "id": 598407123, "center": {"lat": 7.5465104, "lon": 79.8683798}, "nodes": [5695448324, 5695448323, 5695448322, 5695448321, 5695448324], "tags": {"amenity": "place_of_worship"}}, {"type": "way", "id": 599090181, "center": {"lat": 7.5752734, "lon": 79.9163881}, "nodes": [5700893858, 5700893857, 5700893856, 5700893855, 5700893854, 5700893853, 5700893852, 5700893851, 5700893858], "tags": {"amenity": "place_of_worship", "religion": "buddhist"}}, {"type": "way", "id": 609807916, "center": {"lat": 7.8869654, "lon": 80.0111141}, "nodes": [5775729061, 5775729062, 5775729063, 5775729064, 5775728846, 5775728847, 5775728848, 5775728849, 5775728850, 5775729056, 5775729057, 5775729058, 5775729059, 5775729060, 5775728851, 5775728852, 5775729053, 5775729054, 5775729055, 5775729061], "tags": {"amenity": "place_of_worship", "building": "yes", "name": "Kawanthissa Seya Temple"}}, {"type": "way", "id": 611904243, "center": {"lat": 7.6059392, "lon": 80.0877249}, "nodes": [5793013680, 5793013681, 5793013682, 5793013683, 5793013680], "tags": {"amenity": "place_of_worship", "building": "yes"}}, {"type": "way", "id": 616445245, "center": {"lat": 7.5580648, "lon": 80.2116333}, "nodes": [5828227156, 5828227157, 5828227158, 5828227159, 5828227160, 5828227161, 5828227162, 5828227163, 5828227156], "tags": {"amenity": "place_of_worship", "building": "yes"}}, {"type": "way", "id": 616477834, "center": {"lat": 7.5128288, "lon": 80.2807013}, "nodes": [5828461207, 5828461208, 5828461209, 5828461211, 5907587684, 5907587785, 5828461207], "tags": {"amenity": "place_of_worship", "building": "yes", "religion": "buddhist"}}, {"type": "way", "id": 617504137, "center": {"lat": 7.5686811, "lon": 80.0745797}, "nodes": [5837221106, 5837221107, 5837221108, 5837221109, 5837221106], "tags": {"amenity": "place_of_worship", "building": "yes", "religion": "buddhist"}}, {"type": "way", "id": 618510343, "center": {"lat": 7.5876703, "lon": 80.0681835}, "nodes": [5846097206, 5846097207, 5846097208, 5846097209, 5846097210, 5846097211, 5846097212, 5846097213, 5846097206], "tags": {"amenity": "place_of_worship", "building": "yes", "religion": "buddhist"}}, {"type": "way", "id": 622909903, "center": {"lat": 7.5329837, "lon": 80.1245258}, "nodes": [5883053682, 5883053673, 5883053674, 5883053675, 5883053676, 5883053677, 5883053678, 5883053679, 5883053684, 5883053680, 5883053683, 5883053681, 5883053682], "tags": {"amenity": "place_of_worship", "religion": "buddhist"}}, {"type": "way", "id": 625701634, "center": {"lat": 7.5125013, "lon": 80.2806527}, "nodes": [5907587666, 5907587651, 5907587652, 5907587653, 5907587654, 5907587655, 5907587656, 5907587665, 5907587657, 5907587658, 5907587659, 5907587660, 5907587664, 5907587661, 5907587662, 5907587663, 5907587666], "tags": {"amenity": "place_of_worship", "religion": "buddhist"}}, {"type": "way", "id": 625701635, "center": {"lat": 7.5126957, "lon": 80.2805937}, "nodes": [5907587681, 5907587680, 5907587679, 5907587678, 5907587681], "tags": {"amenity": "place_of_worship", "building": "yes", "religion": "buddhist"}}, {"type": "way", "id": 636785954, "center": {"lat": 7.7849807, "lon": 80.0879139}, "nodes": [6004438314, 6004438315, 6004438316, 6004438317, 6004438318, 6004438319, 6004438320, 6004438321, 6004438322, 6004438323, 6004438324, 6004438325, 6004438314], "tags": {"amenity": "place_of_worship", "building": "yes", "name": "Udahenegama Purana Rajamaha Viharaya", "religion": "buddhist"}}, {"type": "way", "id": 652293320, "center": {"lat": 7.9083595, "lon": 79.9406379}, "nodes": [6115576036, 6115576035, 6115576034, 6115576033, 6115576032, 6115576031, 6115576030, 6115576029, 6115576028, 6115576036], "tags": {"amenity": "place_of_worship", "name": "Buddhist Temple", "religion": "buddhist"}}, {"type": "way", "id": 655355158, "center": {"lat": 8.1051154, "lon": 79.882318}, "nodes": [6140338829, 13344150024, 6140338828, 6140338827, 6140338826, 6140338829], "tags": {"amenity": "place_of_worship", "name": "Sri Gunarathnaramaya", "religion": "buddhist"}}, {"type": "way", "id": 655355160, "center": {"lat": 8.0570874, "lon": 79.9612551}, "nodes": [6140338833, 6140338832, 6140338831, 13369172409, 6140338830, 13369172434, 6140338833], "tags": {"amenity": "place_of_worship", "religion": "buddhist"}}, {"type": "way", "id": 664602460, "center": {"lat": 8.1525972, "lon": 80.2305195}, "nodes": [6220771055, 6220771054, 6220771053, 6220771052, 6220771055], "tags": {"amenity": "place_of_worship", "name": "Sri Bodhirajarama Viharaya", "religion": "buddhist"}}, {"type": "way", "id": 681604813, "center": {"lat": 8.061325, "lon": 80.0781226}, "nodes": [6383209880, 6383209879, 6383209878, 6383209877, 6383209876, 6383209875, 6383209874, 6383209873, 6383209880], "tags": {"amenity": "place_of_worship", "name": "Ralapanawa Sri Sambodhi Senasanaya", "religion": "buddhist"}}, {"type": "way", "id": 681615365, "center": {"lat": 7.6786764, "lon": 80.2000632}, "nodes": [6383327485, 6383326184, 6383326183, 6383326182, 6383326181, 6383326180, 6383326179, 6383326178, 6383327485], "tags": {"amenity": "place_of_worship", "name": "Buddhist Temple", "religion": "buddhist"}}, {"type": "way", "id": 681615366, "center": {"lat": 7.6900956, "lon": 80.1991935}, "nodes": [6383327493, 6383327492, 6383327491, 6383327490, 6383327489, 6383327488, 6383327487, 6383327486, 6383327493], "tags": {"amenity": "place_of_worship", "religion": "buddhist"}}, {"type": "way", "id": 682083597, "center": {"lat": 8.1645105, "lon": 80.0958486}, "nodes": [6387483199, 6387483198, 6387483200, 6387483197, 4718994138, 6387483196, 6387483199], "tags": {"amenity": "place_of_worship", "name": "Buddhist Temple", "religion": "buddhist"}}, {"type": "way", "id": 682090127, "center": {"lat": 7.7689949, "lon": 80.0769961}, "nodes": [6387563253, 6387563252, 6387563251, 6387563250, 6387563249, 6387563248, 6387563253], "tags": {"amenity": "place_of_worship", "name": "Buddhist Temple", "religion": "buddhist"}}, {"type": "way", "id": 686432895, "center": {"lat": 7.7791255, "lon": 79.9478128}, "nodes": [6434019248, 6434019247, 6434019246, 6434019245, 6434019248], "tags": {"amenity": "place_of_worship", "name": "Buddhist Temple", "religion": "buddhist"}}, {"type": "way", "id": 721537389, "center": {"lat": 7.6194216, "lon": 80.2451652}, "nodes": [6768774902, 6768774903, 6768774904, 6768774905, 6768774902], "tags": {"addr:city": "Wariyapola", "addr:postcode": "60400", "addr:street": "Chilaw Road", "amenity": "place_of_worship", "building": "yes", "denomination": "sunni", "religion": "muslim"}}, {"type": "way", "id": 750366391, "center": {"lat": 7.9332228, "lon": 80.1270622}, "nodes": [7016288465, 9221995472, 7016288464, 9221995471, 7016288463, 9221995466, 7016288462, 9350887579, 9350887581, 7016288460, 7016288459, 7016288458, 7016288457, 7016288456, 7016288455, 7016288454, 7016288465], "tags": {"amenity": "place_of_worship", "name": "Palugolla Sri Wapikaramaya", "religion": "buddhist"}}, {"type": "way", "id": 750370755, "center": {"lat": 7.9372839, "lon": 80.1219589}, "nodes": [7016326932, 7016326931, 7016326930, 7016288235, 7016326929, 7016326928, 7016326927, 7016326926, 7016288219, 9227857420, 9227857419, 7016288217, 9227892638, 7016326923, 7016326922, 7016326921, 7016326920, 7016326919, 7016326932], "tags": {"amenity": "place_of_worship", "name": "Ottukulama Temple", "religion": "buddhist"}}, {"type": "way", "id": 751233201, "center": {"lat": 7.8816658, "lon": 80.101039}, "nodes": [7023154345, 7023154344, 7023154340, 7023154343, 7023154342, 7023154341, 7023154339, 7023154345], "tags": {"amenity": "place_of_worship", "building": "yes", "religion": "buddhist"}}, {"type": "way", "id": 751233214, "center": {"lat": 7.855192, "lon": 80.0738066}, "nodes": [7023154401, 7023154400, 7023154399, 7023154398, 7023154401], "tags": {"amenity": "place_of_worship", "building": "yes", "religion": "buddhist"}}, {"type": "way", "id": 753808436, "center": {"lat": 7.9515628, "lon": 80.1321303}, "nodes": [7042967268, 7042967267, 7042967266, 7042967265, 7042967268], "tags": {"amenity": "place_of_worship", "building": "yes", "religion": "buddhist"}}, {"type": "way", "id": 754483105, "center": {"lat": 8.0081508, "lon": 79.8377383}, "nodes": [7048506113, 7048506112, 3696397748, 7048506111, 7048506113], "tags": {"addr:city": "Puttalam", "amenity": "place_of_worship", "building": "yes", "name": "Muhaiyadeen Jumma Masjid", "religion": "muslim"}}, {"type": "way", "id": 754483108, "center": {"lat": 8.0105967, "lon": 79.837316}, "nodes": [7048506122, 7048506121, 7048506120, 7048506119, 7048506118, 3696397749, 7048506117, 7048506116, 7048506122], "tags": {"addr:city": "Thillaiyadi", "amenity": "place_of_worship", "building": "yes", "denomination": "roman_catholic", "name": "Velankanni Church", "religion": "christian"}}, {"type": "way", "id": 757522073, "center": {"lat": 8.0062153, "lon": 80.2899285}, "nodes": [7074402560, 7074402559, 7074402558, 7074402557, 7074402560], "tags": {"amenity": "place_of_worship", "building": "yes", "religion": "buddhist"}}, {"type": "way", "id": 757751106, "center": {"lat": 8.0040918, "lon": 80.2511047}, "nodes": [7076723525, 7076723524, 7076723523, 7076723522, 7076723525], "tags": {"amenity": "place_of_worship", "building": "yes", "religion": "buddhist"}}, {"type": "way", "id": 757755330, "center": {"lat": 8.0041654, "lon": 80.2538184}, "nodes": [7076762907, 7076762906, 7076762905, 7076762904, 7076762907], "tags": {"amenity": "place_of_worship", "building": "yes", "religion": "muslim"}}, {"type": "way", "id": 757778062, "center": {"lat": 7.9881881, "lon": 80.2654504}, "nodes": [8284227450, 8284227451, 8284227452, 8284227453, 8284227454, 8284227455, 7076957814, 7076957810, 7076957813, 7076957809, 8284227445, 8284227446, 8284227447, 8284227448, 8284227449, 7076957812, 7076957808, 7076957811, 7076957807, 8284227450], "tags": {"amenity": "place_of_worship", "building": "yes", "religion": "buddhist"}}, {"type": "way", "id": 757778076, "center": {"lat": 7.9982763, "lon": 80.2719814}, "nodes": [7076957873, 7076957870, 7076957871, 7076957872, 7076957873], "tags": {"amenity": "place_of_worship", "building": "yes", "religion": "muslim"}}, {"type": "way", "id": 758038172, "center": {"lat": 8.0016253, "lon": 80.2848846}, "nodes": [7079217917, 7079217942, 7079217941, 7079217916, 7079217940, 7079217911, 7079217937, 7079217938, 7079217912, 7079217910, 7079217939, 7079217915, 7079217945, 7079217913, 7079217943, 7079217944, 7079217914, 7079217948, 7079217947, 7079217946, 7079217917], "tags": {"amenity": "place_of_worship", "building": "yes", "religion": "christian"}}, {"type": "way", "id": 758077302, "center": {"lat": 7.9838589, "lon": 80.2080273}, "nodes": [7079539954, 7079539953, 7079539952, 7079539951, 7079539954], "tags": {"amenity": "place_of_worship", "building": "yes", "religion": "buddhist"}}, {"type": "way", "id": 758846030, "center": {"lat": 7.9272326, "lon": 80.2875293}, "nodes": [7087411398, 7087411395, 7087411396, 7087411397, 7087411398], "tags": {"amenity": "place_of_worship", "building": "yes", "religion": "buddhist"}}, {"type": "way", "id": 758851453, "center": {"lat": 7.9273633, "lon": 80.2885459}, "nodes": [7087451525, 7087451524, 7087451523, 7087451522, 7087451525], "tags": {"amenity": "place_of_worship", "building": "yes", "religion": "buddhist"}}, {"type": "way", "id": 760430313, "center": {"lat": 7.8377184, "lon": 79.9397636}, "nodes": [7103615598, 7103615597, 7103615596, 7103615595, 7103615594, 7103615593, 7103615592, 7103615598], "tags": {"amenity": "place_of_worship", "name": "Walpaluwa viharasthanaya", "religion": "buddhist"}}, {"type": "way", "id": 760706072, "center": {"lat": 7.8715865, "lon": 79.9103558}, "nodes": [7106321042, 7106321041, 7106321040, 7106321039, 7106321038, 7106321037, 7106321036, 7106321035, 7106321034, 7106321042], "tags": {"amenity": "place_of_worship", "name": "Sembukuliya tempal", "religion": "buddhist"}}, {"type": "way", "id": 761041509, "center": {"lat": 7.5384515, "lon": 80.1188279}, "nodes": [7110423985, 7110423984, 7110423983, 7110423982, 7110423981, 7110423980, 7110423979, 7110423978, 7110423977, 7110423976, 7110423975, 7110423974, 7110423973, 7110423972, 7110423985], "tags": {"amenity": "place_of_worship", "name": "Anguruwagala perakumba raja maha viharaya", "religion": "buddhist"}}, {"type": "way", "id": 761267436, "center": {"lat": 7.8197013, "lon": 79.9132204}, "nodes": [7112428169, 7112428168, 7112428167, 7112428166, 7112428165, 7112428164, 7112428163, 7112428162, 7112428161, 7112428160, 7112428159, 7112428158, 7112428169], "tags": {"amenity": "place_of_worship", "name": "Sri Diparama temple", "religion": "buddhist"}}, {"type": "way", "id": 766603979, "center": {"lat": 7.6503041, "lon": 79.985103}, "nodes": [7159863591, 7159863592, 7159863593, 7159863594, 7159863595, 7159863591], "tags": {"amenity": "place_of_worship", "name": "Sri Pushparama Viharaya", "religion": "buddhist"}}, {"type": "way", "id": 772095386, "center": {"lat": 7.6260582, "lon": 80.2547749}, "nodes": [7207868919, 7207868918, 7207868917, 7207868916, 7207868915, 7207868914, 7207868913, 7207868912, 7207868911, 7207868910, 7207868919], "tags": {"amenity": "place_of_worship", "name": "Kadiragala Tempale", "religion": "buddhist"}}, {"type": "way", "id": 814549544, "center": {"lat": 8.1039574, "lon": 80.1298128}, "nodes": [7608764466, 7608764465, 7608764464, 7608764463, 7608764462, 7608764461, 7608764466], "tags": {"amenity": "place_of_worship", "religion": "buddhist"}}, {"type": "way", "id": 891026575, "center": {"lat": 7.9983815, "lon": 80.2462598}, "nodes": [8281497401, 8281497402, 8281497403, 8281497404, 8281497401], "tags": {"amenity": "place_of_worship", "building": "yes", "religion": "buddhist"}}, {"type": "way", "id": 892718562, "center": {"lat": 7.9996894, "lon": 80.2727294}, "nodes": [8297124969, 8297124970, 8297124971, 8297124972, 8297124973, 8297124974, 8297124975, 8297124976, 8297124969], "tags": {"amenity": "place_of_worship", "building": "yes", "religion": "hindu"}}, {"type": "way", "id": 893143010, "center": {"lat": 7.9732149, "lon": 80.1794693}, "nodes": [8300988413, 8300988414, 8300988415, 8300988416, 8300988417, 8300988418, 8300988419, 8300988420, 8300988421, 8300988422, 8300988423, 8300988424, 8300988413], "tags": {"amenity": "place_of_worship", "building": "yes", "religion": "buddhist"}}, {"type": "way", "id": 893890386, "center": {"lat": 7.9908494, "lon": 80.2682037}, "nodes": [8308168130, 8308168131, 8308168132, 8308168133, 8308168130], "tags": {"amenity": "place_of_worship", "building": "yes", "religion": "muslim"}}, {"type": "way", "id": 893960594, "center": {"lat": 7.9598574, "lon": 80.2547277}, "nodes": [8308841509, 8308841510, 8308841511, 8308841512, 8308841509], "tags": {"amenity": "place_of_worship", "building": "yes", "religion": "buddhist"}}, {"type": "way", "id": 902788549, "center": {"lat": 7.9976273, "lon": 80.1790757}, "nodes": [8385037570, 8385037571, 8385037572, 8385037573, 8385037574, 8385037575, 8385037570], "tags": {"amenity": "place_of_worship", "building": "yes", "religion": "buddhist"}}, {"type": "way", "id": 915417759, "center": {"lat": 7.7703781, "lon": 80.1627014}, "nodes": [8503175498, 8503175497, 8503175496, 8503175495, 8503175498], "tags": {"amenity": "place_of_worship", "religion": "buddhist"}}, {"type": "way", "id": 915417771, "center": {"lat": 7.7851202, "lon": 80.156083}, "nodes": [8503179217, 8503175516, 8503175515, 8503175514, 8503179217], "tags": {"amenity": "place_of_worship", "religion": "buddhist"}}, {"type": "way", "id": 915417783, "center": {"lat": 7.7895721, "lon": 80.1515514}, "nodes": [8503179242, 8503179241, 8503179240, 8503179239, 8503179242], "tags": {"amenity": "place_of_worship", "religion": "buddhist"}}, {"type": "way", "id": 915417794, "center": {"lat": 7.8051594, "lon": 80.1688881}, "nodes": [8503179256, 8503179259, 8503179258, 8503179257, 8503179256], "tags": {"amenity": "place_of_worship", "religion": "buddhist"}}, {"type": "way", "id": 915417802, "center": {"lat": 7.8202401, "lon": 80.1552952}, "nodes": [8503179271, 8503179270, 8503179269, 8503179268, 8503179271], "tags": {"amenity": "place_of_worship", "religion": "buddhist"}}, {"type": "way", "id": 915417810, "center": {"lat": 7.8458261, "lon": 80.2436524}, "nodes": [8503179381, 8503179380, 8503179379, 8503179378, 8503179381], "tags": {"amenity": "place_of_worship", "religion": "buddhist"}}, {"type": "way", "id": 915417812, "center": {"lat": 7.8487004, "lon": 80.2388915}, "nodes": [8503179405, 8503179404, 8503179403, 8503179402, 8503179405], "tags": {"amenity": "place_of_worship", "religion": "buddhist"}}, {"type": "way", "id": 915524861, "center": {"lat": 7.7407139, "lon": 80.1620469}, "nodes": [8504159245, 8504159244, 8504159243, 13718871279, 8504159242, 8504159245], "tags": {"amenity": "place_of_worship", "religion": "buddhist"}}, {"type": "way", "id": 915524871, "center": {"lat": 7.7409237, "lon": 80.2052843}, "nodes": [8504159263, 8504159262, 8504159261, 8504159260, 8504159259, 8504159258, 8504159263], "tags": {"amenity": "place_of_worship", "religion": "buddhist"}}, {"type": "way", "id": 915524913, "center": {"lat": 7.7877132, "lon": 80.221773}, "nodes": [8504175449, 8504175448, 8504175447, 8504175446, 8504175449], "tags": {"amenity": "place_of_worship", "religion": "buddhist"}}, {"type": "way", "id": 915524931, "center": {"lat": 7.7581159, "lon": 80.1640204}, "nodes": [8504175543, 8504175542, 8504175541, 8504175540, 8504175539, 8504175543], "tags": {"amenity": "place_of_worship", "religion": "buddhist"}}, {"type": "way", "id": 1017402865, "center": {"lat": 7.9071367, "lon": 80.244424}, "nodes": [9384180599, 9384180600, 9384180601, 9384180602, 9384180599], "tags": {"amenity": "place_of_worship", "building": "yes", "religion": "buddhist"}}, {"type": "way", "id": 1019018186, "center": {"lat": 8.0007642, "lon": 80.2808472}, "nodes": [9399096320, 9399096321, 9399096322, 9399096323, 9399096320], "tags": {"amenity": "place_of_worship", "building": "yes", "name": "Assembly of God Church", "religion": "christian"}}, {"type": "way", "id": 1019084337, "center": {"lat": 8.0623503, "lon": 80.280422}, "nodes": [9399745813, 9399745814, 9399745815, 9399745797, 9399745798, 9399745799, 9399745800, 9399745801, 9399745807, 9399745808, 9399745809, 9399745810, 9399745811, 9399745812, 9399745802, 9399745803, 9399745804, 9399745805, 9399745806, 9399745813], "tags": {"amenity": "place_of_worship", "building": "yes", "religion": "buddhist"}}, {"type": "way", "id": 1019207805, "center": {"lat": 8.0066134, "lon": 80.2915057}, "nodes": [9400611561, 9400611562, 9400611563, 9400611564, 9400611546, 9400611547, 9400611548, 9400611549, 9400611555, 9400611556, 9400611557, 9400611558, 9400611559, 9400611560, 9400611550, 9400611551, 9400611552, 9400611553, 9400611554, 9400611561], "tags": {"amenity": "place_of_worship", "building": "yes", "religion": "buddhist"}}, {"type": "way", "id": 1020369653, "center": {"lat": 8.0526156, "lon": 80.2977107}, "nodes": [9411086613, 9411086614, 9411086615, 9411086616, 9411086613], "tags": {"amenity": "place_of_worship", "building": "yes", "religion": "buddhist"}}, {"type": "way", "id": 1024167134, "center": {"lat": 7.9003222, "lon": 80.2810954}, "nodes": [9444101298, 9444101299, 9444101300, 9444101301, 9444101298], "tags": {"amenity": "place_of_worship", "building": "yes", "religion": "buddhist"}}, {"type": "way", "id": 1025949877, "center": {"lat": 7.9563434, "lon": 80.2914307}, "nodes": [9459033938, 9459033939, 9459033940, 9459033941, 9459033938], "tags": {"amenity": "place_of_worship", "building": "yes", "religion": "buddhist"}}, {"type": "way", "id": 1136631054, "center": {"lat": 8.0362318, "lon": 79.8420298}, "nodes": [10595619486, 10595619483, 10595619484, 10595619485, 10595619486], "tags": {"amenity": "place_of_worship", "building": "yes", "name": "MASJIDHUL_FALAH", "religion": "muslim"}}, {"type": "way", "id": 1153275683, "center": {"lat": 8.1296014, "lon": 80.1915867}, "nodes": [10726024253, 10726024252, 10726024251, 10726024250, 10726024249, 10726024248, 10726024247, 10726024253], "tags": {"amenity": "place_of_worship", "religion": "buddhist"}}, {"type": "way", "id": 1193122037, "center": {"lat": 8.0362506, "lon": 79.8377218}, "nodes": [11074956626, 11074956625, 11074956624, 11074956623, 11074956626], "tags": {"amenity": "place_of_worship", "building": "yes", "name": "NOORMASJIDH_MOSQUE", "religion": "muslim"}}, {"type": "way", "id": 1200607205, "center": {"lat": 7.7854283, "lon": 80.2652642}, "nodes": [11132172585, 11132172586, 11132172587, 11132172591, 11132172589, 11132172590, 11132172588, 11132172585], "tags": {"amenity": "place_of_worship", "denomination": "sinhala", "religion": "buddhist"}}, {"type": "way", "id": 1214719429, "center": {"lat": 7.558818, "lon": 80.2968637}, "nodes": [11254472378, 11254472379, 11254472380, 11254472383, 11254472386, 11254472388, 11254472389, 11254472390, 11254472378], "tags": {"amenity": "place_of_worship", "building": "yes", "name": "Temple", "religion": "buddhist"}}, {"type": "way", "id": 1320953469, "center": {"lat": 7.5914006, "lon": 79.9495921}, "nodes": [12224056980, 12224056981, 12224056982, 12224056983, 12224056980], "tags": {"amenity": "place_of_worship", "building": "yes", "religion": "buddhist"}}, {"type": "way", "id": 1454912174, "center": {"lat": 7.9127484, "lon": 79.9873275}, "nodes": [13342576144, 13342576145, 13342576146, 13342576147, 13342576144], "tags": {"amenity": "place_of_worship", "building": "yes"}}, {"type": "way", "id": 1455348326, "center": {"lat": 7.9451254, "lon": 80.0919809}, "nodes": [13346998869, 13346998870, 13346998871, 13346998872, 13346998873, 13346998874, 13346998875, 13346998876, 13346998877, 13346998878, 13346998879, 13346998880, 13346998881, 13346998882, 13346998869], "tags": {"amenity": "place_of_worship", "building": "yes", "religion": "buddhist"}}, {"type": "way", "id": 1457750557, "center": {"lat": 7.628796, "lon": 79.8220509}, "nodes": [13369340248, 13369340247, 13369340246, 13369340245, 13369340248], "tags": {"amenity": "place_of_worship", "building": "yes", "denomination": "catholic", "name": "St. Sebastian's Church", "religion": "christian"}}, {"type": "way", "id": 1458088311, "center": {"lat": 7.6054372, "lon": 79.8349831}, "nodes": [13372121382, 13372121381, 13372121380, 13372121379, 13372121382], "tags": {"amenity": "place_of_worship", "religion": "buddhist"}}, {"type": "way", "id": 1459853554, "center": {"lat": 7.6079768, "lon": 79.8514278}, "nodes": [13388992578, 13388992577, 13388992576, 13388992575, 13388992574, 13388992573, 13388992572, 13388992571, 13388992578], "tags": {"amenity": "place_of_worship", "religion": "buddhist"}}, {"type": "way", "id": 1460089783, "center": {"lat": 7.5859336, "lon": 79.8820155}, "nodes": [13391125098, 13391125099, 13391125100, 13391125101, 13391125098], "tags": {"amenity": "place_of_worship", "building": "yes"}}, {"type": "way", "id": 1460089786, "center": {"lat": 7.5834219, "lon": 79.8817777}, "nodes": [13391125110, 13391125111, 13391125112, 13391125113, 13391125110], "tags": {"amenity": "place_of_worship", "building": "yes"}}, {"type": "way", "id": 1460130382, "center": {"lat": 7.6362052, "lon": 79.8725146}, "nodes": [13391457710, 13391457711, 13391457712, 13391457713, 13391457710], "tags": {"amenity": "place_of_worship", "building": "yes"}}, {"type": "way", "id": 1461328199, "center": {"lat": 7.57933, "lon": 79.8402929}, "nodes": [13401897314, 13401897315, 13401897316, 13401897317, 13401897314], "tags": {"amenity": "place_of_worship", "building": "yes"}}, {"type": "way", "id": 1461346049, "center": {"lat": 7.5612194, "lon": 79.8250264}, "nodes": [13402064127, 13402064128, 13402064129, 13402064130, 13402064127], "tags": {"amenity": "place_of_worship", "building": "yes", "man_made": "stupa", "religion": "buddhist"}}, {"type": "way", "id": 1461657926, "center": {"lat": 7.7078476, "lon": 79.8520938}, "nodes": [13406627032, 13406627033, 13406627034, 13406627035, 13406627032], "tags": {"amenity": "place_of_worship", "building": "yes"}}, {"type": "way", "id": 1461819304, "center": {"lat": 7.6916847, "lon": 79.8726365}, "nodes": [13408527109, 13408527110, 13408527111, 13408527112, 13408527109], "tags": {"amenity": "place_of_worship", "building": "yes"}}, {"type": "way", "id": 1463917965, "center": {"lat": 7.5633958, "lon": 79.8734306}, "nodes": [13428551406, 13428551404, 13428551403, 13428551402, 13428551401, 13428551405, 13428516500, 13428516499, 13428516498, 13428516497, 13428516496, 13428551407, 13428516495, 13428516494, 13428516493, 13428516492, 13428551406], "tags": {"amenity": "place_of_worship", "man_made": "stupa", "religion": "buddhist"}}, {"type": "way", "id": 1469438441, "center": {"lat": 7.5564035, "lon": 80.279877}, "nodes": [13476133983, 13476133982, 13476133981, 13476133980, 13476133979, 13476133978, 13476133977, 13476133976, 13476133975, 13476133974, 13476133983], "tags": {"amenity": "place_of_worship", "name": "Bogoda Tempita Viharaya", "religion": "buddhist"}}, {"type": "relation", "id": 7858235, "center": {"lat": 7.6653317, "lon": 80.2776085}, "members": [{"type": "way", "ref": 550198547, "role": "outer"}, {"type": "way", "ref": 550198548, "role": "outer"}], "tags": {"amenity": "place_of_worship", "name": "Galebandara Dewalaya", "religion": "buddhist", "type": "multipolygon"}}, {"type": "relation", "id": 7858236, "center": {"lat": 7.6653303, "lon": 80.2771855}, "members": [{"type": "way", "ref": 550198547, "role": "outer"}, {"type": "way", "ref": 550198553, "role": "outer"}], "tags": {"addr:street": "Natiya Malagane Road", "alt_name": "Walagamba Rajamaha Viharaya", "amenity": "place_of_worship", "description": "Gale bandara dewalaya", "name": "Malagane Rajamaha Viharaya", "phone": "+94771117988", "religion": "buddhist", "type": "multipolygon"}}, {"type": "relation", "id": 7903811, "center": {"lat": 8.1627943, "lon": 80.0232699}, "members": [{"type": "way", "ref": 553221606, "role": "outer"}, {"type": "way", "ref": 553221604, "role": "inner"}], "tags": {"amenity": "place_of_worship", "name": "Weheragala Rajamaha Viharaya", "religion": "buddhist", "type": "multipolygon"}}]}