{"version": 0.6, "generator": "Overpass API 0.7.62.11 87bfad18", "osm3s": {"timestamp_osm_base": "2026-05-16T05:37:39Z", "copyright": "The data included in this document is from www.openstreetmap.org. The data is made available under ODbL."}, "elements": [{"type": "node", "id": 3064838339, "lat": 7.5714142, "lon": 80.2487731, "tags": {"amenity": "bank", "name": "Rural Bank"}}, {"type": "node", "id": 3693072134, "lat": 7.9780866, "lon": 79.8333202, "tags": {"addr:city": "Palavi", "amenity": "bank", "brand": "BOC", "brand:wikidata": "Q790068", "name": "BOC", "official_name": "Bank of China"}}, {"type": "node", "id": 3779139075, "lat": 7.8800096, "lon": 80.0118462, "tags": {"addr:city": "Anamaduwa", "addr:housenumber": "69", "addr:street": "Galgamuwa road", "amenity": "bank", "atm": "yes", "name": "Sampath Bank - Anamaduwa", "opening_hours": "08:30-15:00", "operator": "Sampath Bank - Anamaduwa", "phone": "+94 32 2263 042/3"}}, {"type": "node", "id": 4089568089, "lat": 8.1522638, "lon": 80.2955122, "tags": {"amenity": "bank", "name": "People's Bank"}}, {"type": "node", "id": 4089568099, "lat": 8.1515416, "lon": 80.2933089, "tags": {"amenity": "bank", "name": "Bank of Cylon"}}, {"type": "node", "id": 4359581378, "lat": 7.8798958, "lon": 80.0121648, "tags": {"amenity": "bank", "name": "Bank of Ceylon"}}, {"type": "node", "id": 4359585874, "lat": 7.8788124, "lon": 80.0113779, "tags": {"amenity": "bank", "name": "RDB BANK"}}, {"type": "node", "id": 4361027194, "lat": 7.8764906, "lon": 80.0116752, "tags": {"amenity": "bank", "name": "People's Bank"}}, {"type": "node", "id": 4682160933, "lat": 7.9100236, "lon": 79.8234953, "tags": {"amenity": "bank", "name": "BOC"}}, {"type": "node", "id": 5210394615, "lat": 8.1972865, "lon": 80.0962988, "tags": {"amenity": "bank", "name": "Bank of Ceylon Saliyawewa"}}, {"type": "node", "id": 5210395392, "lat": 8.1955303, "lon": 80.0945708, "tags": {"amenity": "bank", "name": "Peoples Bank - Saliyawewa"}}, {"type": "node", "id": 5321775721, "lat": 8.0268485, "lon": 79.8385588, "tags": {"addr:housenumber": "116/A", "addr:street": "Katugastota-Kurunegala-Puttalam Road", "amenity": "bank", "branch": "Puttlam Branch", "brand": "Commercial Bank of Ceylon", "brand:wikidata": "Q5152468", "check_date": "2022-12-09", "name": "Commercial Bank of Ceylon", "opening_hours": "Mo-Fr 09:00-15:00"}}, {"type": "node", "id": 5466902051, "lat": 8.162938, "lon": 80.2181688, "tags": {"amenity": "bank", "brand": "Bank of Ceylon", "brand:wikidata": "Q2882652", "name": "Bank of Ceylon"}}, {"type": "node", "id": 5519611608, "lat": 7.8240575, "lon": 80.2730563, "tags": {"amenity": "bank", "brand": "NSB", "brand:wikidata": "Q12500189", "name": "NSB"}}, {"type": "node", "id": 5519611616, "lat": 7.9971994, "lon": 80.271352, "tags": {"amenity": "bank", "name": "People's Bank"}}, {"type": "node", "id": 5519611911, "lat": 7.9179696, "lon": 80.2401158, "tags": {"amenity": "bank", "name": "Bank of Ceylon"}}, {"type": "node", "id": 5664007713, "lat": 7.7437151, "lon": 79.9863146, "tags": {"amenity": "bank", "atm": "yes", "name": "Bank of Ceylon"}}, {"type": "node", "id": 5664037459, "lat": 7.7762746, "lon": 79.9486812, "tags": {"amenity": "bank", "atm": "yes", "name": "Cooperative rural bank"}}, {"type": "node", "id": 6159506914, "lat": 7.7764945, "lon": 80.0142351, "tags": {"amenity": "bank", "name": "People's Bank"}}, {"type": "node", "id": 7837079923, "lat": 7.7482431, "lon": 80.1181947, "tags": {"addr:city": "Nikaweratiya", "addr:street": "Rest House Road", "amenity": "bank", "name": "People's Bank"}}, {"type": "node", "id": 7881391272, "lat": 7.7454115, "lon": 80.1183664, "tags": {"addr:city": "Nikaweratiya", "addr:housenumber": "136", "addr:street": "Katugastota-Kurunegala-Puttalam Road", "amenity": "bank", "brand": "Sampath Bank", "brand:wikidata": "Q7410095", "brand:wikipedia": "en:Sampath Bank", "name": "Sampath Bank"}}, {"type": "node", "id": 7977731763, "lat": 7.7475637, "lon": 80.1166231, "tags": {"addr:city": "Nikaweratiya", "addr:street": "Katugastota-Kurunegala-Puttalam Road", "amenity": "bank", "brand": "NSB", "brand:wikidata": "Q12500189", "brand:wikipedia": "en:National Savings Bank (Sri Lanka)", "name": "NSB"}}, {"type": "node", "id": 9127639064, "lat": 8.1527955, "lon": 80.2957401, "tags": {"addr:city": "Tambuttegama", "addr:street": "Anuradhapura - Padeniya Road", "amenity": "bank", "brand": "NSB", "brand:wikidata": "Q12500189", "brand:wikipedia": "en:National Savings Bank (Sri Lanka)", "name": "NSB"}}, {"type": "node", "id": 9399149901, "lat": 7.9972723, "lon": 80.2710009, "tags": {"amenity": "bank", "brand": "Bank of Ceylon", "brand:wikidata": "Q2882652", "brand:wikipedia": "en:Bank of Ceylon", "name": "Bank of Ceylon"}}, {"type": "node", "id": 9399149902, "lat": 7.9974844, "lon": 80.2713596, "tags": {"amenity": "bank", "name": "Regional Development Bank"}}, {"type": "node", "id": 9399192552, "lat": 7.9938237, "lon": 80.269621, "tags": {"amenity": "bank", "name": "National Savings Bank"}}, {"type": "node", "id": 9399258037, "lat": 8.002485, "lon": 80.2712006, "tags": {"amenity": "bank", "name": "Bimputh Finance PLC"}}, {"type": "node", "id": 9399258038, "lat": 8.0022933, "lon": 80.2712041, "tags": {"amenity": "bank", "name": "Hatton National Bank"}}, {"type": "node", "id": 9400843381, "lat": 7.9190696, "lon": 80.2394644, "tags": {"amenity": "bank", "name": "Regional Development Bank"}}, {"type": "node", "id": 9400843399, "lat": 7.9201177, "lon": 80.2395571, "tags": {"amenity": "bank", "name": "Sanasa Bank"}}, {"type": "node", "id": 10246967638, "lat": 8.0278032, "lon": 79.8304975, "tags": {"amenity": "atm", "brand": "Hatton National Bank", "brand:wikidata": "Q3532080", "check_date": "2022-12-08", "name": "HNB", "operator": "Hatton National Bank", "operator:wikidata": "Q3532080"}}, {"type": "node", "id": 10246967642, "lat": 8.0294557, "lon": 79.831615, "tags": {"amenity": "bank", "check_date": "2022-12-08"}}, {"type": "node", "id": 10246967644, "lat": 8.0289112, "lon": 79.8324947, "tags": {"amenity": "bank", "brand": "NSB", "brand:wikidata": "Q12500189", "check_date": "2022-12-08", "name": "NSB"}}, {"type": "node", "id": 10246967645, "lat": 8.0292562, "lon": 79.8330098, "tags": {"amenity": "bank", "brand": "BOC", "brand:wikidata": "Q790068", "check_date": "2022-12-08", "name": "BOC", "official_name": "Bank of China"}}, {"type": "node", "id": 10247906259, "lat": 8.027526, "lon": 79.8368997, "tags": {"amenity": "bank", "atm": "yes", "brand": "Sampath Bank", "brand:wikidata": "Q7410095", "check_date": "2022-12-09", "name": "Sampath Bank"}}, {"type": "node", "id": 11132562694, "lat": 7.8238323, "lon": 80.2738286, "tags": {"amenity": "bank", "atm": "yes", "branch": "Mahawa Branch", "brand": "BOC", "brand:wikidata": "Q790068", "drive_through": "no", "name": "BOC", "official_name": "Bank of China"}}, {"type": "node", "id": 11132562695, "lat": 7.8238397, "lon": 80.2738586, "tags": {"amenity": "atm", "branch": "Maho", "brand": "BOC", "cash_in": "yes", "currency:LKR": "yes", "drive_through": "no", "network": "BOC", "not:brand:wikidata": "Q790068"}}, {"type": "node", "id": 11132562696, "lat": 7.8226993, "lon": 80.2735512, "tags": {"amenity": "bank", "atm": "yes", "drive_through": "no", "name": "People's Bank Mahawa", "operator": "People's Bank"}}, {"type": "node", "id": 11473300842, "lat": 8.1973325, "lon": 80.0963174, "tags": {"amenity": "atm", "name": "Boc"}}, {"type": "way", "id": 247186399, "center": {"lat": 7.9190611, "lon": 80.2394297}, "nodes": [2541184718, 2541184720, 2541184723, 2541184725, 2541184718], "tags": {"amenity": "bank", "building": "yes"}}, {"type": "way", "id": 247187258, "center": {"lat": 7.9201307, "lon": 80.2395949}, "nodes": [2541189901, 2541189902, 2541189903, 2541189904, 2541189901], "tags": {"amenity": "bank", "building": "yes"}}, {"type": "way", "id": 260108742, "center": {"lat": 7.9972081, "lon": 80.2713486}, "nodes": [2655963715, 2655963716, 2655963717, 2655963718, 2655963715], "tags": {"amenity": "bank", "building": "yes"}}, {"type": "way", "id": 495874417, "center": {"lat": 7.6207851, "lon": 80.2451911}, "nodes": [4876021727, 4876021726, 4876021725, 4876021724, 4876021727], "tags": {"addr:city": "Wariyapola", "addr:postcode": "60400", "addr:street": "Puttalam Road", "amenity": "bank", "atm": "yes", "building": "yes", "drive_through": "no", "name": "NDB Bank"}}, {"type": "way", "id": 495874420, "center": {"lat": 7.6199933, "lon": 80.244223}, "nodes": [4876021739, 4876021738, 4876021737, 4876021736, 4876021739], "tags": {"addr:city": "Wariyapola", "addr:postcode": "60400", "addr:street": "Chilaw Road", "amenity": "bank", "atm": "yes", "building": "yes", "drive_through": "no", "name": "People's Bank", "name:si": "\u0db8\u0dc4\u0da2\u0db1 \u0db6\u0dd0\u0d82\u0d9a\u0dd4\u0dc0"}}, {"type": "way", "id": 592629908, "center": {"lat": 7.6526629, "lon": 79.9888278}, "nodes": [5655696748, 5655696747, 5655696746, 5655696745, 5655696741, 5655696748], "tags": {"amenity": "bank", "building": "yes", "name": "People's Bank"}}, {"type": "way", "id": 593126599, "center": {"lat": 7.6506878, "lon": 79.9889633}, "nodes": [5659163411, 5659163412, 5659163413, 5659163414, 5659163411], "tags": {"amenity": "bank", "building": "yes", "name": "Samurdhi Bank"}}, {"type": "way", "id": 596617295, "center": {"lat": 7.5983898, "lon": 79.9400881}, "nodes": [5682918156, 5682918153, 5682918154, 5682918155, 5682918156], "tags": {"addr:city": "Bingiriya", "addr:street": "Chilaw-Wariyapola Road", "amenity": "bank", "building": "yes", "name": "People's Bank - Bingiriya"}}, {"type": "way", "id": 596617381, "center": {"lat": 7.5980602, "lon": 79.9396374}, "nodes": [5682918392, 5682918389, 5682918390, 5682918391, 5682918392], "tags": {"addr:city": "Bingiriya", "addr:street": "Chilaw-Wariyapola Road", "amenity": "bank", "building": "yes", "name": "Co-operative Rural Bank"}}, {"type": "way", "id": 597028312, "center": {"lat": 7.5980325, "lon": 79.9357605}, "nodes": [5685712736, 5685712737, 5685712738, 5685712739, 5685712736], "tags": {"addr:city": "Bingiriya", "addr:street": "Chilaw-Wariyapola Road", "amenity": "bank", "brand": "Bank of Ceylon", "brand:wikidata": "Q2882652", "brand:wikipedia": "en:Bank of Ceylon", "building": "yes", "name": "Bank of Ceylon"}}, {"type": "way", "id": 612268703, "center": {"lat": 7.6195718, "lon": 80.2433357}, "nodes": [5795853881, 5795853882, 5795853883, 5795853884, 5795853881], "tags": {"amenity": "bank", "atm": "yes", "brand": "NSB", "brand:wikidata": "Q12500189", "building": "yes", "drive_through": "no", "name": "NSB"}}, {"type": "way", "id": 612372248, "center": {"lat": 7.6193641, "lon": 80.2459769}, "nodes": [5796769793, 5796769794, 5796769795, 5796769796, 5796769793], "tags": {"addr:city": "Wariyapola", "addr:postcode": "60400", "addr:street": "Kalugamuwa Road", "air_conditioning": "yes", "amenity": "bank", "atm": "yes", "brand": "Sampath Bank", "brand:wikidata": "Q7410095", "brand:wikipedia": "en:Sampath Bank", "building": "yes", "drive_through": "no", "name": "Sampath Bank", "name:si": "\u0dc3\u0db8\u0dca\u0db4\u0dad\u0dca \u0db6\u0dd0\u0d82\u0d9a\u0dd4\u0dc0"}}, {"type": "way", "id": 720143523, "center": {"lat": 7.6196275, "lon": 80.2457548}, "nodes": [6758927711, 6758927715, 6758927716, 6758927714, 6758927711], "tags": {"addr:city": "Wariyapola", "addr:postcode": "60400", "addr:street": "Chilaw Road", "amenity": "bank", "atm": "yes", "brand": "Bank of Ceylon", "brand:wikidata": "Q2882652", "brand:wikipedia": "en:Bank of Ceylon", "building": "yes", "drive_through": "no", "name": "Bank of Ceylon", "name:si": "\u0dbd\u0d82\u0d9a\u0dcf \u0db6\u0dd0\u0d82\u0d9a\u0dd4\u0dc0"}}, {"type": "way", "id": 750370723, "center": {"lat": 8.1929223, "lon": 80.0942237}, "nodes": [7016311941, 7016311940, 7016311939, 7016311938, 7016311941], "tags": {"amenity": "bank", "building": "yes", "name": "Samurdhi Bank"}}, {"type": "way", "id": 758022567, "center": {"lat": 7.9972193, "lon": 80.2709998}, "nodes": [7079088297, 7079088299, 7079088400, 7079088403, 7079088402, 7079088401, 7079088298, 7079088296, 7079088398, 7079088397, 7079088396, 7079088399, 7079088297], "tags": {"amenity": "bank", "building": "yes"}}, {"type": "way", "id": 758031088, "center": {"lat": 7.9938058, "lon": 80.2696806}, "nodes": [7079159083, 7079159082, 7079159081, 7079159080, 7079159083], "tags": {"amenity": "bank", "building": "yes"}}, {"type": "way", "id": 758034300, "center": {"lat": 8.0025043, "lon": 80.2711977}, "nodes": [7079189064, 7079189063, 7079189062, 7079189061, 7079189064], "tags": {"amenity": "bank", "building": "yes"}}, {"type": "way", "id": 758034303, "center": {"lat": 8.0023121, "lon": 80.2712011}, "nodes": [7079189076, 7079189075, 7079189074, 7079189073, 7079189076], "tags": {"amenity": "bank", "building": "yes"}}, {"type": "way", "id": 837908252, "center": {"lat": 7.746486, "lon": 80.1185069}, "nodes": [7820558777, 7820558778, 7820558779, 7820558780, 7820558777], "tags": {"addr:city": "Nikaweratiya", "addr:street": "Katugastota-Kurunegala-Puttalam Road", "amenity": "bank", "branch": "Nikaweratiya", "brand": "Bank of Ceylon", "brand:wikidata": "Q2882652", "building": "yes", "name": "Bank of Ceylon"}}, {"type": "way", "id": 893887596, "center": {"lat": 7.9974662, "lon": 80.2713908}, "nodes": [8308143492, 8308143493, 8308143494, 8308143495, 8308143496, 8308143497, 8308143492], "tags": {"amenity": "bank", "building": "yes"}}]}