{"version": 0.6, "generator": "Overpass API 0.7.62.11 87bfad18", "osm3s": {"timestamp_osm_base": "2026-05-16T05:01:39Z", "copyright": "The data included in this document is from www.openstreetmap.org. The data is made available under ODbL."}, "elements": [{"type": "node", "id": 84048507, "lat": 6.0411635, "lon": 80.2193468, "tags": {"amenity": "place_of_worship", "created_by": "JOSM", "name": "Tuwakugala Temple", "religion": "buddhist"}}, {"type": "node", "id": 84048508, "lat": 6.0394153, "lon": 80.2206156, "tags": {"amenity": "place_of_worship", "name": "Wijayananda Temple", "religion": "buddhist"}}, {"type": "node", "id": 84048511, "lat": 6.044276, "lon": 80.2204785, "tags": {"amenity": "place_of_worship", "created_by": "JOSM", "religion": "muslim"}}, {"type": "node", "id": 98714191, "lat": 6.453433, "lon": 80.6104762, "tags": {"amenity": "place_of_worship", "name": "Sinharaja Prantha Aranya Senasanaya", "religion": "buddhist"}}, {"type": "node", "id": 102732081, "lat": 6.0618512, "lon": 80.1936045, "tags": {"amenity": "place_of_worship", "religion": "buddhist"}}, {"type": "node", "id": 165986759, "lat": 6.0391918, "lon": 80.2189176, "tags": {"amenity": "place_of_worship", "created_by": "Potlatch 0.5d", "religion": "buddhist"}}, {"type": "node", "id": 165988404, "lat": 6.0420512, "lon": 80.2100255, "tags": {"amenity": "place_of_worship", "created_by": "Potlatch 0.5d", "name": "Galwadugoda Temple", "religion": "buddhist"}}, {"type": "node", "id": 248607673, "lat": 6.0336472, "lon": 80.2183437, "tags": {"amenity": "place_of_worship", "religion": "buddhist"}}, {"type": "node", "id": 253606105, "lat": 6.0548541, "lon": 80.2214569, "tags": {"amenity": "place_of_worship", "created_by": "xybot", "name": "Didiswatta", "religion": "buddhist"}}, {"type": "node", "id": 255477007, "lat": 6.0578728, "lon": 80.2083534, "tags": {"amenity": "place_of_worship", "created_by": "JOSM", "religion": "buddhist"}}, {"type": "node", "id": 255477008, "lat": 6.0578826, "lon": 80.2154199, "tags": {"amenity": "place_of_worship", "name": "Sri Sadhatissaramaya", "religion": "buddhist"}}, {"type": "node", "id": 310167231, "lat": 6.0602475, "lon": 80.2059459, "tags": {"amenity": "place_of_worship", "denomination": "catholic", "name": "St. Francois Xavier Church", "religion": "christian"}}, {"type": "node", "id": 652615712, "lat": 6.0500595, "lon": 80.2298394, "tags": {"addr:city": "Galle", "addr:street": "Sri Jinenendrarama Mawatha", "amenity": "place_of_worship", "name": "Sri Jinendraramaya", "religion": "buddhist"}}, {"type": "node", "id": 1242477441, "lat": 6.0403011, "lon": 80.2445105, "tags": {"amenity": "place_of_worship", "religion": "buddhist", "source": "Bing"}}, {"type": "node", "id": 1529246232, "lat": 6.0405133, "lon": 80.215669, "tags": {"amenity": "place_of_worship", "religion": "buddhist"}}, {"type": "node", "id": 1650266439, "lat": 5.9424116, "lon": 80.5145768, "tags": {"amenity": "place_of_worship", "name": "Sri Bodhirukkharamaya", "religion": "buddhist"}}, {"type": "node", "id": 1650277118, "lat": 5.953803, "lon": 80.5189863, "tags": {"amenity": "place_of_worship", "name": "Kotikagoda Rajamaha Viharaya", "religion": "buddhist"}}, {"type": "node", "id": 1650280186, "lat": 5.952992, "lon": 80.5320648, "tags": {"amenity": "place_of_worship", "religion": "buddhist"}}, {"type": "node", "id": 1650280188, "lat": 5.9577139, "lon": 80.5303911, "tags": {"amenity": "place_of_worship", "name": "Hiththatiya Raja Maha Viharaya", "religion": "buddhist"}}, {"type": "node", "id": 1650284128, "lat": 5.955813, "lon": 80.5530057, "tags": {"amenity": "place_of_worship", "name": "Sirimangala Piriwena", "religion": "buddhist"}}, {"type": "node", "id": 1671541848, "lat": 6.0132659, "lon": 80.5643642, "tags": {"amenity": "place_of_worship", "name": "Mahindagiri Wiharaya", "religion": "buddhist"}}, {"type": "node", "id": 1671655609, "lat": 5.9887061, "lon": 80.6148751, "tags": {"amenity": "place_of_worship", "religion": "buddhist"}}, {"type": "node", "id": 1722599665, "lat": 6.3126021, "lon": 80.1624065, "tags": {"amenity": "place_of_worship", "name": "Ganegoda Raja Maha Viharaya", "name:si": "\u0d9c\u0db1\u0dda\u0d9c\u0ddc\u0da9 \u0dbb\u0da2\u0db8\u0dc4\u0dcf \u0dc0\u0dd2\u0dc4\u0dcf\u0dbb\u0dba", "religion": "buddhist"}}, {"type": "node", "id": 1745481395, "lat": 5.9322707, "lon": 80.589975, "tags": {"amenity": "place_of_worship", "denomination": "theravada", "is_in": "Matara District, Southern Province, Sri Lanka.", "name": "Galgane Viharaya", "religion": "buddhist"}}, {"type": "node", "id": 1763161420, "lat": 6.0060945, "lon": 80.2433908, "tags": {"amenity": "place_of_worship", "name": "Welle Devalaya Temple", "religion": "buddhist"}}, {"type": "node", "id": 1788449981, "lat": 6.3207732, "lon": 80.1355871, "tags": {"amenity": "place_of_worship", "religion": "buddhist"}}, {"type": "node", "id": 1789586174, "lat": 6.3385105, "lon": 80.2232698, "tags": {"amenity": "place_of_worship", "name": "Indipalegoda Sri Visuddharamaya", "religion": "buddhist"}}, {"type": "node", "id": 1792917072, "lat": 6.2220382, "lon": 80.2131676, "tags": {"amenity": "place_of_worship", "name": "Parama Visuddharamaya ", "religion": "buddhist"}}, {"type": "node", "id": 1812140638, "lat": 5.9458089, "lon": 80.5633095, "tags": {"amenity": "place_of_worship", "name": "Sri Wajiraghnana Dhrmawijaya Dharmayathanaya", "religion": "buddhist"}}, {"type": "node", "id": 1812231533, "lat": 5.9647628, "lon": 80.6083291, "tags": {"amenity": "place_of_worship", "religion": "buddhist"}}, {"type": "node", "id": 1812231567, "lat": 6.0225312, "lon": 80.6047939, "tags": {"amenity": "place_of_worship", "name": "Jayawardhanaramaya", "religion": "buddhist"}}, {"type": "node", "id": 1812231613, "lat": 6.017095, "lon": 80.6026213, "tags": {"amenity": "place_of_worship", "name": "Thumbodhi Viharaya", "religion": "buddhist"}}, {"type": "node", "id": 1813425971, "lat": 5.9539212, "lon": 80.5544247, "tags": {"amenity": "place_of_worship", "religion": "buddhist"}}, {"type": "node", "id": 1813426234, "lat": 5.9557327, "lon": 80.5483036, "tags": {"amenity": "place_of_worship", "name": "Kitulwana Temple", "religion": "buddhist"}}, {"type": "node", "id": 1818503721, "lat": 6.1121806, "lon": 81.0184925, "tags": {"amenity": "place_of_worship", "name": "Theraputta Raja Maha Viharaya", "religion": "buddhist"}}, {"type": "node", "id": 1818503804, "lat": 6.1230636, "lon": 81.0201536, "tags": {"amenity": "place_of_worship", "name": "Girihadu Raja Maha Viharaya", "religion": "buddhist"}}, {"type": "node", "id": 1818516224, "lat": 6.12695, "lon": 81.0221296, "tags": {"amenity": "place_of_worship", "name": "Rangiri Viharaya", "religion": "buddhist"}}, {"type": "node", "id": 1818523133, "lat": 6.1095242, "lon": 81.0518055, "tags": {"amenity": "place_of_worship", "name": "Gotha Pabbatha Raja Maha Viharaya", "religion": "buddhist"}}, {"type": "node", "id": 1818609872, "lat": 5.9629914, "lon": 80.661866, "tags": {"amenity": "place_of_worship", "name": "Maliyaddha Purana Viharaya", "religion": "buddhist"}}, {"type": "node", "id": 1841305519, "lat": 6.1353582, "lon": 80.8129094, "tags": {"amenity": "place_of_worship", "denomination": "theravada", "name": "Kasagala Raja Maha Viharaya", "religion": "buddhist"}}, {"type": "node", "id": 1841305525, "lat": 6.1230464, "lon": 80.7363765, "tags": {"addr:city": "Mulkirigala", "addr:street": "Beliatta Road", "amenity": "place_of_worship", "denomination": "theravada", "name": "Mulkirigala Rajamaha Viharaya", "name:en": "Mulkirigala Rock Monastery", "religion": "buddhist"}}, {"type": "node", "id": 1971439195, "lat": 6.0635596, "lon": 80.2095382, "tags": {"amenity": "place_of_worship", "name": "Ananda Pirivena", "religion": "buddhist"}}, {"type": "node", "id": 1980792440, "lat": 6.0573183, "lon": 80.1776951, "tags": {"amenity": "place_of_worship", "name": "Gintota Devol Devalaya", "religion": "buddhist"}}, {"type": "node", "id": 1980792457, "lat": 6.0404825, "lon": 80.2043777, "tags": {"amenity": "place_of_worship", "name": "Kovilagodella Temple", "religion": "buddhist"}}, {"type": "node", "id": 1980792473, "lat": 6.0575797, "lon": 80.1824426, "tags": {"amenity": "place_of_worship", "name": "Thunmahal Maha Viharaya", "religion": "buddhist"}}, {"type": "node", "id": 1980792474, "lat": 6.0469374, "lon": 80.1942282, "tags": {"amenity": "place_of_worship", "name": "Mahamudalindarama Viharaya", "religion": "buddhist"}}, {"type": "node", "id": 1980792511, "lat": 6.0642798, "lon": 80.1805436, "tags": {"amenity": "place_of_worship", "name": "Thuparama Viharaya", "religion": "buddhist"}}, {"type": "node", "id": 2152921682, "lat": 6.1074973, "lon": 80.5798816, "tags": {"amenity": "place_of_worship", "denomination": "theravada", "name": "Horapawita Sri Wijesundara Pirivena", "religion": "buddhist"}}, {"type": "node", "id": 2152922593, "lat": 6.1417243, "lon": 80.6206136, "tags": {"amenity": "place_of_worship", "name": "Dewalegama Viharaya", "religion": "buddhist"}}, {"type": "node", "id": 2152975657, "lat": 6.1248005, "lon": 80.6688558, "tags": {"amenity": "place_of_worship", "name": "Kandebedda Raja Maha Viharaya", "religion": "buddhist"}}, {"type": "node", "id": 2152975805, "lat": 6.2094304, "lon": 80.6921588, "tags": {"amenity": "place_of_worship", "name": "Sri Jananandarama Temple", "religion": "buddhist"}}, {"type": "node", "id": 2154297674, "lat": 6.3415108, "lon": 80.5648397, "tags": {"amenity": "place_of_worship", "name": "Sri Indraramaya", "religion": "buddhist"}}, {"type": "node", "id": 2155827021, "lat": 6.3768154, "lon": 80.3593718, "tags": {"amenity": "place_of_worship", "name": "Dharmapala Viharaya", "religion": "buddhist"}}, {"type": "node", "id": 2155827143, "lat": 6.2908882, "lon": 80.5464781, "tags": {"addr:city": "Kotapola", "addr:street": "Galle - Deniyaya - Madampe Road", "amenity": "place_of_worship", "name": "Getabaru Raja Maha Viharaya", "religion": "buddhist"}}, {"type": "node", "id": 2164965705, "lat": 6.1044596, "lon": 80.4782983, "tags": {"amenity": "place_of_worship", "name": "Jethawana Raja Maha Viharaya", "religion": "buddhist"}}, {"type": "node", "id": 2164965795, "lat": 6.1038436, "lon": 80.4791807, "tags": {"amenity": "place_of_worship", "name": "Sri Sudharshanaramaya", "religion": "buddhist"}}, {"type": "node", "id": 2164965797, "lat": 6.0917832, "lon": 80.4765307, "tags": {"amenity": "place_of_worship", "name": "Sri Gangaramaya", "religion": "buddhist"}}, {"type": "node", "id": 2165146528, "lat": 6.0816883, "lon": 80.5598535, "tags": {"amenity": "place_of_worship", "name": "Sapugoda Temple", "religion": "buddhist"}}, {"type": "node", "id": 2173874762, "lat": 5.9770616, "lon": 80.4211227, "tags": {"amenity": "place_of_worship", "religion": "buddhist"}}, {"type": "node", "id": 2176728269, "lat": 6.3671711, "lon": 80.5937701, "tags": {"amenity": "place_of_worship", "religion": "buddhist"}}, {"type": "node", "id": 2176941129, "lat": 6.3279204, "lon": 80.5213826, "tags": {"amenity": "place_of_worship", "name": "Sri Keththaramaya", "religion": "buddhist"}}, {"type": "node", "id": 2176977986, "lat": 6.3443205, "lon": 80.5586519, "tags": {"amenity": "place_of_worship", "name": "Sri Pushparamaya", "religion": "buddhist"}}, {"type": "node", "id": 2215869482, "lat": 6.0921712, "lon": 80.3067649, "tags": {"amenity": "place_of_worship"}}, {"type": "node", "id": 2380090322, "lat": 5.949639, "lon": 80.4787842, "tags": {"amenity": "place_of_worship", "name": "Nadeetherarama Temple", "religion": "buddhist"}}, {"type": "node", "id": 2380090329, "lat": 5.9405803, "lon": 80.4784923, "tags": {"amenity": "place_of_worship", "name": "Pagoda", "religion": "buddhist"}}, {"type": "node", "id": 2407143063, "lat": 6.0507934, "lon": 80.4590103, "tags": {"amenity": "place_of_worship", "name": "\u0dad\u0dd9\u0db4\u0dd4\u0daf\u0dd9\u0dab\u0dd2\u0dba \u0dc1\u0dca\u200d\u0dbb\u0dd3 \u0db6\u0ddd\u0db0\u0dd2\u0dbb\u0dcf\u0da2 \u0dc0\u0dd2\u0dc4\u0dcf\u0dbb\u0dba", "religion": "buddhist"}}, {"type": "node", "id": 2418523016, "lat": 5.974736, "lon": 80.424607, "tags": {"addr:city": "Wligama", "addr:country": "IN", "addr:postcode": "81700", "addr:street": "Hetti weediya", "amenity": "place_of_worship", "name": "BodhiMalu Viaharaya", "name:en": "BodhiMalu Viaharaya", "name:si": "\u0db6\u0ddd\u0db0\u0dd2\u0db8\u0dbd\u0dd4 \u0dc0\u0dd2\u0dc4\u0dcf\u0dbb\u0dba", "religion": "buddhist"}}, {"type": "node", "id": 2440195258, "lat": 6.0985854, "lon": 80.5283222, "tags": {"amenity": "place_of_worship", "name": "Sri Nimalaramaya", "source": "Nalaka"}}, {"type": "node", "id": 2465273837, "lat": 6.0225059, "lon": 80.2490708, "tags": {"amenity": "place_of_worship", "building": "yes", "name": "Bodhirukkarama Viharaya", "religion": "buddhist"}}, {"type": "node", "id": 2465286909, "lat": 6.0250013, "lon": 80.2610505, "tags": {"amenity": "place_of_worship", "building": "yes", "name": "Yatagala Raja Maha Viharaya", "religion": "buddhist"}}, {"type": "node", "id": 2465307316, "lat": 6.0192228, "lon": 80.2724161, "tags": {"amenity": "place_of_worship", "building": "yes", "name": "Maligakanda Raja Maha Viharaya", "religion": "buddhist"}}, {"type": "node", "id": 2465309901, "lat": 6.0190415, "lon": 80.2681996, "tags": {"amenity": "place_of_worship", "building": "yes", "name": "Polduwa Sri Sunandaramaya", "religion": "buddhist"}}, {"type": "node", "id": 2465351012, "lat": 6.0111834, "lon": 80.287672, "tags": {"amenity": "place_of_worship", "building": "yes", "name": "Sri Dhammaramaya", "religion": "buddhist"}}, {"type": "node", "id": 2643423774, "lat": 6.0492835, "lon": 80.2529938, "tags": {"amenity": "place_of_worship", "name": "Sri Sudarshanaramaya", "religion": "buddhist"}}, {"type": "node", "id": 2643487664, "lat": 5.9691867, "lon": 80.3700002, "tags": {"amenity": "place_of_worship", "name": "Ahangama Kande Viharaya", "religion": "buddhist"}}, {"type": "node", "id": 2643547346, "lat": 5.9621048, "lon": 80.419816, "tags": {"amenity": "place_of_worship", "name": "Siri Kettaramaya", "religion": "buddhist"}}, {"type": "node", "id": 2670694029, "lat": 6.0586112, "lon": 80.7973223, "tags": {"amenity": "place_of_worship", "religion": "buddhist"}}, {"type": "node", "id": 2800340118, "lat": 5.9647258, "lon": 80.5025116, "tags": {"amenity": "place_of_worship", "name": "Kemaramaya", "religion": "buddhist"}}, {"type": "node", "id": 2827497996, "lat": 6.0153306, "lon": 80.2399952, "tags": {"amenity": "place_of_worship", "name": "Rumassala Sri Viwekarama Vihara", "religion": "buddhist"}}, {"type": "node", "id": 2900304208, "lat": 5.9544281, "lon": 80.5191348, "tags": {"amenity": "place_of_worship", "name": "Bo Tree", "religion": "buddhist"}}, {"type": "node", "id": 2902179225, "lat": 5.9408753, "lon": 80.5096022, "tags": {"addr:city": "Matara", "addr:street": "Galle Road", "amenity": "place_of_worship", "name": "Wiratungaramaya", "religion": "buddhist"}}, {"type": "node", "id": 2902181680, "lat": 6.1484979, "lon": 80.1397678, "tags": {"addr:city": "Gonapinuwala", "amenity": "place_of_worship", "name": "Neegrodharama Viharaya", "religion": "buddhist"}}, {"type": "node", "id": 2902424541, "lat": 6.1444261, "lon": 80.5493114, "tags": {"addr:city": "Makadura", "addr:street": "Akuressa-Makandura Road", "amenity": "place_of_worship", "name": "Suvisuddaramaya- Makandura", "religion": "buddhist"}}, {"type": "node", "id": 2906651462, "lat": 6.175602, "lon": 80.1738647, "tags": {"addr:city": "Baddegama", "amenity": "place_of_worship", "name": "Sri Sudharmaramaya", "religion": "hindu"}}, {"type": "node", "id": 2907470908, "lat": 6.1637473, "lon": 80.1797268, "tags": {"addr:city": "Baddegama", "amenity": "place_of_worship", "name": "Gothatuwa Temple", "religion": "buddhist"}}, {"type": "node", "id": 2910274706, "lat": 6.0192213, "lon": 80.4900853, "tags": {"amenity": "place_of_worship", "name": "Samarasingharamaya Temple", "religion": "buddhist"}}, {"type": "node", "id": 2910623496, "lat": 5.9397777, "lon": 80.5122473, "tags": {"amenity": "place_of_worship", "religion": "buddhist"}}, {"type": "node", "id": 2913710046, "lat": 6.1708973, "lon": 80.1622835, "tags": {"amenity": "place_of_worship", "name": "New city Budu Madhura", "religion": "buddhist"}}, {"type": "node", "id": 2913715244, "lat": 6.169188, "lon": 80.1617417, "tags": {"amenity": "place_of_worship", "religion": "christian"}}, {"type": "node", "id": 2920675902, "lat": 6.1476114, "lon": 80.7641959, "tags": {"amenity": "place_of_worship", "name": "Weeraketiya Temple", "religion": "buddhist"}}, {"type": "node", "id": 2921350120, "lat": 6.1545756, "lon": 80.1861857, "tags": {"addr:city": "Baddegama", "amenity": "place_of_worship", "designation": "Temple", "name": "Dutugemunu Raja Maha Viharaya", "name:si": "\u0daf\u0dd4\u0da7\u0dd4\u0d9c\u0dd0\u0db8\u0dd4\u0dab\u0dd4 \u0dbb\u0da2\u0db8\u0dc4\u0dcf \u0dc0\u0dd2\u0dc4\u0dcf\u0dbb\u0dba", "religion": "buddhist"}}, {"type": "node", "id": 2921358199, "lat": 6.1606611, "lon": 80.1734666, "tags": {"addr:city": "Baddegama", "amenity": "place_of_worship", "name": "Sripada Godalla Temple", "religion": "buddhist"}}, {"type": "node", "id": 2990556220, "lat": 6.0794439, "lon": 80.2844478, "tags": {"addr:street": "Hiyare Junction", "amenity": "place_of_worship", "name": "Neegrodharamaya", "religion": "buddhist"}}, {"type": "node", "id": 3053064341, "lat": 5.974228, "lon": 80.3710199, "tags": {"amenity": "place_of_worship", "name": "Maha Viharaya Ahangama", "religion": "buddhist"}}, {"type": "node", "id": 3053064429, "lat": 5.9815505, "lon": 80.3714389, "tags": {"addr:city": "Ahangama", "amenity": "place_of_worship", "name": "Vidyachandra Pirivena", "religion": "buddhist"}}, {"type": "node", "id": 3053064475, "lat": 5.9728882, "lon": 80.3794573, "tags": {"amenity": "place_of_worship", "religion": "buddhist"}}, {"type": "node", "id": 3053113859, "lat": 5.9685661, "lon": 80.387637, "tags": {"amenity": "place_of_worship", "name": "Midigama Temple", "religion": "buddhist"}}, {"type": "node", "id": 3053113951, "lat": 5.9658323, "lon": 80.3883819, "tags": {"addr:city": "Midigama", "amenity": "place_of_worship", "denomination": "theravada", "religion": "buddhist"}}, {"type": "node", "id": 3054767000, "lat": 6.002355, "lon": 80.3093736, "tags": {"addr:city": "Habaraduwa", "amenity": "place_of_worship", "name": "Chethiya Aramaya", "religion": "buddhist"}}, {"type": "node", "id": 3054767754, "lat": 6.011922, "lon": 80.3116018, "tags": {"addr:city": "Habaraduwa", "amenity": "place_of_worship", "name": "Harumalgoda Mandalaramaya", "religion": "buddhist"}}, {"type": "node", "id": 3054767833, "lat": 5.9968158, "lon": 80.3050284, "tags": {"addr:city": "Habaraduwa", "amenity": "place_of_worship", "name": "Pulinathalarama Purana Viharaya", "religion": "buddhist"}}, {"type": "node", "id": 3054837296, "lat": 6.0374, "lon": 80.2931094, "tags": {"amenity": "place_of_worship", "name": "Pilana Raja Maha Viharaya", "religion": "buddhist"}}, {"type": "node", "id": 3054837691, "lat": 6.0520726, "lon": 80.2847011, "tags": {"amenity": "place_of_worship", "name": "Sri Sumangala Viharaya", "religion": "buddhist"}}, {"type": "node", "id": 3054837738, "lat": 6.040058, "lon": 80.3052068, "tags": {"amenity": "place_of_worship", "name": "Dorape Sri Premananda Viharaya", "religion": "buddhist"}}, {"type": "node", "id": 3054872286, "lat": 6.0351121, "lon": 80.314359, "tags": {"amenity": "place_of_worship", "religion": "buddhist"}}, {"type": "node", "id": 3054872343, "lat": 6.0291232, "lon": 80.2910893, "tags": {"amenity": "place_of_worship", "religion": "buddhist"}}, {"type": "node", "id": 3056993395, "lat": 5.9984262, "lon": 80.2858716, "tags": {"amenity": "place_of_worship", "name": "Buddhist Temple", "religion": "buddhist"}}, {"type": "node", "id": 3056993408, "lat": 6.0012838, "lon": 80.2820583, "tags": {"addr:city": "Talpe", "amenity": "place_of_worship", "name": "Sri Sudharmaramaya", "religion": "buddhist"}}, {"type": "node", "id": 3056993410, "lat": 5.9999794, "lon": 80.2820235, "tags": {"addr:city": "Talpe", "amenity": "place_of_worship", "name": "Sri Wimalaramaya", "religion": "buddhist"}}, {"type": "node", "id": 3074417038, "lat": 6.0034142, "lon": 80.2655365, "tags": {"addr:city": "Mihiripenna", "amenity": "place_of_worship", "name": "Ariyakara Maha Pirivena", "religion": "buddhist"}}, {"type": "node", "id": 3081242187, "lat": 6.0076601, "lon": 80.2569692, "tags": {"addr:city": "unawatuna", "amenity": "place_of_worship", "name": "Shethrarama Viharaya", "religion": "buddhist"}}, {"type": "node", "id": 3081634048, "lat": 6.0244468, "lon": 80.2459841, "tags": {"amenity": "place_of_worship", "name": "Galketiya Temple", "religion": "buddhist"}}, {"type": "node", "id": 3081634109, "lat": 6.0330551, "lon": 80.2437867, "tags": {"amenity": "place_of_worship", "name": "Siyambalagahawatte Sri Vijitharamaya", "religion": "buddhist"}}, {"type": "node", "id": 3090222652, "lat": 6.0856477, "lon": 80.1511469, "tags": {"amenity": "place_of_worship", "name": "Buddhist Temple", "religion": "buddhist"}}, {"type": "node", "id": 3090259022, "lat": 6.0913686, "lon": 80.1405505, "tags": {"addr:city": "Rajgama", "amenity": "place_of_worship", "name": "Sri Rathnodayarama Purana Viharaya", "religion": "buddhist"}}, {"type": "node", "id": 3098805416, "lat": 5.9903208, "lon": 80.5394276, "tags": {"amenity": "place_of_worship", "name": "Sri Sudharshanarama Pothgul Viharaya, Watagedara", "religion": "buddhist"}}, {"type": "node", "id": 3098822750, "lat": 5.9867729, "lon": 80.5226584, "tags": {"amenity": "place_of_worship", "name": "Palatuwa Temple", "religion": "buddhist"}}, {"type": "node", "id": 3098824068, "lat": 5.9883094, "lon": 80.5263008, "tags": {"amenity": "place_of_worship", "name": "Sri Bodhirukkaramaya, Elambakalagoda", "religion": "buddhist"}}, {"type": "node", "id": 3144962321, "lat": 6.4242838, "lon": 80.8176704, "tags": {"addr:city": "Udawalawe", "amenity": "place_of_worship", "name": "Udawalawe Buddhist Center", "religion": "buddhist"}}, {"type": "node", "id": 3145216172, "lat": 6.3474418, "lon": 80.8410167, "tags": {"addr:city": "Embilipitiya", "amenity": "place_of_worship", "name": "Sri Bodhiraja Bhikku Training Centre", "religion": "buddhist"}}, {"type": "node", "id": 3147058943, "lat": 6.3338047, "lon": 80.8515112, "tags": {"addr:city": "Embilipitiya", "amenity": "place_of_worship", "name": "Kawantissa Raja Maha Viharaya", "religion": "buddhist"}}, {"type": "node", "id": 3147073151, "lat": 6.469391, "lon": 81.0122059, "tags": {"addr:city": "Hambegamuwa", "amenity": "place_of_worship", "name": "Sri Sumanasararamaya", "religion": "buddhist"}}, {"type": "node", "id": 3147175377, "lat": 6.3206439, "lon": 80.8611844, "tags": {"addr:city": "Embilipitiya", "amenity": "place_of_worship", "name": "Devale Temple", "religion": "buddhist"}}, {"type": "node", "id": 3155787889, "lat": 6.3164605, "lon": 80.8419513, "tags": {"addr:city": "Embilipitiya", "amenity": "place_of_worship", "name": "Dutugemunu MahaSeya", "religion": "buddhist"}}, {"type": "node", "id": 3194223521, "lat": 6.2179442, "lon": 80.203432, "tags": {"addr:street": "Yakkatuwa-Kahaduwa Road", "amenity": "place_of_worship", "name": "Pinikahana Buddhist Center", "religion": "buddhist"}}, {"type": "node", "id": 3200286171, "lat": 6.0235113, "lon": 80.7985465, "tags": {"amenity": "place_of_worship", "name": "Welle Bodiya", "religion": "buddhist"}}, {"type": "node", "id": 3200289525, "lat": 6.0266395, "lon": 80.7895795, "tags": {"amenity": "place_of_worship", "name": "Kudaviharaya", "religion": "buddhist"}}, {"type": "node", "id": 3200312944, "lat": 6.014288, "lon": 80.7641758, "tags": {"amenity": "place_of_worship", "name": "Ashokarama Viharaya", "religion": "buddhist"}}, {"type": "node", "id": 3203216453, "lat": 6.040051, "lon": 80.7998931, "tags": {"amenity": "place_of_worship", "name": "Henakaduwa Viharaya", "religion": "buddhist"}}, {"type": "node", "id": 3210149488, "lat": 6.3926823, "lon": 80.1832784, "tags": {"amenity": "place_of_worship", "religion": "buddhist"}}, {"type": "node", "id": 3247442137, "lat": 6.1331211, "lon": 80.1022902, "tags": {"addr:city": "Hikkaduwa", "amenity": "place_of_worship", "name": "Susilachara Temple", "religion": "buddhist"}}, {"type": "node", "id": 3247497051, "lat": 6.1007511, "lon": 80.131439, "tags": {"addr:city": "Dodanduwa", "amenity": "place_of_worship", "name": "Shaila Bimbarama Viharaya", "religion": "buddhist"}}, {"type": "node", "id": 3248862461, "lat": 6.1263303, "lon": 80.1285057, "tags": {"addr:city": "Pinwatte", "amenity": "place_of_worship", "name": "Siri Khettarama Maha Viharaya", "religion": "buddhist"}}, {"type": "node", "id": 3248881433, "lat": 6.1260693, "lon": 80.1137285, "tags": {"addr:city": "Hikkaduwa", "amenity": "place_of_worship", "name": "Sri Shylathalaramaya", "religion": "buddhist"}}, {"type": "node", "id": 3249060557, "lat": 6.1382945, "lon": 80.1047149, "tags": {"addr:city": "Hikkaduwa", "amenity": "place_of_worship", "name": "Jananandharamaya", "religion": "buddhist"}}, {"type": "node", "id": 3253177217, "lat": 6.0789572, "lon": 80.5662179, "tags": {"amenity": "place_of_worship", "name": "Batapaththala temple, Sri Upasena piriwena", "religion": "buddhist"}}, {"type": "node", "id": 3257659173, "lat": 6.1386905, "lon": 80.1153882, "tags": {"addr:city": "Hikkaduwa", "amenity": "place_of_worship", "name": "Naga Viharaya", "religion": "buddhist"}}, {"type": "node", "id": 3257863196, "lat": 6.157294, "lon": 80.1846656, "tags": {"addr:city": "Baddegama", "amenity": "place_of_worship", "name": "Udawatte Pirivena", "religion": "buddhist"}}, {"type": "node", "id": 3257864492, "lat": 6.1711573, "lon": 80.1734711, "tags": {"addr:city": "Baddegama", "amenity": "place_of_worship", "name": "Sri Dharmakara Viharaya", "religion": "buddhist"}}, {"type": "node", "id": 3370231931, "lat": 5.9500967, "lon": 80.4966152, "tags": {"addr:city": "Kamburugamuwa", "addr:street": "Kamburugamuwa-Labima Road", "amenity": "place_of_worship", "denomination": "theravada", "name": "Divigalahena Purana Viharaya", "religion": "buddhist"}}, {"type": "node", "id": 3471431834, "lat": 5.9490504, "lon": 80.5408474, "tags": {"addr:city": "Matara", "addr:street": "Anagarika Dharmapala Mawatha", "amenity": "place_of_worship", "name": "Sri Sudarshi Vidyayathanaya", "religion": "buddhist"}}, {"type": "node", "id": 3483855641, "lat": 6.0351111, "lon": 80.3766581, "tags": {"addr:city": "Paragoda", "addr:street": "Galle - Akuressa - Deniyaya Road", "amenity": "place_of_worship", "name": "Paragoda Raja Maha Viharaya", "religion": "buddhist"}}, {"type": "node", "id": 3493140354, "lat": 6.0231001, "lon": 80.4085627, "tags": {"amenity": "place_of_worship", "name": "Horadugoda puran viharaya", "religion": "buddhist"}}, {"type": "node", "id": 3493140356, "lat": 6.0324547, "lon": 80.4002242, "tags": {"amenity": "place_of_worship", "name": "Divelagoda puran viharaya", "religion": "buddhist"}}, {"type": "node", "id": 3493212692, "lat": 6.0156077, "lon": 80.3928995, "tags": {"amenity": "place_of_worship", "name": "Andugoda puran viharaya", "religion": "buddhist"}}, {"type": "node", "id": 3521385718, "lat": 6.1050546, "lon": 80.7123211, "tags": {"amenity": "place_of_worship", "religion": "buddhist"}}, {"type": "node", "id": 3521466114, "lat": 6.1298248, "lon": 80.6881312, "tags": {"amenity": "place_of_worship", "religion": "buddhist"}}, {"type": "node", "id": 3521475031, "lat": 6.0273509, "lon": 80.7089721, "tags": {"amenity": "place_of_worship", "check_date": "2024-11-12", "internet_access": "wlan", "internet_access:fee": "no", "name": "Sri Bubbularama Purana Viharaya", "name:en": "Sri Bubbularama Purana Viharaya", "name:si": "\u0dc1\u0dca\u200d\u0dbb\u0dd3 \u0db6\u0dd4\u0db6\u0dd4\u0dbd\u0dcf\u0dbb\u0dcf\u0db8 \u0db4\u0dd4\u0dbb\u0dcf\u0dab \u0dc0\u0dd2\u0dc4\u0dcf\u0dbb\u0dba", "religion": "buddhist", "wheelchair": "limited"}}, {"type": "node", "id": 3521554961, "lat": 5.9997015, "lon": 80.5830999, "tags": {"amenity": "place_of_worship", "religion": "buddhist"}}, {"type": "node", "id": 3521681428, "lat": 6.1586822, "lon": 80.6274385, "tags": {"amenity": "place_of_worship", "name": "Temple", "religion": "buddhist"}}, {"type": "node", "id": 3521850839, "lat": 6.2808041, "lon": 80.426869, "tags": {"amenity": "place_of_worship", "religion": "buddhist"}}, {"type": "node", "id": 3558210000, "lat": 6.181266, "lon": 80.1958807, "tags": {"amenity": "place_of_worship", "name": "Sri Sudarshanaaraamaya", "religion": "buddhist"}}, {"type": "node", "id": 3570555728, "lat": 6.2784326, "lon": 80.9900632, "tags": {"amenity": "place_of_worship", "religion": "buddhist"}}, {"type": "node", "id": 3577199289, "lat": 6.1499419, "lon": 81.0113613, "tags": {"amenity": "place_of_worship", "religion": "buddhist"}}, {"type": "node", "id": 3577199293, "lat": 6.1644433, "lon": 81.0074076, "tags": {"amenity": "place_of_worship", "religion": "buddhist"}}, {"type": "node", "id": 3621129594, "lat": 5.9836401, "lon": 80.4907008, "tags": {"amenity": "place_of_worship", "name": "Sri Ramagiri Viharaya", "religion": "buddhist"}}, {"type": "node", "id": 3621167189, "lat": 5.9806507, "lon": 80.4785202, "tags": {"amenity": "place_of_worship", "name": "Khettaramaya", "religion": "buddhist"}}, {"type": "node", "id": 3621305224, "lat": 6.0000242, "lon": 80.5138924, "tags": {"amenity": "place_of_worship", "religion": "buddhist"}}, {"type": "node", "id": 3621414241, "lat": 6.0082911, "lon": 80.5160838, "tags": {"amenity": "place_of_worship", "name": "Sri Indrarama Purana Viharaya", "religion": "buddhist"}}, {"type": "node", "id": 3621425956, "lat": 6.0132557, "lon": 80.5090146, "tags": {"amenity": "place_of_worship", "name": "Jayasumanaramaya Road", "religion": "buddhist"}}, {"type": "node", "id": 3621483816, "lat": 5.9391388, "lon": 80.5043162, "tags": {"amenity": "place_of_worship", "name": "Samudratheera Maha Viharaya", "religion": "buddhist"}}, {"type": "node", "id": 3621485371, "lat": 5.9703568, "lon": 80.4758256, "tags": {"amenity": "place_of_worship", "name": "Sri Rathanaramaya", "religion": "buddhist"}}, {"type": "node", "id": 3621532472, "lat": 5.93946, "lon": 80.4694552, "tags": {"amenity": "place_of_worship", "name": "Sri Sudharshanaramaya", "religion": "buddhist", "service_times": "Permanently closed"}}, {"type": "node", "id": 3621750893, "lat": 5.989194, "lon": 80.4580953, "tags": {"amenity": "place_of_worship", "religion": "buddhist"}}, {"type": "node", "id": 3621867333, "lat": 5.9757548, "lon": 80.4398539, "tags": {"addr:city": "Southern Province", "addr:country": "LK", "addr:town": "Weligama", "alt_name": "Pelena Gangarama Viharaya", "amenity": "place_of_worship", "name": "Gangarama Temple", "religion": "buddhist"}}, {"type": "node", "id": 3622696063, "lat": 5.9733917, "lon": 80.4863597, "tags": {"amenity": "place_of_worship", "name": "Naalakaramaya", "religion": "buddhist"}}, {"type": "node", "id": 3633692197, "lat": 6.3037856, "lon": 80.6336326, "tags": {"amenity": "place_of_worship", "name": "Urubokka Temple", "religion": "buddhist"}}, {"type": "node", "id": 3633693450, "lat": 6.291007, "lon": 80.6365769, "tags": {"amenity": "place_of_worship", "name": "Thusitha Piriwena urubokka", "religion": "buddhist"}}, {"type": "node", "id": 3633720593, "lat": 6.2662609, "lon": 80.6881618, "tags": {"amenity": "place_of_worship", "name": "Katuwan Temple", "religion": "buddhist"}}, {"type": "node", "id": 3633738910, "lat": 6.2515579, "lon": 80.7663489, "tags": {"amenity": "place_of_worship", "name": "Middeniya Sri Sumangala Purana Maha Viharaya", "religion": "buddhist"}}, {"type": "node", "id": 3633784190, "lat": 6.2197409, "lon": 80.6350034, "tags": {"amenity": "place_of_worship", "name": "Siththam Gall lena Purana Viharaya", "religion": "buddhist"}}, {"type": "node", "id": 3633854445, "lat": 6.2500281, "lon": 80.6167192, "tags": {"amenity": "place_of_worship", "name": "Pasgoda Sri Nagaramaya", "religion": "buddhist"}}, {"type": "node", "id": 3633894715, "lat": 5.9443714, "lon": 80.5290906, "tags": {"amenity": "place_of_worship", "religion": "buddhist"}}, {"type": "node", "id": 3634257438, "lat": 6.1449844, "lon": 80.7102612, "tags": {"amenity": "place_of_worship", "religion": "buddhist"}}, {"type": "node", "id": 3634261799, "lat": 6.1728634, "lon": 80.7263381, "tags": {"amenity": "place_of_worship", "religion": "buddhist"}}, {"type": "node", "id": 3634263994, "lat": 6.1751222, "lon": 80.7091854, "tags": {"amenity": "place_of_worship", "religion": "buddhist"}}, {"type": "node", "id": 3634268754, "lat": 6.1663556, "lon": 80.709006, "tags": {"amenity": "place_of_worship", "religion": "buddhist"}}, {"type": "node", "id": 3634797202, "lat": 6.1486345, "lon": 80.7845431, "tags": {"amenity": "place_of_worship", "name": "Naigalwehera", "religion": "buddhist"}}, {"type": "node", "id": 3634825141, "lat": 6.1541688, "lon": 80.7703164, "tags": {"amenity": "place_of_worship", "name": "Mandaduwa Temple", "religion": "buddhist"}}, {"type": "node", "id": 3634840818, "lat": 6.1451258, "lon": 80.6085055, "tags": {"amenity": "place_of_worship", "name": "Temple", "religion": "buddhist"}}, {"type": "node", "id": 3635197514, "lat": 6.0625017, "lon": 80.8390207, "tags": {"amenity": "place_of_worship", "name": "Sri Subodharamaya", "religion": "buddhist"}}, {"type": "node", "id": 3639653835, "lat": 6.1247376, "lon": 80.3710437, "tags": {"amenity": "place_of_worship", "religion": "buddhist"}}, {"type": "node", "id": 3639714022, "lat": 5.9636141, "lon": 80.565799, "tags": {"amenity": "place_of_worship", "religion": "buddhist"}}, {"type": "node", "id": 3640130346, "lat": 6.2466142, "lon": 80.813279, "tags": {"amenity": "place_of_worship", "religion": "buddhist"}}, {"type": "node", "id": 3640132540, "lat": 6.2741536, "lon": 80.6949638, "tags": {"amenity": "place_of_worship", "religion": "buddhist"}}, {"type": "node", "id": 3641776020, "lat": 6.2995136, "lon": 80.589, "tags": {"amenity": "place_of_worship", "religion": "buddhist"}}, {"type": "node", "id": 3647867924, "lat": 6.2819438, "lon": 80.191489, "tags": {"amenity": "place_of_worship", "religion": "buddhist"}}, {"type": "node", "id": 3647906863, "lat": 6.2744759, "lon": 80.233884, "tags": {"amenity": "place_of_worship", "religion": "buddhist"}}, {"type": "node", "id": 3647915834, "lat": 6.2781578, "lon": 80.245857, "tags": {"amenity": "place_of_worship", "religion": "buddhist"}}, {"type": "node", "id": 3652998786, "lat": 5.9678345, "lon": 80.420167, "tags": {"amenity": "place_of_worship", "religion": "buddhist"}}, {"type": "node", "id": 3655959374, "lat": 6.2388902, "lon": 80.1654042, "tags": {"amenity": "place_of_worship", "religion": "buddhist"}}, {"type": "node", "id": 3655962850, "lat": 6.2061733, "lon": 80.1880983, "tags": {"amenity": "place_of_worship", "religion": "buddhist"}}, {"type": "node", "id": 3655964197, "lat": 6.262729, "lon": 80.1251071, "tags": {"amenity": "place_of_worship", "religion": "buddhist"}}, {"type": "node", "id": 3663923371, "lat": 5.931104, "lon": 80.5839717, "tags": {"amenity": "place_of_worship", "religion": "buddhist"}}, {"type": "node", "id": 3666999830, "lat": 5.9647505, "lon": 80.6384278, "tags": {"amenity": "place_of_worship", "religion": "buddhist"}}, {"type": "node", "id": 3669506151, "lat": 6.4649815, "lon": 80.5070288, "tags": {"addr:city": "Rakwana", "addr:street": "Kalawana - Depedene - Rakwana Road", "amenity": "place_of_worship", "name": "Rambuka Sri Sunandaramaya", "religion": "buddhist"}}, {"type": "node", "id": 3669584631, "lat": 6.0730816, "lon": 80.9130951, "tags": {"addr:city": "Ranna", "amenity": "place_of_worship", "name": "Thillawatawana Temple", "religion": "buddhist"}}, {"type": "node", "id": 3669997736, "lat": 6.0378864, "lon": 80.7991637, "tags": {"addr:city": "Tangalle", "amenity": "place_of_worship", "name": "Gautama Vidyala Pirivena", "religion": "buddhist"}}, {"type": "node", "id": 3670529743, "lat": 6.1605012, "lon": 81.0427996, "tags": {"amenity": "place_of_worship", "religion": "buddhist"}}, {"type": "node", "id": 3671961910, "lat": 6.2832818, "lon": 81.0419476, "tags": {"amenity": "place_of_worship", "religion": "buddhist"}}, {"type": "node", "id": 3672024098, "lat": 6.1571085, "lon": 81.0352326, "tags": {"amenity": "place_of_worship", "religion": "buddhist"}}, {"type": "node", "id": 3672621080, "lat": 6.2908433, "lon": 81.000969, "tags": {"amenity": "place_of_worship", "religion": "buddhist"}}, {"type": "node", "id": 3673807841, "lat": 6.4806159, "lon": 80.7074115, "tags": {"addr:city": "Pallebedda", "addr:street": "Rathnapura - Embilipitiya Road", "amenity": "place_of_worship", "name": "Sri Nandarama Temple", "religion": "buddhist"}}, {"type": "node", "id": 3675908396, "lat": 6.1094299, "lon": 80.975845, "tags": {"amenity": "place_of_worship", "religion": "buddhist"}}, {"type": "node", "id": 3678340489, "lat": 6.2016376, "lon": 80.3450827, "tags": {"amenity": "place_of_worship", "religion": "buddhist"}}, {"type": "node", "id": 3680803831, "lat": 6.0930928, "lon": 80.8721243, "tags": {"amenity": "place_of_worship", "religion": "buddhist"}}, {"type": "node", "id": 3684093436, "lat": 6.2938496, "lon": 80.9494319, "tags": {"amenity": "place_of_worship", "religion": "buddhist"}}, {"type": "node", "id": 3698326022, "lat": 6.0569769, "lon": 80.7830908, "tags": {"amenity": "place_of_worship", "religion": "buddhist"}}, {"type": "node", "id": 3698463610, "lat": 6.0204715, "lon": 80.4321902, "tags": {"amenity": "place_of_worship", "religion": "buddhist"}}, {"type": "node", "id": 3698550104, "lat": 6.0910439, "lon": 80.7800458, "tags": {"amenity": "place_of_worship", "religion": "buddhist"}}, {"type": "node", "id": 3698836896, "lat": 6.1050065, "lon": 80.8027673, "tags": {"amenity": "place_of_worship", "name": "Sri Visudhdharamaya", "religion": "buddhist"}}, {"type": "node", "id": 3699426045, "lat": 6.1546993, "lon": 80.9030854, "tags": {"amenity": "place_of_worship", "religion": "buddhist"}}, {"type": "node", "id": 3699426145, "lat": 6.1594711, "lon": 80.9139353, "tags": {"amenity": "place_of_worship", "religion": "buddhist"}}, {"type": "node", "id": 3699440276, "lat": 6.134611, "lon": 80.8747231, "tags": {"amenity": "place_of_worship", "religion": "buddhist"}}, {"type": "node", "id": 3699456579, "lat": 6.1701545, "lon": 80.8907657, "tags": {"amenity": "place_of_worship", "name": "Aluthwewa Purana Rajamaha Wiharaya", "religion": "buddhist"}}, {"type": "node", "id": 3699461225, "lat": 6.1946592, "lon": 80.9496697, "tags": {"amenity": "place_of_worship", "name": "Ramba Rajamaha Viharaya", "religion": "buddhist"}}, {"type": "node", "id": 3699473702, "lat": 6.1688089, "lon": 80.9163186, "tags": {"amenity": "place_of_worship", "religion": "buddhist"}}, {"type": "node", "id": 3699486803, "lat": 6.1150888, "lon": 80.9433022, "tags": {"amenity": "place_of_worship", "religion": "buddhist"}}, {"type": "node", "id": 3708255838, "lat": 6.1285274, "lon": 81.0460546, "tags": {"amenity": "place_of_worship", "religion": "buddhist"}}, {"type": "node", "id": 3718693400, "lat": 6.3122871, "lon": 81.1977519, "tags": {"amenity": "place_of_worship", "religion": "buddhist"}}, {"type": "node", "id": 3724710513, "lat": 5.9451996, "lon": 80.4620606, "tags": {"amenity": "place_of_worship", "religion": "buddhist"}}, {"type": "node", "id": 3726400012, "lat": 6.081822, "lon": 80.2125052, "tags": {"amenity": "place_of_worship", "religion": "buddhist"}}, {"type": "node", "id": 3726449886, "lat": 6.1658936, "lon": 80.1048506, "tags": {"amenity": "place_of_worship", "name": "Temple", "religion": "buddhist"}}, {"type": "node", "id": 3726458025, "lat": 6.1559794, "lon": 80.1046644, "tags": {"amenity": "place_of_worship", "name": "Kalupe Purana Maha Viharaya", "religion": "buddhist"}}, {"type": "node", "id": 3726462637, "lat": 6.1516861, "lon": 80.1004011, "tags": {"amenity": "place_of_worship", "image": "https://photos.app.goo.gl/gYaZ6QFpzFyih9Fn7", "name": "Sri Subhadrarama Purana Maha Viharaya", "religion": "buddhist", "url": "https://youtu.be/uvsNXtND8EM?si=Z2Rxv5UTLi6eiwQP"}}, {"type": "node", "id": 3728660287, "lat": 6.0736334, "lon": 80.1965052, "tags": {"amenity": "place_of_worship", "name": "Sri Sudharmaramaya - Hapugala", "religion": "buddhist"}}, {"type": "node", "id": 3729382301, "lat": 6.0590937, "lon": 80.2035941, "tags": {"amenity": "place_of_worship", "name": "Boo tree", "religion": "buddhist"}}, {"type": "node", "id": 3729461877, "lat": 6.2269586, "lon": 80.9360022, "tags": {"amenity": "place_of_worship", "religion": "buddhist"}}, {"type": "node", "id": 3729688625, "lat": 6.2122229, "lon": 80.9277936, "tags": {"amenity": "place_of_worship", "name": "Temple", "religion": "buddhist"}}, {"type": "node", "id": 3730218967, "lat": 6.1554702, "lon": 80.9400718, "tags": {"amenity": "place_of_worship", "religion": "buddhist"}}, {"type": "node", "id": 3730261541, "lat": 6.1576148, "lon": 80.9756316, "tags": {"amenity": "place_of_worship", "religion": "buddhist"}}, {"type": "node", "id": 3733267369, "lat": 6.2055703, "lon": 80.8647659, "tags": {"amenity": "place_of_worship", "religion": "buddhist"}}, {"type": "node", "id": 3734660374, "lat": 6.2183508, "lon": 80.8778492, "tags": {"amenity": "place_of_worship", "religion": "buddhist"}}, {"type": "node", "id": 3734665114, "lat": 6.2333612, "lon": 80.8839109, "tags": {"amenity": "place_of_worship", "religion": "buddhist"}}, {"type": "node", "id": 3737614707, "lat": 6.229873, "lon": 80.8245629, "tags": {"amenity": "place_of_worship", "religion": "buddhist"}}, {"type": "node", "id": 3748050745, "lat": 6.1633087, "lon": 80.7764662, "tags": {"amenity": "place_of_worship", "religion": "buddhist"}}, {"type": "node", "id": 3751204217, "lat": 6.121909, "lon": 80.328811, "tags": {"amenity": "place_of_worship", "name": "Temple", "religion": "buddhist"}}, {"type": "node", "id": 3751583411, "lat": 6.1648872, "lon": 80.7887588, "tags": {"amenity": "place_of_worship", "religion": "buddhist"}}, {"type": "node", "id": 3752947090, "lat": 6.1565963, "lon": 80.5443029, "tags": {"amenity": "place_of_worship", "name": "Temple", "religion": "buddhist"}}, {"type": "node", "id": 3769905087, "lat": 6.1401458, "lon": 80.760245, "tags": {"amenity": "place_of_worship", "name": "Kondhagala Purana Rajamaha Viharaya", "religion": "buddhist"}}, {"type": "node", "id": 3769921350, "lat": 6.1300309, "lon": 80.7736258, "tags": {"amenity": "place_of_worship", "name": "katuwawa viharaya", "religion": "buddhist"}}, {"type": "node", "id": 3769922996, "lat": 6.1159607, "lon": 80.7742927, "tags": {"amenity": "place_of_worship", "name": "Bedigama Purana Raja Maha Viharaya", "religion": "buddhist"}}, {"type": "node", "id": 3770559784, "lat": 6.0939034, "lon": 80.7446969, "tags": {"amenity": "place_of_worship", "religion": "buddhist"}}, {"type": "node", "id": 3770587602, "lat": 6.039474, "lon": 80.7665188, "tags": {"amenity": "place_of_worship", "religion": "buddhist"}}, {"type": "node", "id": 3771319544, "lat": 6.0474167, "lon": 80.7366109, "tags": {"amenity": "place_of_worship", "name": "Siri Sunanda Maha Viharaya", "religion": "buddhist"}}, {"type": "node", "id": 3771333902, "lat": 6.0706005, "lon": 80.7353659, "tags": {"amenity": "place_of_worship", "religion": "buddhist"}}, {"type": "node", "id": 3771350532, "lat": 6.0525101, "lon": 80.7282546, "tags": {"amenity": "place_of_worship", "name": "Galwewa temple", "religion": "buddhist"}}, {"type": "node", "id": 3771391549, "lat": 6.0293602, "lon": 80.7934039, "tags": {"amenity": "place_of_worship", "name": "Jayasumanaramaya Temple", "religion": "buddhist"}}, {"type": "node", "id": 3771471947, "lat": 6.0911274, "lon": 80.731707, "tags": {"amenity": "place_of_worship", "religion": "buddhist"}}, {"type": "node", "id": 3778426351, "lat": 6.1532689, "lon": 80.7388943, "tags": {"amenity": "place_of_worship", "religion": "buddhist"}}, {"type": "node", "id": 3780668804, "lat": 6.1202171, "lon": 80.7039567, "tags": {"amenity": "place_of_worship", "religion": "buddhist"}}, {"type": "node", "id": 3784938806, "lat": 6.2436806, "lon": 80.7664935, "tags": {"amenity": "place_of_worship", "religion": "buddhist"}}, {"type": "node", "id": 3797576202, "lat": 6.1293479, "lon": 80.6655126, "tags": {"amenity": "place_of_worship", "religion": "buddhist"}}, {"type": "node", "id": 3803649170, "lat": 6.1624033, "lon": 80.6934794, "tags": {"amenity": "place_of_worship", "religion": "buddhist"}}, {"type": "node", "id": 3810904036, "lat": 5.9589253, "lon": 80.5069697, "tags": {"amenity": "place_of_worship", "religion": "buddhist"}}, {"type": "node", "id": 3822118681, "lat": 6.2385021, "lon": 80.6573947, "tags": {"amenity": "place_of_worship", "religion": "buddhist"}}, {"type": "node", "id": 3823977011, "lat": 6.2568123, "lon": 80.6652669, "tags": {"amenity": "place_of_worship", "religion": "buddhist"}}, {"type": "node", "id": 3827923736, "lat": 6.2134455, "lon": 80.7330764, "tags": {"amenity": "place_of_worship", "religion": "buddhist"}}, {"type": "node", "id": 3827992343, "lat": 6.2445206, "lon": 80.7152963, "tags": {"amenity": "place_of_worship", "religion": "buddhist"}}, {"type": "node", "id": 3837308987, "lat": 6.1519171, "lon": 80.8730576, "tags": {"amenity": "place_of_worship", "religion": "buddhist"}}, {"type": "node", "id": 3839031500, "lat": 6.1472024, "lon": 80.9025029, "tags": {"amenity": "place_of_worship", "name": "Eraminiyaya temple", "religion": "buddhist"}}, {"type": "node", "id": 3842662974, "lat": 6.1323569, "lon": 80.916266, "tags": {"amenity": "place_of_worship", "religion": "buddhist"}}, {"type": "node", "id": 3846900385, "lat": 6.1150414, "lon": 80.8333469, "tags": {"amenity": "place_of_worship", "religion": "buddhist"}}, {"type": "node", "id": 3848399623, "lat": 6.2507125, "lon": 80.8923402, "tags": {"amenity": "place_of_worship", "religion": "buddhist"}}, {"type": "node", "id": 3848617021, "lat": 6.2397734, "lon": 80.9090384, "tags": {"amenity": "place_of_worship", "religion": "buddhist"}}, {"type": "node", "id": 3889873546, "lat": 6.3339627, "lon": 81.0013481, "tags": {"amenity": "place_of_worship", "religion": "buddhist"}}, {"type": "node", "id": 3895282020, "lat": 6.3064747, "lon": 80.9650732, "tags": {"amenity": "place_of_worship", "religion": "buddhist"}}, {"type": "node", "id": 3900801557, "lat": 6.2768371, "lon": 80.9380335, "tags": {"amenity": "place_of_worship", "religion": "buddhist"}}, {"type": "node", "id": 3910053558, "lat": 6.0735695, "lon": 80.7026296, "tags": {"amenity": "place_of_worship", "name": "Nihiluwa Temple", "religion": "buddhist"}}, {"type": "node", "id": 3910054783, "lat": 6.078044, "lon": 80.7091947, "tags": {"amenity": "place_of_worship", "name": "Galkema Historic Temple", "religion": "buddhist"}}, {"type": "node", "id": 3910356461, "lat": 6.0686988, "lon": 80.7278026, "tags": {"amenity": "place_of_worship", "religion": "buddhist"}}, {"type": "node", "id": 3910376648, "lat": 6.0597328, "lon": 80.7202188, "tags": {"amenity": "place_of_worship", "name": "Waharaggoda Temple", "religion": "buddhist"}}, {"type": "node", "id": 3910376649, "lat": 6.0678853, "lon": 80.7117276, "tags": {"amenity": "place_of_worship", "name": "Walawela Temple", "religion": "buddhist"}}, {"type": "node", "id": 3911920423, "lat": 6.0643487, "lon": 80.7029253, "tags": {"amenity": "place_of_worship", "religion": "buddhist"}}, {"type": "node", "id": 3916623209, "lat": 6.0461421, "lon": 80.6888069, "tags": {"amenity": "place_of_worship", "name": "Getamanna Purana Raja Maha Viharaya", "religion": "buddhist"}}, {"type": "node", "id": 3916676767, "lat": 6.0784764, "lon": 80.6795501, "tags": {"amenity": "place_of_worship", "name": "Umangala Anciant temple", "religion": "buddhist"}}, {"type": "node", "id": 3933987090, "lat": 6.0314262, "lon": 80.6871982, "tags": {"amenity": "place_of_worship", "religion": "buddhist"}}, {"type": "node", "id": 3949374076, "lat": 6.0300657, "lon": 80.7414886, "tags": {"amenity": "place_of_worship", "religion": "buddhist"}}, {"type": "node", "id": 3949374151, "lat": 6.037973, "lon": 80.7471877, "tags": {"amenity": "place_of_worship", "religion": "buddhist"}}, {"type": "node", "id": 3949411070, "lat": 6.0029518, "lon": 80.6987937, "tags": {"amenity": "place_of_worship", "religion": "buddhist"}}, {"type": "node", "id": 3953657160, "lat": 5.9823368, "lon": 80.7235167, "tags": {"amenity": "place_of_worship", "religion": "buddhist"}}, {"type": "node", "id": 3955225131, "lat": 5.995183, "lon": 80.7428829, "tags": {"amenity": "place_of_worship", "religion": "buddhist"}}, {"type": "node", "id": 3956856417, "lat": 6.0216069, "lon": 80.7483612, "tags": {"amenity": "place_of_worship", "religion": "buddhist"}}, {"type": "node", "id": 3958173510, "lat": 5.9908722, "lon": 80.7433338, "tags": {"amenity": "place_of_worship", "religion": "buddhist"}}, {"type": "node", "id": 3960760681, "lat": 6.0058769, "lon": 80.7477112, "tags": {"amenity": "place_of_worship", "religion": "buddhist"}}, {"type": "node", "id": 3960897515, "lat": 6.1328257, "lon": 81.1276587, "tags": {"amenity": "place_of_worship", "religion": "buddhist"}}, {"type": "node", "id": 3977279685, "lat": 6.0376486, "lon": 80.777461, "tags": {"amenity": "place_of_worship", "religion": "buddhist"}}, {"type": "node", "id": 3977421541, "lat": 6.1415823, "lon": 80.9787848, "tags": {"amenity": "place_of_worship", "religion": "buddhist"}}, {"type": "node", "id": 3977468685, "lat": 6.1070093, "lon": 80.9709951, "tags": {"amenity": "place_of_worship", "religion": "buddhist"}}, {"type": "node", "id": 3977538991, "lat": 6.0992826, "lon": 80.9919779, "tags": {"amenity": "place_of_worship", "religion": "buddhist"}}, {"type": "node", "id": 4014750754, "lat": 6.3550549, "lon": 80.5707311, "tags": {"amenity": "place_of_worship", "religion": "buddhist"}}, {"type": "node", "id": 4014795960, "lat": 6.3507903, "lon": 80.5643137, "tags": {"addr:city": "Deniyaya", "addr:street": "Deniyaya-Viharahena Road", "amenity": "place_of_worship", "name": "Sri Dharmarama Viharaya", "religion": "buddhist"}}, {"type": "node", "id": 4023783503, "lat": 6.358814, "lon": 80.5300182, "tags": {"amenity": "place_of_worship", "religion": "buddhist"}}, {"type": "node", "id": 4031247739, "lat": 6.3372976, "lon": 80.520781, "tags": {"amenity": "place_of_worship", "religion": "buddhist"}}, {"type": "node", "id": 4040333262, "lat": 6.3415331, "lon": 80.5648428, "tags": {"amenity": "place_of_worship", "religion": "buddhist"}}, {"type": "node", "id": 4045295794, "lat": 6.4895896, "lon": 80.6794979, "tags": {"addr:city": "Godakawela", "addr:street": "Rathnapura - Embilipitiya Road", "amenity": "place_of_worship", "name": "Balawinna Purana Raja Maha Viharaya", "religion": "buddhist"}}, {"type": "node", "id": 4045313611, "lat": 6.4702561, "lon": 80.6089202, "tags": {"addr:city": "Rakwana", "addr:street": "Galle - Deniyaya - Madampe Road", "amenity": "place_of_worship", "name": "Ubhaya Thilakaramaya", "religion": "buddhist"}}, {"type": "node", "id": 4045395162, "lat": 6.4572333, "lon": 80.4283815, "tags": {"addr:city": "Weddagala", "addr:street": "Weddagala-Kudawa Road", "amenity": "place_of_worship", "name": "Milindu Thalawa Wana Senasanaya", "religion": "buddhist"}}, {"type": "node", "id": 4102115197, "lat": 5.9738147, "lon": 80.4275865, "tags": {"amenity": "place_of_worship", "name": "Ladies Prayer Hall", "religion": "muslim"}}, {"type": "node", "id": 4110839590, "lat": 5.965428, "lon": 80.4557641, "tags": {"amenity": "place_of_worship", "religion": "buddhist"}}, {"type": "node", "id": 4146042119, "lat": 6.3992864, "lon": 80.7054478, "tags": {"amenity": "place_of_worship", "name": "Maduwanwela Mudalinalage Aramaya", "religion": "buddhist"}}, {"type": "node", "id": 4176626748, "lat": 6.3134172, "lon": 80.5085302, "tags": {"amenity": "place_of_worship", "religion": "buddhist"}}, {"type": "node", "id": 4200338818, "lat": 6.2770222, "lon": 80.6227545, "tags": {"amenity": "place_of_worship", "name": "Vilayaya Purana Rajamaha Viharaya", "religion": "buddhist"}}, {"type": "node", "id": 4212459298, "lat": 6.2719519, "lon": 80.5268536, "tags": {"amenity": "place_of_worship", "religion": "buddhist"}}, {"type": "node", "id": 4215608911, "lat": 6.2769652, "lon": 80.4587971, "tags": {"amenity": "place_of_worship", "religion": "buddhist"}}, {"type": "node", "id": 4223991795, "lat": 6.2949037, "lon": 80.4361154, "tags": {"amenity": "place_of_worship", "religion": "buddhist"}}, {"type": "node", "id": 4230365927, "lat": 6.2670459, "lon": 80.6315648, "tags": {"amenity": "place_of_worship", "religion": "buddhist"}}, {"type": "node", "id": 4235197308, "lat": 6.233017, "lon": 80.2387718, "tags": {"amenity": "place_of_worship", "denomination": "\u0dc0\u0dad\u0dd4\u0dbb\u0dd4\u0dc0\u0dd2\u0dbd_\u0dc0\u0db1\u0dc0\u0dcf\u0dc3_\u0dc3\u0d82\u0d9d_\u0db8\u0dd6\u0dbd\u0dc3\u0dca\u0dae\u0dcf\u0db1\u0dba", "name": "Wathuruwila Aranya Senasanaya", "religion": "buddhist"}}, {"type": "node", "id": 4267564805, "lat": 6.3441479, "lon": 80.5583335, "tags": {"addr:city": "Deniyaya", "addr:street": "Temple Road", "amenity": "place_of_worship", "name": "Sri Pushparamaya", "religion": "buddhist"}}, {"type": "node", "id": 4267564822, "lat": 6.3424445, "lon": 80.5579085, "tags": {"addr:city": "Deniyaya", "addr:street": "Yapitakanda Pahala Road", "amenity": "place_of_worship", "name": "Hindu Kovil", "religion": "hindu"}}, {"type": "node", "id": 4267565848, "lat": 6.3473215, "lon": 80.5612127, "tags": {"addr:city": "Deniyaya", "addr:street": "Deniyaya-Viharahena Road", "amenity": "place_of_worship", "name": "Sri Sumanarathana Buddhist Centre", "religion": "buddhist"}}, {"type": "node", "id": 4267569147, "lat": 6.3414567, "lon": 80.561217, "tags": {"addr:city": "Deniyaya", "addr:street": "Galle - Deniyaya - Madampe Road", "amenity": "place_of_worship", "name": "St.Joseph's Church", "religion": "christian"}}, {"type": "node", "id": 4296721700, "lat": 6.2474956, "lon": 80.4962523, "tags": {"amenity": "place_of_worship", "religion": "buddhist"}}, {"type": "node", "id": 4359776300, "lat": 6.2263959, "lon": 80.4433763, "tags": {"amenity": "place_of_worship", "religion": "buddhist"}}, {"type": "node", "id": 4415822039, "lat": 5.9729188, "lon": 80.7019204, "tags": {"amenity": "place_of_worship", "religion": "buddhist"}}, {"type": "node", "id": 4415822067, "lat": 5.975355, "lon": 80.7198631, "tags": {"amenity": "place_of_worship", "religion": "buddhist"}}, {"type": "node", "id": 4415996504, "lat": 6.2594087, "lon": 80.185047, "tags": {"amenity": "place_of_worship", "name": "Temple", "religion": "buddhist"}}, {"type": "node", "id": 4427208180, "lat": 5.9966178, "lon": 80.6853567, "tags": {"amenity": "place_of_worship", "religion": "buddhist"}}, {"type": "node", "id": 4437179892, "lat": 5.9642679, "lon": 80.397901, "tags": {"amenity": "place_of_worship", "religion": "buddhist"}}, {"type": "node", "id": 4437194652, "lat": 5.9786599, "lon": 80.3980848, "tags": {"amenity": "place_of_worship", "religion": "buddhist"}}, {"type": "node", "id": 4437273646, "lat": 5.9821498, "lon": 80.3915254, "tags": {"amenity": "place_of_worship", "name": "Sri Sudarshanarama", "religion": "buddhist"}}, {"type": "node", "id": 4490079442, "lat": 6.4642634, "lon": 80.4260354, "tags": {"addr:city": "Weddagala", "addr:street": "Weddagala-Kudawa Road", "amenity": "place_of_worship", "name": "Sri Sudharmarama Pirivena", "religion": "buddhist"}}, {"type": "node", "id": 4526140763, "lat": 6.1932386, "lon": 80.1216915, "tags": {"addr:city": "Meetiyagoda", "addr:street": "Manampita Road", "amenity": "place_of_worship", "name": "Karuwalabedda Temple", "religion": "buddhist"}}, {"type": "node", "id": 4526140951, "lat": 6.1997105, "lon": 80.1326986, "tags": {"addr:city": "Manampita", "addr:street": "Manampita Road", "amenity": "place_of_worship", "name": "Sri Priyadarshanaramaya", "religion": "buddhist"}}, {"type": "node", "id": 4678848871, "lat": 5.9586815, "lon": 80.6489142, "tags": {"addr:city": "Godauda", "addr:street": "New Tangalle Road", "amenity": "place_of_worship", "name": "Sri Sumanarama Viharaya", "religion": "buddhist"}}, {"type": "node", "id": 4717718745, "lat": 5.9755635, "lon": 80.3653859, "tags": {"amenity": "place_of_worship", "name": "Sri Thilakawardhanaramaya", "religion": "buddhist"}}, {"type": "node", "id": 4729581708, "lat": 6.0693566, "lon": 80.2697294, "tags": {"amenity": "place_of_worship", "name": "Temple", "religion": "buddhist"}}, {"type": "node", "id": 4730175835, "lat": 6.2154508, "lon": 80.2720146, "tags": {"addr:street": "Mapalagama Road", "amenity": "place_of_worship", "name": "Temple", "religion": "buddhist"}}, {"type": "node", "id": 4730194941, "lat": 6.213418, "lon": 80.2397172, "tags": {"amenity": "place_of_worship", "name": "Sri Sumanaramaya", "religion": "buddhist"}}, {"type": "node", "id": 4805909868, "lat": 6.1668457, "lon": 80.4674564, "tags": {"addr:street": "Galle - Deniyaya - Madampe Road", "amenity": "place_of_worship", "name": "Temple", "religion": "buddhist"}}, {"type": "node", "id": 4813538437, "lat": 6.2014408, "lon": 80.4944065, "tags": {"amenity": "place_of_worship", "name": "Temple", "religion": "buddhist"}}, {"type": "node", "id": 4833923097, "lat": 6.2168087, "lon": 80.1075236, "tags": {"amenity": "place_of_worship", "name": "Sri Sudarshi Dhamma School", "religion": "buddhist"}}, {"type": "node", "id": 4850968456, "lat": 6.103338, "lon": 80.5117936, "tags": {"amenity": "place_of_worship", "name": "Temple", "religion": "buddhist"}}, {"type": "node", "id": 4884218731, "lat": 6.1214211, "lon": 80.5619634, "tags": {"amenity": "place_of_worship", "name": "Ransegoda Temple", "religion": "buddhist"}}, {"type": "node", "id": 4887110537, "lat": 5.9468309, "lon": 80.5577634, "tags": {"addr:city": "Matara", "addr:housenumber": "Udapeekwella Road", "addr:postcode": "81000", "addr:street": "Udapeekwella Road", "amenity": "place_of_worship", "name": "Uda Peekwella Temple", "religion": "buddhist"}}, {"type": "node", "id": 4902498407, "lat": 6.2462116, "lon": 81.004056, "tags": {"amenity": "place_of_worship", "name": "Madunagala Aranya Senasanaya", "religion": "buddhist"}}, {"type": "node", "id": 4936550541, "lat": 6.0156792, "lon": 80.7145654, "tags": {"amenity": "place_of_worship", "name": "Sri Jayawardhanaramaya", "religion": "buddhist"}}, {"type": "node", "id": 4975804013, "lat": 6.1410588, "lon": 80.3391257, "tags": {"amenity": "place_of_worship", "name": "Temple", "religion": "buddhist"}}, {"type": "node", "id": 4985071861, "lat": 6.0801162, "lon": 80.5804633, "tags": {"addr:city": "Kamburupitiya", "addr:housenumber": "Boraluketiya", "addr:street": "Kirinda - Kamburupitiya Road", "amenity": "place_of_worship", "name": "Boraluketiya Temple", "religion": "buddhist"}}, {"type": "node", "id": 4985104434, "lat": 6.0796517, "lon": 80.5906033, "tags": {"addr:city": "Thumbe", "addr:street": "Kirinda - Kamburupitiya Road", "amenity": "place_of_worship", "name": "Thumbe Sri Bodhirukkaramaya", "religion": "buddhist"}}, {"type": "node", "id": 4985110724, "lat": 6.0709226, "lon": 80.5984972, "tags": {"amenity": "place_of_worship", "name": "Jayasinharamaya", "religion": "buddhist"}}, {"type": "node", "id": 4987745798, "lat": 6.0680021, "lon": 80.5278291, "tags": {"amenity": "place_of_worship", "name": "Temple", "religion": "buddhist"}}, {"type": "node", "id": 4987745860, "lat": 6.0620099, "lon": 80.519875, "tags": {"amenity": "place_of_worship", "name": "Temple", "religion": "buddhist"}}, {"type": "node", "id": 5013484003, "lat": 6.3497612, "lon": 80.2098714, "tags": {"amenity": "place_of_worship", "name": "Temple", "religion": "buddhist"}}, {"type": "node", "id": 5015759772, "lat": 6.2893416, "lon": 80.1131354, "tags": {"amenity": "place_of_worship", "name": "Temple", "religion": "buddhist"}}, {"type": "node", "id": 5017419707, "lat": 6.3511967, "lon": 80.1145685, "tags": {"amenity": "place_of_worship", "name": "Temple", "religion": "buddhist"}}, {"type": "node", "id": 5022179356, "lat": 6.4649009, "lon": 80.1244497, "tags": {"amenity": "place_of_worship", "name": "Temple", "religion": "buddhist"}}, {"type": "node", "id": 5041289105, "lat": 6.0992068, "lon": 80.6537354, "tags": {"amenity": "place_of_worship", "name": "Temple", "religion": "buddhist"}}, {"type": "node", "id": 5041289546, "lat": 5.9944999, "lon": 80.6710169, "tags": {"amenity": "place_of_worship", "name": "Temple", "religion": "buddhist"}}, {"type": "node", "id": 5051961371, "lat": 6.2329865, "lon": 80.5591076, "tags": {"amenity": "place_of_worship", "name": "Temple", "religion": "buddhist"}}, {"type": "node", "id": 5078365070, "lat": 6.3381397, "lon": 80.1481041, "tags": {"amenity": "place_of_worship", "name": "Sri Sudharshanaramaya", "religion": "buddhist"}}, {"type": "node", "id": 5141631683, "lat": 6.009775, "lon": 80.628517, "tags": {"amenity": "place_of_worship", "name": "Temple", "religion": "buddhist"}}, {"type": "node", "id": 5154634780, "lat": 6.4399797, "lon": 80.5125278, "tags": {"amenity": "place_of_worship", "name": "Kathlana Sri Lenagiri viharaya", "religion": "buddhist"}}, {"type": "node", "id": 5154647071, "lat": 6.4250459, "lon": 80.5487873, "tags": {"amenity": "place_of_worship", "denomination": "theravada", "name": "Milinduthalawa Wana Senasuna", "religion": "buddhist"}}, {"type": "node", "id": 5154653525, "lat": 6.4241291, "lon": 80.5200461, "tags": {"amenity": "place_of_worship", "denomination": "theravada", "name": "Pothupitiya sri Gangaramaya", "religion": "buddhist"}}, {"type": "node", "id": 5164215684, "lat": 6.4506461, "lon": 80.4445097, "tags": {"amenity": "place_of_worship", "religion": "buddhist"}}, {"type": "node", "id": 5164790194, "lat": 6.4451424, "lon": 80.4578564, "tags": {"amenity": "place_of_worship", "religion": "buddhist"}}, {"type": "node", "id": 5182259225, "lat": 6.0222854, "lon": 80.2494033, "tags": {"amenity": "place_of_worship"}}, {"type": "node", "id": 5182259244, "lat": 6.0224856, "lon": 80.2491772, "tags": {"amenity": "place_of_worship"}}, {"type": "node", "id": 5226618827, "lat": 6.0290167, "lon": 80.2176152, "tags": {"amenity": "place_of_worship", "religion": "buddhist"}}, {"type": "node", "id": 5259518392, "lat": 6.4355847, "lon": 80.643885, "tags": {"amenity": "place_of_worship", "name": "Buddhist Temple", "religion": "buddhist"}}, {"type": "node", "id": 5265641784, "lat": 5.9946116, "lon": 80.3273316, "tags": {"addr:city": "Koggala", "amenity": "place_of_worship", "name": "Weduwa Buddhist Monastery", "religion": "buddhist"}}, {"type": "node", "id": 5265641785, "lat": 6.0007589, "lon": 80.324381, "tags": {"addr:city": "Koggala", "amenity": "place_of_worship", "image": "https://photos.app.goo.gl/yaKqZJZbpA8n7rHZ7", "name": "Talatuduwa Buddhist Temple & Meditation Centre.", "religion": "buddhist"}}, {"type": "node", "id": 5265641786, "lat": 6.0426276, "lon": 80.346946, "tags": {"addr:city": "Koggala", "amenity": "place_of_worship", "name": "Akkara Panaha Monastery", "religion": "buddhist"}}, {"type": "node", "id": 5265641790, "lat": 6.094088, "lon": 80.3438197, "tags": {"amenity": "place_of_worship", "name": "Maluwegoda Aranya Senasanaya", "religion": "buddhist"}}, {"type": "node", "id": 5265734681, "lat": 6.1033813, "lon": 80.3100441, "tags": {"amenity": "place_of_worship", "name:en": "Kottawa Nagaaranya Aranya Senasanaya", "religion": "buddhist"}}, {"type": "node", "id": 5265734682, "lat": 5.9773777, "lon": 80.5978113, "tags": {"amenity": "place_of_worship", "name": "Ellakanda Aranya Senasanaya", "religion": "buddhist"}}, {"type": "node", "id": 5265734683, "lat": 6.044289, "lon": 80.5885928, "tags": {"amenity": "place_of_worship", "name": "Batuwita Aranya Senasanaya", "religion": "buddhist"}}, {"type": "node", "id": 5265745757, "lat": 6.2383549, "lon": 81.0043603, "tags": {"amenity": "place_of_worship", "name": "Karandulena Aranya Senasanaya", "religion": "buddhist"}}, {"type": "node", "id": 5265745758, "lat": 6.496211, "lon": 80.6587728, "tags": {"amenity": "place_of_worship", "name": "Malwessawa Aranya Senasanaya", "religion": "buddhist"}}, {"type": "node", "id": 5282048942, "lat": 6.1075836, "lon": 80.1391779, "tags": {"amenity": "place_of_worship", "name": "Polgasduwa Aranya Senasanaya", "religion": "buddhist"}}, {"type": "node", "id": 5282048944, "lat": 6.2549663, "lon": 80.1982961, "tags": {"amenity": "place_of_worship", "image": "https://photos.app.goo.gl/HTELpBnUCw3SWfmt9", "name": "Divankaralena Aranya Senasanaya", "religion": "buddhist", "url": "https://youtu.be/qf4-D6VNJpU"}}, {"type": "node", "id": 5282048945, "lat": 6.2669886, "lon": 80.1744906, "tags": {"addr:street": "Elpitiya-Pituwala-Kahaduwa Road", "amenity": "place_of_worship", "image": "https://photos.app.goo.gl/Cxg9z85mHDkfm2157", "name": "Digalena Aranya Senasanaya", "religion": "buddhist"}}, {"type": "node", "id": 5282071688, "lat": 6.3867294, "lon": 80.1634481, "tags": {"amenity": "place_of_worship", "name": "Yakgirilena Weligalpoththa Aranya Senasanaya", "religion": "buddhist", "wheelchair": "yes"}}, {"type": "node", "id": 5282071689, "lat": 6.4390636, "lon": 80.2466574, "tags": {"amenity": "place_of_worship", "name": "Kalugala Aranya Senasanaya", "religion": "buddhist"}}, {"type": "node", "id": 5282071690, "lat": 6.4617417, "lon": 80.2240262, "tags": {"amenity": "place_of_worship", "name": "Thundora Aranya Senasanaya", "religion": "buddhist"}}, {"type": "node", "id": 5284007022, "lat": 6.4091788, "lon": 80.109842, "tags": {"amenity": "place_of_worship", "name:en": "Pahura kanda temple"}}, {"type": "node", "id": 5293133784, "lat": 6.1144073, "lon": 80.6528087, "tags": {"amenity": "place_of_worship", "denomination": "theravada", "name": "Arambegoda Purana Rajamaha Viharaya", "religion": "buddhist"}}, {"type": "node", "id": 5293135398, "lat": 6.1143246, "lon": 80.6403083, "tags": {"amenity": "place_of_worship", "name": "Temple", "religion": "buddhist"}}, {"type": "node", "id": 5322034747, "lat": 6.4672209, "lon": 80.1060712, "tags": {"amenity": "place_of_worship", "name": "Temple", "religion": "buddhist"}}, {"type": "node", "id": 5346941093, "lat": 6.4399828, "lon": 80.1130659, "tags": {"amenity": "place_of_worship", "denomination": "theravada", "name": "Pannila Buddhist Temple", "religion": "buddhist"}}, {"type": "node", "id": 5389587791, "lat": 6.0658573, "lon": 80.2964383, "tags": {"amenity": "place_of_worship", "religion": "buddhist"}}, {"type": "node", "id": 5389588197, "lat": 6.0622606, "lon": 80.2805449, "tags": {"amenity": "place_of_worship", "name": "Buddhist Temple", "religion": "buddhist"}}, {"type": "node", "id": 5389588216, "lat": 6.0512222, "lon": 80.2904195, "tags": {"amenity": "place_of_worship", "name": "Buddhist Temple", "religion": "buddhist"}}, {"type": "node", "id": 5456582351, "lat": 6.2268665, "lon": 80.7452877, "tags": {"amenity": "place_of_worship", "name": "Temple", "religion": "buddhist"}}, {"type": "node", "id": 5456601882, "lat": 6.0717466, "lon": 80.734145, "tags": {"amenity": "place_of_worship", "name": "Temple", "religion": "buddhist"}}, {"type": "node", "id": 5468664567, "lat": 5.9484631, "lon": 80.4557669, "tags": {"amenity": "place_of_worship", "religion": "buddhist"}}, {"type": "node", "id": 5493691154, "lat": 6.3503693, "lon": 80.1756251, "tags": {"amenity": "place_of_worship", "name": "Temple", "religion": "buddhist"}}, {"type": "node", "id": 5495104345, "lat": 6.2321988, "lon": 80.3074971, "tags": {"amenity": "place_of_worship", "name": "Temple", "religion": "buddhist"}}, {"type": "node", "id": 5675599573, "lat": 5.954102, "lon": 80.5925621, "tags": {"addr:street": "Matara-Kekanadura-Yatiyana Road", "amenity": "place_of_worship", "name": "Sudharmarama Purana Viharaya", "religion": "buddhist"}}, {"type": "node", "id": 5675621441, "lat": 5.9535492, "lon": 80.5922719, "tags": {"addr:street": "Matara-Kekanadura-Yatiyana Road", "amenity": "place_of_worship", "name": "Vidyarathne Pirivena", "religion": "buddhist"}}, {"type": "node", "id": 5675866252, "lat": 5.9388937, "lon": 80.5924974, "tags": {"amenity": "place_of_worship", "name": "Wandurudeniya Purana Rajamaha Viharaya", "religion": "buddhist"}}, {"type": "node", "id": 5696059250, "lat": 6.3905162, "lon": 80.1133745, "tags": {"amenity": "place_of_worship", "name": "Temple", "religion": "buddhist"}}, {"type": "node", "id": 5696249139, "lat": 6.3416923, "lon": 80.1184669, "tags": {"amenity": "place_of_worship", "name": "Temple", "religion": "buddhist"}}, {"type": "node", "id": 5723369693, "lat": 6.4801067, "lon": 80.1956409, "tags": {"amenity": "place_of_worship", "denomination": "theravada", "name": "Temple", "religion": "buddhist"}}, {"type": "node", "id": 6224233756, "lat": 6.2054555, "lon": 80.4781738, "tags": {"addr:city": "Pitabeddara", "amenity": "place_of_worship", "name": "Sri Gangagiri Viharaya", "religion": "buddhist"}}, {"type": "node", "id": 6248070780, "lat": 5.9463358, "lon": 80.4552066, "tags": {"amenity": "place_of_worship", "name": "Sri Sunandarama Piriven Viharaya", "religion": "buddhist"}}, {"type": "node", "id": 6257451767, "lat": 6.4844859, "lon": 81.1311945, "tags": {"amenity": "place_of_worship", "religion": "buddhist"}}, {"type": "node", "id": 6260672362, "lat": 5.955876, "lon": 80.4535092, "tags": {"amenity": "place_of_worship", "name": "Samudragiri Viharaya", "religion": "buddhist"}}, {"type": "node", "id": 6269905348, "lat": 6.043147, "lon": 80.2814636, "tags": {"amenity": "place_of_worship", "name": "Meegoda Sri Poorwaramaya", "religion": "buddhist"}}, {"type": "node", "id": 6404167287, "lat": 6.0745896, "lon": 80.6849053, "tags": {"amenity": "place_of_worship", "name": "Poththewela Sri Jinaraja Maha Piriwen Viharaya", "religion": "buddhist"}}, {"type": "node", "id": 6409373416, "lat": 6.0265334, "lon": 80.3086491, "tags": {"amenity": "place_of_worship", "name": "Welikonda Sri Sandassanarama Viharaya", "religion": "buddhist"}}, {"type": "node", "id": 6443888501, "lat": 6.4393667, "lon": 80.1906788, "tags": {"amenity": "place_of_worship", "name": "Meegahathenna Temple", "religion": "buddhist"}}, {"type": "node", "id": 6541820591, "lat": 6.1356251, "lon": 80.1130208, "tags": {"amenity": "place_of_worship", "religion": "buddhist"}}, {"type": "node", "id": 6545699531, "lat": 6.0764796, "lon": 80.1654439, "tags": {"amenity": "place_of_worship", "denomination": "theravada", "name": "Sri Sudarmarama Purana Viharaya", "religion": "buddhist"}}, {"type": "node", "id": 6552390567, "lat": 6.0928893, "lon": 80.1679597, "tags": {"amenity": "place_of_worship", "name": "Sri Nigrodharamaya", "religion": "buddhist"}}, {"type": "node", "id": 6676219135, "lat": 5.9430096, "lon": 80.6168495, "tags": {"amenity": "place_of_worship", "religion": "buddhist"}}, {"type": "node", "id": 6679844851, "lat": 6.243255, "lon": 80.735694, "tags": {"amenity": "place_of_worship", "religion": "buddhist"}}, {"type": "node", "id": 6732001611, "lat": 6.3348021, "lon": 80.1842549, "tags": {"amenity": "place_of_worship", "religion": "buddhist"}}, {"type": "node", "id": 6732023295, "lat": 6.3293058, "lon": 80.1832247, "tags": {"amenity": "place_of_worship", "religion": "buddhist"}}, {"type": "node", "id": 6827970718, "lat": 6.0303275, "lon": 80.3823245, "tags": {"amenity": "place_of_worship", "name": "Samadhi Sri Sambuddha Viharaya", "religion": "buddhist"}}, {"type": "node", "id": 6916069843, "lat": 5.9990605, "lon": 80.4566378, "tags": {"amenity": "place_of_worship", "religion": "buddhist"}}, {"type": "node", "id": 7026190455, "lat": 6.3372945, "lon": 80.5207792, "tags": {"amenity": "place_of_worship", "religion": "buddhist"}}, {"type": "node", "id": 7026194302, "lat": 6.3699713, "lon": 80.456239, "tags": {"amenity": "place_of_worship", "religion": "buddhist"}}, {"type": "node", "id": 7026194307, "lat": 6.3478241, "lon": 80.491287, "tags": {"amenity": "place_of_worship", "religion": "buddhist"}}, {"type": "node", "id": 7039086222, "lat": 6.3815987, "lon": 81.0237676, "tags": {"amenity": "place_of_worship", "religion": "buddhist"}}, {"type": "node", "id": 7039205140, "lat": 6.2608467, "lon": 80.2628463, "tags": {"amenity": "place_of_worship", "religion": "buddhist"}}, {"type": "node", "id": 7039223217, "lat": 6.2685733, "lon": 80.2422765, "tags": {"amenity": "place_of_worship", "religion": "buddhist"}}, {"type": "node", "id": 7046520771, "lat": 6.3673993, "lon": 80.5939333, "tags": {"amenity": "place_of_worship", "religion": "buddhist"}}, {"type": "node", "id": 7100606898, "lat": 6.0223485, "lon": 80.797252, "tags": {"amenity": "place_of_worship", "denomination": "roman_catholic", "religion": "christian"}}, {"type": "node", "id": 7106468199, "lat": 5.9621327, "lon": 80.6661542, "tags": {"amenity": "place_of_worship", "natural": "tree", "religion": "buddhist"}}, {"type": "node", "id": 7160170909, "lat": 5.9359192, "lon": 80.5322247, "tags": {"amenity": "place_of_worship", "religion": "buddhist", "ruins": "yes", "wheelchair": "no"}}, {"type": "node", "id": 7232117685, "lat": 5.9480066, "lon": 80.6354521, "tags": {"amenity": "place_of_worship", "religion": "buddhist"}}, {"type": "node", "id": 7245540873, "lat": 6.1988803, "lon": 81.0993254, "tags": {"amenity": "place_of_worship", "religion": "buddhist"}}, {"type": "node", "id": 7775247977, "lat": 6.3351893, "lon": 80.3379415, "tags": {"amenity": "place_of_worship", "name": "Ashokaramaya Temple", "religion": "buddhist"}}, {"type": "node", "id": 7775397115, "lat": 6.307506, "lon": 80.2518547, "tags": {"amenity": "place_of_worship", "name": "Matthaka Sri Bodhi Nigrodharamaya", "office": "religion", "religion": "buddhist"}}, {"type": "node", "id": 7775414124, "lat": 6.3268532, "lon": 80.2511794, "tags": {"amenity": "place_of_worship", "name": "Dewapriya Aramaya", "office": "religion", "religion": "buddhist"}}, {"type": "node", "id": 7775648625, "lat": 6.2955303, "lon": 80.3189903, "tags": {"amenity": "place_of_worship", "name": "Senkulu kanyaramaya", "religion": "christian"}}, {"type": "node", "id": 7775916505, "lat": 6.3739217, "lon": 80.2374177, "tags": {"amenity": "place_of_worship", "name": "Sri Vivekaramaya", "name:si": "\u0dc1\u0dca\u200d\u0dbb\u0dd3 \u0dc0\u0dd2\u0dc0\u0dda\u0d9a\u0dcf\u0dbb\u0dcf\u0db8\u0dba", "religion": "buddhist"}}, {"type": "node", "id": 7777240650, "lat": 6.2351758, "lon": 80.3337157, "tags": {"amenity": "place_of_worship", "name": "Sri Sudharmaramaya,Gallandala", "religion": "buddhist"}}, {"type": "node", "id": 7777278761, "lat": 6.263229, "lon": 80.3241764, "tags": {"amenity": "place_of_worship", "name": "Gangaramaya Temple", "religion": "buddhist"}}, {"type": "node", "id": 7777677655, "lat": 6.2921045, "lon": 80.3806624, "tags": {"amenity": "place_of_worship", "name": "Mahamewnawa Bawana Asapuwa,Thalangalla.", "religion": "buddhist"}}, {"type": "node", "id": 7777690054, "lat": 6.2509309, "lon": 80.4208204, "tags": {"amenity": "place_of_worship", "name": "Sri Pantharama Temple,weerwpana,Opatha.", "religion": "buddhist"}}, {"type": "node", "id": 7777942554, "lat": 6.3169381, "lon": 80.3556347, "tags": {"amenity": "place_of_worship", "name": "Subhashitharama Temple Road", "religion": "buddhist"}}, {"type": "node", "id": 7779803059, "lat": 6.3484563, "lon": 80.3393456, "tags": {"amenity": "place_of_worship", "name": "Sri Vijayakanda Rajamaha Viharaya", "religion": "buddhist"}}, {"type": "node", "id": 7780308977, "lat": 6.3519645, "lon": 80.3334239, "tags": {"amenity": "place_of_worship", "name": "Habarakada Jethwanaramaya", "religion": "buddhist"}}, {"type": "node", "id": 7780684026, "lat": 6.2594523, "lon": 80.3149563, "tags": {"amenity": "place_of_worship", "name": "Nagala Aranya Temple,Eppala.", "religion": "buddhist"}}, {"type": "node", "id": 7781410217, "lat": 6.3139216, "lon": 80.3168063, "tags": {"amenity": "place_of_worship", "name": "Hiniduma Methodist Church", "religion": "christian"}}, {"type": "node", "id": 7781410219, "lat": 6.3003318, "lon": 80.317448, "tags": {"amenity": "place_of_worship", "name": "Calvary Church Hiniduma", "religion": "christian"}}, {"type": "node", "id": 7781410224, "lat": 6.3116942, "lon": 80.3177485, "tags": {"amenity": "place_of_worship", "name": "Hiniduma Shasanodaramaya", "religion": "buddhist"}}, {"type": "node", "id": 7781439460, "lat": 6.3323935, "lon": 80.3340885, "tags": {"amenity": "place_of_worship", "name": "Otunugala Aranya Yogashramaya.", "religion": "buddhist"}}, {"type": "node", "id": 7905128491, "lat": 6.088421, "lon": 80.151767, "tags": {"District": "Galle district", "amenity": "place_of_worship", "city": "Boossa", "name": "Methmaga Meditation Center,Ratgama,Ovakanda"}}, {"type": "node", "id": 8258242231, "lat": 6.1654943, "lon": 80.5862188, "tags": {"amenity": "place_of_worship", "religion": "buddhist"}}, {"type": "node", "id": 8326720866, "lat": 6.1598708, "lon": 80.135728, "tags": {"addr:city": "Gonapinuwala", "addr:street": "Woodlandwatta", "amenity": "place_of_worship", "name": "Woodlandwatta  Buddhist Centre", "religion": "buddhist"}}, {"type": "node", "id": 8392672671, "lat": 5.9824382, "lon": 80.4423954, "tags": {"amenity": "place_of_worship", "religion": "buddhist"}}, {"type": "node", "id": 8407882223, "lat": 5.9661921, "lon": 80.456892, "tags": {"amenity": "place_of_worship", "religion": "buddhist"}}, {"type": "node", "id": 8496672303, "lat": 5.9644919, "lon": 80.4059127, "tags": {"amenity": "place_of_worship", "religion": "buddhist"}}, {"type": "node", "id": 8659654278, "lat": 6.1173916, "lon": 81.0809657, "tags": {"amenity": "place_of_worship", "name": "Kathirkamam Temple", "religion": "buddhist"}}, {"type": "node", "id": 9046850561, "lat": 6.021324, "lon": 80.3478777, "tags": {"amenity": "place_of_worship", "name": "Meth Boo Sewana Meditation Center", "religion": "buddhist", "url": "https://youtu.be/Tbl8Nq_ezVE?si=_n3SgDYy8k5nA4CJ"}}, {"type": "node", "id": 9125521641, "lat": 6.2906367, "lon": 80.2193946, "tags": {"amenity": "place_of_worship", "name": "Sri Sumanarama Viharaya", "name:si": "\u0dc1\u0dca\u200d\u0dbb\u0dd3 \u0dc3\u0dd4\u0db8\u0db1\u0dcf\u0dbb\u0dcf\u0db8\u0dba", "religion": "buddhist", "wheelchair": "limited"}}, {"type": "node", "id": 9128438465, "lat": 6.4019206, "lon": 80.3863176, "tags": {"amenity": "place_of_worship", "name": "Sinha Lena Thapo Wanaya Aranya Senasuna", "name:si": "\u0dc3\u0dd2\u0d82\u0dc4 \u0dbd\u0dd9\u0db1 \u0dad\u0db4\u0ddd\u0dc0\u0db1\u0dba \u0d85\u0dbb\u0dab\u0dca\u200d\u0dba \u0dc3\u0dda\u0db1\u0dcf\u0dc3\u0db1\u0dba", "religion": "buddhist", "wheelchair": "no"}}, {"type": "node", "id": 9133063877, "lat": 6.1358665, "lon": 80.8126241, "tags": {"amenity": "place_of_worship", "name": "Kasagala Raja Maha Viharaya", "religion": "buddhist"}}, {"type": "node", "id": 9133072946, "lat": 6.1897874, "lon": 81.1513324, "tags": {"amenity": "place_of_worship", "name": "Weheragala Aranya Senasanaya", "religion": "buddhist"}}, {"type": "node", "id": 9138177491, "lat": 6.2875952, "lon": 80.5395163, "tags": {"amenity": "place_of_worship", "name": "Gatabaruwa Raja Maha Viharaya", "religion": "buddhist"}}, {"type": "node", "id": 9139626447, "lat": 6.268788, "lon": 80.104797, "tags": {"amenity": "place_of_worship", "name": "Randola Viharaya", "name:si": "\u0dbb\u0db1\u0dca\u0daf\u0ddc\u0dbd \u0dc0\u0dd2\u0dc4\u0dcf\u0dbb\u0dba", "religion": "buddhist"}}, {"type": "node", "id": 9139651867, "lat": 6.3226225, "lon": 80.1580112, "tags": {"amenity": "place_of_worship", "name": "Sri Vijayaramaya", "religion": "buddhist"}}, {"type": "node", "id": 9139674353, "lat": 6.3241946, "lon": 80.1577044, "tags": {"amenity": "place_of_worship", "name": "St. Lucia\u2019s Church Katapola", "religion": "christian"}}, {"type": "node", "id": 9139677375, "lat": 6.372352, "lon": 80.1832532, "tags": {"amenity": "place_of_worship", "name": "Deyyagala Aranya Senasanaya", "name:si": "\u0daf\u0dd9\u0dba\u0dd2\u0dba\u0dcf\u0d9c\u0dbd \u0d85\u0dbb\u0dab\u0dca\u200d\u0dba \u0dc3\u0dda\u0db1\u0dcf\u0dc3\u0db1\u0dba", "religion": "buddhist"}}, {"type": "node", "id": 9147387414, "lat": 6.3176887, "lon": 80.2162273, "tags": {"amenity": "place_of_worship", "name": "Jayasumanarama Purana Maha Viharaya", "religion": "buddhist"}}, {"type": "node", "id": 9263165690, "lat": 5.9571317, "lon": 80.6309205, "tags": {"amenity": "place_of_worship", "religion": "buddhist"}}, {"type": "node", "id": 9269367387, "lat": 5.9918848, "lon": 80.7312156, "tags": {"amenity": "place_of_worship", "religion": "buddhist"}}, {"type": "node", "id": 9315266447, "lat": 6.0069448, "lon": 80.4168584, "tags": {"amenity": "place_of_worship", "religion": "buddhist"}}, {"type": "node", "id": 9451837799, "lat": 6.0234496, "lon": 80.7948915, "tags": {"amenity": "place_of_worship", "denomination": "methodist", "name": "Methodist Church Tangalle", "name:ur": "\u0645\u06cc\u062a\u06be\u0648\u0688\u0633\u0679 \u0686\u0631\u0686 \u062a\u0627\u0646\u06af\u0627\u0644", "religion": "christian"}}, {"type": "node", "id": 9504129499, "lat": 5.9621504, "lon": 80.7179992, "tags": {"amenity": "place_of_worship", "name": "Nilwella Minikirula Viharaya"}}, {"type": "node", "id": 9719677732, "lat": 6.356552, "lon": 81.0055093, "tags": {"amenity": "place_of_worship", "name": "Buddhist Temple -  KDU Southern Campus", "religion": "buddhist"}}, {"type": "node", "id": 9724400963, "lat": 5.9733435, "lon": 80.4310138, "tags": {"amenity": "place_of_worship", "religion": "buddhist"}}, {"type": "node", "id": 9861982152, "lat": 6.0813412, "lon": 80.5665121, "tags": {"amenity": "place_of_worship", "name": "Kamburupitiya Bodhiya", "religion": "buddhist", "service_times": "24/7"}}, {"type": "node", "id": 9924091245, "lat": 5.9683435, "lon": 80.6098281, "tags": {"addr:street": "Matara-Kekanadura-Yatiyana Road, Parawahera", "amenity": "place_of_worship", "name": "Lankaramaya Kekanadura", "religion": "buddhist"}}, {"type": "node", "id": 10123662453, "lat": 6.3033329, "lon": 80.8352999, "tags": {"addr:city": "embilipitiya", "addr:postcode": "70200", "amenity": "place_of_worship", "religion": "buddhist"}}, {"type": "node", "id": 10124656080, "lat": 6.3023909, "lon": 80.8296625, "tags": {"addr:city": "embilipitiya", "addr:postcode": "70200", "addr:street": "Embilipitiya-Middeniya Road", "amenity": "place_of_worship", "name": "sri rathanajothi temple", "religion": "buddhist"}}, {"type": "node", "id": 10126798669, "lat": 6.2095749, "lon": 80.800753, "tags": {"amenity": "place_of_worship", "religion": "buddhist"}}, {"type": "node", "id": 10128626014, "lat": 6.280615, "lon": 80.8103712, "tags": {"addr:city": "embilipitiya", "addr:postcode": "70200", "addr:street": "kudagoda-bogasyaya road", "amenity": "place_of_worship", "name": "bogasyaya temple", "religion": "buddhist"}}, {"type": "node", "id": 10131009869, "lat": 6.3319207, "lon": 80.8548308, "tags": {"amenity": "place_of_worship", "religion": "buddhist"}}, {"type": "node", "id": 10718003501, "lat": 6.469207, "lon": 80.1109015, "tags": {"amenity": "place_of_worship", "religion": "buddhist"}}, {"type": "node", "id": 10718062565, "lat": 6.4800939, "lon": 80.126748, "tags": {"amenity": "place_of_worship", "name": "Horawala", "religion": "buddhist"}}, {"type": "node", "id": 10718065958, "lat": 6.4924997, "lon": 80.1256536, "tags": {"amenity": "place_of_worship", "religion": "buddhist"}}, {"type": "node", "id": 10718071087, "lat": 6.4994273, "lon": 80.1228205, "tags": {"amenity": "place_of_worship", "religion": "buddhist"}}, {"type": "node", "id": 10726427589, "lat": 5.9734924, "lon": 80.5271598, "tags": {"amenity": "place_of_worship", "religion": "buddhist"}}, {"type": "node", "id": 10737986631, "lat": 6.0301813, "lon": 80.3822046, "tags": {"amenity": "place_of_worship"}}, {"type": "node", "id": 10760867325, "lat": 5.9446927, "lon": 80.5430269, "tags": {"amenity": "place_of_worship", "name": "Christ's Faith", "religion": "christian"}}, {"type": "node", "id": 10760867331, "lat": 5.9420361, "lon": 80.5369777, "tags": {"amenity": "place_of_worship"}}, {"type": "node", "id": 10760867352, "lat": 5.9406789, "lon": 80.5288134, "tags": {"amenity": "place_of_worship", "religion": "buddhist"}}, {"type": "node", "id": 10778145947, "lat": 5.9271463, "lon": 80.5883953, "tags": {"amenity": "place_of_worship", "artwork_type": "statue", "image": "https://photos.app.goo.gl/MqqPkFUX34iNDBp1A", "name": "Buddha Statue", "tourism": "artwork"}}, {"type": "node", "id": 10780360547, "lat": 5.941758, "lon": 80.4660608, "tags": {"amenity": "place_of_worship", "religion": "buddhist"}}, {"type": "node", "id": 10780360554, "lat": 5.940544, "lon": 80.4912195, "tags": {"amenity": "place_of_worship", "religion": "buddhist"}}, {"type": "node", "id": 10781087605, "lat": 6.0690819, "lon": 80.8439427, "tags": {"amenity": "place_of_worship", "name:en": "Big standing Buddha"}}, {"type": "node", "id": 10781087705, "lat": 6.3952219, "lon": 81.148413, "tags": {"amenity": "place_of_worship", "name:en": "Temple with line of statues of monks in orange"}}, {"type": "node", "id": 10854085200, "lat": 6.0417724, "lon": 80.7465032, "tags": {"amenity": "place_of_worship", "name": "Sri Pantharamaya", "religion": "buddhist"}}, {"type": "node", "id": 10854194919, "lat": 6.0486873, "lon": 80.8129312, "tags": {"amenity": "place_of_worship", "name": "Siri Visuddharama Temple", "religion": "buddhist"}}, {"type": "node", "id": 10932046608, "lat": 6.1821899, "lon": 80.411174, "tags": {"amenity": "place_of_worship", "name:en": "Dediyagala Aranya Senasanaya", "religion": "buddhist"}}, {"type": "node", "id": 10933092765, "lat": 5.9351929, "lon": 80.6112077, "tags": {"amenity": "place_of_worship", "religion": "buddhist"}}, {"type": "node", "id": 10933331458, "lat": 6.082386, "lon": 80.7429838, "tags": {"amenity": "place_of_worship", "religion": "buddhist"}}, {"type": "node", "id": 10949946082, "lat": 6.1867788, "lon": 80.5228834, "tags": {"amenity": "place_of_worship", "religion": "buddhist"}}, {"type": "node", "id": 10949946090, "lat": 6.1862285, "lon": 80.5234321, "tags": {"amenity": "place_of_worship", "name:en": "Elamaldeniya Rajamaha Viharaya", "religion": "buddhist"}}, {"type": "node", "id": 10949946091, "lat": 6.1833898, "lon": 80.5217727, "tags": {"amenity": "place_of_worship", "name:en": "Elamaldeniya Rajamaha Viharaya", "religion": "buddhist"}}, {"type": "node", "id": 10949946092, "lat": 6.1657155, "lon": 80.5261875, "tags": {"amenity": "place_of_worship", "name:en": "Urumuththa Rajjuru Bandara Devalaya", "religion": "buddhist"}}, {"type": "node", "id": 10949947882, "lat": 6.185321, "lon": 80.5230896, "tags": {"amenity": "place_of_worship", "religion": "buddhist"}}, {"type": "node", "id": 10969124348, "lat": 6.0326951, "lon": 80.2338624, "tags": {"amenity": "place_of_worship", "religion": "buddhist"}}, {"type": "node", "id": 10994212989, "lat": 6.0436241, "lon": 80.7297088, "tags": {"amenity": "place_of_worship", "name": "#temple", "religion": "buddhist"}}, {"type": "node", "id": 11068291448, "lat": 6.154032, "lon": 80.8300694, "tags": {"amenity": "place_of_worship", "name": "Hakuruwela purana rajamaha wiharaya", "religion": "buddhist"}}, {"type": "node", "id": 11164437009, "lat": 6.18085, "lon": 80.1348273, "tags": {"amenity": "place_of_worship", "name": "Aluthwala Purana Nandarama Viharaya", "religion": "buddhist"}}, {"type": "node", "id": 11169110353, "lat": 6.1266625, "lon": 80.4932373, "tags": {"addr:city": "akureassa", "addr:street": "porathota.Akuressa", "amenity": "place_of_worship", "name": "Sri Bhoddirukkarama purana Viharaya", "religion": "buddhist"}}, {"type": "node", "id": 11381111968, "lat": 6.0875822, "lon": 80.2008837, "tags": {"addr:street": "Batuwanthuduwa Road", "amenity": "place_of_worship", "denomination": "theravada", "name": "Sri Sugatharama Viharaya", "religion": "buddhist"}}, {"type": "node", "id": 12057906881, "lat": 6.1153967, "lon": 80.1714662, "tags": {"amenity": "place_of_worship", "name:en": "Galathota Temple", "religion": "buddhist"}}, {"type": "node", "id": 12224019616, "lat": 6.321767, "lon": 80.8412456, "tags": {"amenity": "place_of_worship", "name": "dakma class"}}, {"type": "node", "id": 12367974465, "lat": 5.9202599, "lon": 80.5887321, "tags": {"amenity": "place_of_worship"}}, {"type": "node", "id": 12468142827, "lat": 5.9366287, "lon": 80.5258927, "tags": {"amenity": "place_of_worship", "religion": "buddhist"}}, {"type": "node", "id": 12473123847, "lat": 5.9507644, "lon": 80.5042721, "tags": {"amenity": "place_of_worship", "name": "Purana Ethkanda Raja Maha Viharaya - Kamburugamuwa", "religion": "buddhist"}}, {"type": "node", "id": 12518375574, "lat": 5.9686228, "lon": 80.7077837, "tags": {"amenity": "place_of_worship", "religion": "buddhist"}}, {"type": "node", "id": 12623612602, "lat": 6.0572465, "lon": 80.1771665, "tags": {"amenity": "place_of_worship", "name:en": "Mosque"}}, {"type": "node", "id": 12709749719, "lat": 6.0963943, "lon": 80.6704939, "tags": {"air_conditioning": "no", "amenity": "place_of_worship", "denomination": "theravada", "name": "Nikadeniya Sri Purana Viharaya", "name:si": "\u0db1\u0dd2\u0d9a\u0daf\u0dd9\u0dab\u0dd2\u0dba \u0dc1\u0dca\u200d\u0dbb\u0dd3 \u0db4\u0dd4\u0dbb\u0dcf\u0dab \u0dc0\u0dd2\u0dc4\u0dcf\u0dbb\u0dba", "religion": "buddhist"}}, {"type": "node", "id": 12956359381, "lat": 5.9449501, "lon": 80.5459227, "tags": {"amenity": "place_of_worship", "name": "Bo Tree", "natural": "tree"}}, {"type": "node", "id": 13031944671, "lat": 6.1291727, "lon": 80.2281091, "tags": {"amenity": "place_of_worship", "name:en": "Meditation Center", "religion": "buddhist"}}, {"type": "node", "id": 13031944789, "lat": 6.1266825, "lon": 80.2295434, "tags": {"amenity": "place_of_worship", "name:en": "Punchi Sri Padaya Viewpoint", "religion": "buddhist", "tourism": "viewpoint"}}, {"type": "node", "id": 13057979430, "lat": 6.0987702, "lon": 80.6767332, "tags": {"amenity": "place_of_worship"}}, {"type": "node", "id": 13336121453, "lat": 6.0607479, "lon": 80.6477729, "tags": {"amenity": "place_of_worship", "denomination": "theravada", "name": "Karayalkanaththa Rajamaha Viharaya", "religion": "buddhist"}}, {"type": "node", "id": 13350726401, "lat": 6.3395587, "lon": 80.4972494, "tags": {"amenity": "place_of_worship"}}, {"type": "node", "id": 13380401267, "lat": 6.0027679, "lon": 80.6710248, "tags": {"amenity": "place_of_worship", "denomination": "theravada", "name": "Sri Nagawanaramaya", "religion": "buddhist"}}, {"type": "node", "id": 13403988622, "lat": 6.0425172, "lon": 80.6146728, "tags": {"amenity": "place_of_worship", "denomination": "theravada", "name": "Samanamulla Viharaya", "religion": "buddhist"}}, {"type": "node", "id": 13404338645, "lat": 6.1547743, "lon": 80.5840554, "tags": {"amenity": "place_of_worship", "denomination": "theravada", "name": "Sri Vijayaramaya", "religion": "buddhist"}}, {"type": "node", "id": 13404338664, "lat": 6.1450428, "lon": 80.5717301, "tags": {"amenity": "place_of_worship", "denomination": "theravada", "name": "Sri Bodhimaluwa Temple", "religion": "buddhist"}}, {"type": "node", "id": 13404505347, "lat": 6.0642946, "lon": 80.6614827, "tags": {"amenity": "place_of_worship", "denomination": "theravada", "name": "Karathota Bodiya", "religion": "buddhist"}}, {"type": "node", "id": 13404505374, "lat": 6.06622, "lon": 80.6754172, "tags": {"amenity": "place_of_worship", "denomination": "theravada", "name": "Naradda Temple", "religion": "buddhist"}}, {"type": "node", "id": 13412730675, "lat": 6.0790695, "lon": 80.6601067, "tags": {"amenity": "place_of_worship", "denomination": "theravada", "name": "Kotabo Temple", "religion": "buddhist"}}, {"type": "node", "id": 13412998293, "lat": 5.9999227, "lon": 80.6529802, "tags": {"amenity": "place_of_worship", "denomination": "theravada", "name": "Dandeniya Purana Viharaya", "religion": "buddhist"}}, {"type": "node", "id": 13413091269, "lat": 6.0573326, "lon": 80.6850167, "tags": {"amenity": "place_of_worship", "denomination": "theravada", "name": "Ambagasdeniya Sri Pantharamaya", "religion": "buddhist"}}, {"type": "node", "id": 13423660244, "lat": 6.1117871, "lon": 80.6601706, "tags": {"amenity": "place_of_worship", "name": "Sri Sudarshanaramaya Purana Viharaya", "religion": "buddhist"}}, {"type": "node", "id": 13423711048, "lat": 6.1072518, "lon": 80.6451141, "tags": {"amenity": "place_of_worship", "denomination": "theravada", "religion": "buddhist"}}, {"type": "node", "id": 13423818213, "lat": 6.0837768, "lon": 80.6501397, "tags": {"amenity": "place_of_worship", "denomination": "theravada", "name": "Jayasumanarama Maha Viharaya", "religion": "buddhist"}}, {"type": "node", "id": 13423818214, "lat": 6.0821406, "lon": 80.6546464, "tags": {"amenity": "place_of_worship", "denomination": "theravada", "name": "Sri Premasiri Dharmayathanaya", "religion": "buddhist"}}, {"type": "node", "id": 13428136062, "lat": 6.1081511, "lon": 80.6712021, "tags": {"amenity": "place_of_worship", "name": "Obadakanda Purana Viharaya", "religion": "buddhist"}}, {"type": "node", "id": 13442708018, "lat": 6.0530669, "lon": 80.6179354, "tags": {"amenity": "place_of_worship", "name": "Kirinda Maha Viharaya", "religion": "buddhist"}}, {"type": "node", "id": 13502509810, "lat": 6.2674958, "lon": 80.1741284, "tags": {"amenity": "place_of_worship", "image": "https://photos.app.goo.gl/JmY9TkxHNJ4zJPCh7", "religion": "buddhist"}}, {"type": "node", "id": 13695805046, "lat": 6.0783279, "lon": 80.7117512, "tags": {"amenity": "place_of_worship"}}, {"type": "way", "id": 136487388, "center": {"lat": 6.024628, "lon": 80.2186988}, "nodes": [1497177143, 1497177142, 1497177140, 1497177139, 1497177143], "tags": {"addr:street": "Leyn Baan Street", "amenity": "place_of_worship", "building": "yes", "building:colour": "#FFFFFF", "building:levels": "3", "denomination": "sunni", "floor:material": "wood", "height": "11.68", "image": "https://photos.app.goo.gl/RpNoua6WrCdGJKKZ7", "name": "Meeran Jumma Masjid", "religion": "muslim", "roof:colour": "#800000", "roof:height": "3.16", "roof:shape": "hipped"}}, {"type": "way", "id": 137089491, "center": {"lat": 6.0245318, "lon": 80.2175508}, "nodes": [1503789129, 1503789130, 1503789128, 1503789125, 1503789129], "tags": {"amenity": "place_of_worship", "building": "yes", "name": "Zaviya Ummul Fuqarah", "religion": "muslim"}}, {"type": "way", "id": 137189159, "center": {"lat": 6.0248291, "lon": 80.2182315}, "nodes": [1504820287, 4464574774, 1504820284, 1504820286, 4464574775, 1504820285, 1504820287], "tags": {"amenity": "place_of_worship", "building": "yes", "height": "6.82", "image": "https://photos.app.goo.gl/CHDiUYE7RSJVGgcg8", "name": "Jiffry Thaikka", "religion": "muslim", "roof:height": "1.03", "roof:shape": "gabled"}}, {"type": "way", "id": 137292932, "center": {"lat": 6.0384394, "lon": 80.2234987}, "nodes": [1505995584, 1505995588, 1505995580, 1505995590, 1505995567, 1505995589, 1505995566, 1505995564, 1505995565, 1505995570, 1505995584], "tags": {"amenity": "place_of_worship", "name": "Muhiyaddeen Jumma Masjid", "religion": "muslim"}}, {"type": "way", "id": 137293026, "center": {"lat": 6.0408725, "lon": 80.2241144}, "nodes": [1505996679, 1505996678, 1505996683, 1505996682, 1505996681, 1505996680, 1505996679], "tags": {"amenity": "place_of_worship", "name": "Nabaviyya Taikka", "religion": "muslim"}}, {"type": "way", "id": 137493608, "center": {"lat": 6.0346961, "lon": 80.211877}, "nodes": [1508248597, 1508248598, 1508248599, 1508248603, 1508248602, 1508248600, 1508248585, 1508248595, 1508248597], "tags": {"amenity": "place_of_worship", "building": "yes", "name": "Shiwa Shiwa Hindu Temple", "religion": "hindu"}}, {"type": "way", "id": 137493611, "center": {"lat": 6.0335913, "lon": 80.2124623}, "nodes": [1508251525, 1508251523, 4871568882, 4871568881, 4871568879, 1508251533, 4871568878, 4871568877, 4871568876, 4871568880, 4871568875, 4871568874, 4871568873, 4871568872, 4871568925, 4871568871, 4871568870, 4871568869, 1508251524, 1508251525], "tags": {"amenity": "place_of_worship", "building": "temple", "image": "https://photos.app.goo.gl/GKZFuuDErkrtiNNJ6", "name": "Shiwa Hindu Temple", "religion": "hindu"}}, {"type": "way", "id": 137826453, "center": {"lat": 6.0247811, "lon": 80.2185314}, "nodes": [1511431393, 1511431392, 4464814211, 4464814210, 1511431394, 1511431391, 1511431393], "tags": {"amenity": "place_of_worship", "building": "yes", "building:levels": "3", "name": "Zaviya Shazuliyyah", "religion": "muslim", "roof:colour": "#800000", "roof:height": "1.14", "roof:shape": "gabled"}}, {"type": "way", "id": 138623967, "center": {"lat": 6.0258687, "lon": 80.2178471}, "nodes": [1520035109, 1520035112, 1520035116, 1520035105, 1520035109], "tags": {"amenity": "place_of_worship", "building": "mosque", "building:levels": "2", "name": "Aroosiyathul Qadiriyaa Taikka", "religion": "muslim"}}, {"type": "way", "id": 143037733, "center": {"lat": 6.028182, "lon": 80.2170989}, "nodes": [1565163271, 1565163266, 1565163273, 1565163265, 1565163269, 4009180334, 4009180335, 1565163271], "tags": {"amenity": "place_of_worship"}}, {"type": "way", "id": 286371740, "center": {"lat": 5.9541276, "lon": 80.5189978}, "nodes": [2900301960, 2900301961, 2900301962, 2900301963, 2900301960], "tags": {"addr:city": "Matara", "addr:street": "Kotikagoda Rajamaha Vihara Mawatha", "amenity": "place_of_worship", "building": "yes", "name": "Budu Medura", "religion": "buddhist"}}, {"type": "way", "id": 286371861, "center": {"lat": 5.9537732, "lon": 80.5192595}, "nodes": [2900302445, 2900302446, 2900302447, 2900302448, 2900302449, 2900302450, 2900302451, 2900302452, 2900302453, 2900302454, 2900302455, 2900302456, 2900302445], "tags": {"addr:city": "Matara", "addr:street": "Kotikagoda Rajamaha Vihara Mawatha", "amenity": "place_of_worship", "building": "yes", "name": "Darmashalawa", "religion": "buddhist"}}, {"type": "way", "id": 286371892, "center": {"lat": 5.953659, "lon": 80.5187655}, "nodes": [2900302923, 2900302924, 2900302925, 2900302926, 2900302927, 2900302928, 2900302929, 2900302930, 2900302931, 2900302932, 2900302933, 2900302934, 2900302923], "tags": {"amenity": "place_of_worship", "building": "yes", "name": "Awasaya", "religion": "buddhist"}}, {"type": "way", "id": 286372639, "center": {"lat": 5.9455714, "lon": 80.5492814}, "nodes": [2900310665, 2900310667, 2900310668, 2900310669, 2900310670, 2900310671, 12367227340, 2900310672, 2900310673, 2900310674, 2900310675, 2900310676, 2900310677, 2900310678, 2900310679, 2900310680, 2900310665], "tags": {"addr:city": "Matara", "addr:street": "Old Tangalle Road", "amenity": "place_of_worship", "building": "mosque", "building:colour": "white", "building:levels": "1", "image": "https://photos.app.goo.gl/eGgrfqszcgpZBjd56", "name": "Matara Mosque", "religion": "muslim"}}, {"type": "way", "id": 286373879, "center": {"lat": 5.948273, "lon": 80.5470546}, "nodes": [4885745165, 2900322263, 3375877917, 2900322262, 4885745165], "tags": {"addr:city": "Matara", "addr:street": "Anagarika Dharmapala Mawatha", "amenity": "place_of_worship", "building": "temple", "denomination": "theravada", "name": "Matara Bodiya", "religion": "buddhist"}}, {"type": "way", "id": 286528456, "center": {"lat": 6.0191486, "lon": 80.4904326}, "nodes": [2902103885, 10797368572, 2902103891, 10797368570, 10797368566, 2902103892, 10797368567, 10797368573, 2902103893, 10797368571, 2902103894, 10797368574, 10797368568, 10797368564, 2902103895, 10797368565, 10797368569, 2902103887, 2902103885], "tags": {"amenity": "place_of_worship", "building": "yes", "man_made": "stupa", "religion": "buddhist"}}, {"type": "way", "id": 286528905, "center": {"lat": 6.1755446, "lon": 80.1739252}, "nodes": [2902108737, 2902108738, 2902108739, 2902108740, 2902108741, 2902108723, 2902108724, 2902108725, 2902108726, 2902108732, 2902108733, 2902108734, 2902108735, 2902108736, 2902108727, 2902108728, 2902108729, 2902108730, 2902108731, 2902108737], "tags": {"amenity": "place_of_worship", "building": "yes", "name": "Kiribathawila Temple", "religion": "buddhist"}}, {"type": "way", "id": 286531851, "center": {"lat": 6.1305916, "lon": 81.1266057}, "nodes": [2902136856, 2902136857, 2902136858, 2902136859, 2902136856], "tags": {"amenity": "place_of_worship", "building": "yes", "name": "Mosque", "religion": "muslim"}}, {"type": "way", "id": 286550761, "center": {"lat": 6.0133399, "lon": 80.4735543},