{"version": 0.6, "generator": "Overpass API 0.7.62.11 87bfad18", "osm3s": {"timestamp_osm_base": "2026-05-16T05:01:39Z", "copyright": "The data included in this document is from www.openstreetmap.org. The data is made available under ODbL."}, "elements": [{"type": "node", "id": 2576589958, "lat": 6.3791744, "lon": 80.3601966, "tags": {"government": "administrative", "name": "Neluwa DS Division", "office": "government"}}, {"type": "node", "id": 3147027960, "lat": 6.3319448, "lon": 80.8557981, "tags": {"addr:city": "Embilipitiya", "name": "Embilipitiya Urban Council", "office": "government"}}, {"type": "node", "id": 3200280198, "lat": 6.0225387, "lon": 80.7982705, "tags": {"name": "Prison", "office": "government"}}, {"type": "node", "id": 3200334556, "lat": 6.0228376, "lon": 80.7930935, "tags": {"name": "AGA Office", "office": "government"}}, {"type": "node", "id": 3354095825, "lat": 6.0361024, "lon": 80.2166135, "tags": {"addr:street": "Wakwella Road", "name": "Divisional Secretariat Galle Four Gravetes", "office": "government", "opening_hours": "Mo-Fr 8:30-16:30", "phone": "+94912234238", "website": "http://www.galle.ds.gov.lk/"}}, {"type": "node", "id": 3454245832, "lat": 6.0420341, "lon": 80.2146068, "tags": {"building": "office", "name": "Southern Province Land Commisonar's Department office Building", "phone": "+94912234266", "source": "GPS"}}, {"type": "node", "id": 3633854444, "lat": 6.246628, "lon": 80.6085736, "tags": {"name": "Pasgoda Divisional Secretariat", "office": "government"}}, {"type": "node", "id": 3728673570, "lat": 6.0599847, "lon": 80.2023763, "tags": {"name": "Bope Poddala Pradeshiya Sabha", "office": "government"}}, {"type": "node", "id": 3729212809, "lat": 6.0579484, "lon": 80.2015578, "tags": {"addr:city": "Kalegana, Galle.", "name": "Zonal Education Office", "office": "government"}}, {"type": "node", "id": 3729212811, "lat": 6.0612664, "lon": 80.2074721, "tags": {"name": "Department of Probation", "office": "government"}}, {"type": "node", "id": 3733247943, "lat": 6.0451275, "lon": 80.2075345, "tags": {"name": "Chief Secretary's Office - Southern Province", "office": "government"}}, {"type": "node", "id": 3733256201, "lat": 6.0407531, "lon": 80.2182123, "tags": {"name": "Southern Province Governors' Office", "office": "government"}}, {"type": "node", "id": 3771350535, "lat": 6.0482002, "lon": 80.7337543, "tags": {"name": "Sri Lanka Fishing Corporation", "office": "company"}}, {"type": "node", "id": 3771350536, "lat": 6.0429755, "lon": 80.7323821, "tags": {"name": "Sri lanka Telecome", "office": "government"}}, {"type": "node", "id": 3771432752, "lat": 6.0270681, "lon": 80.7955538, "tags": {"name": "Senkadagala Finance", "office": "company"}}, {"type": "node", "id": 3790082160, "lat": 5.9461988, "lon": 80.5342904, "tags": {"name": "SLBC Ruhunu Sevaya", "office": "government"}}, {"type": "node", "id": 3866596666, "lat": 6.0547015, "lon": 80.2577583, "tags": {"name": "Akmeemana Divisional Secretariat Office", "office": "government", "opening_hours": "08:00-16:30", "phone": "+94912224043"}}, {"type": "node", "id": 4984869892, "lat": 6.0771096, "lon": 80.5647312, "tags": {"addr:city": "Kamburupitiya", "addr:street": "Matara - Kamburupitiya Road", "name": "Ceylon Electricity Board", "office": "government"}}, {"type": "node", "id": 4984995228, "lat": 6.0824946, "lon": 80.5660531, "tags": {"government": "register_office", "name": "The Register of Marriages, Birth & Death", "office": "government"}}, {"type": "node", "id": 5165756222, "lat": 6.4368657, "lon": 81.1311166, "tags": {"name": "Agrarian Service Centre Thanamalwila", "office": "government"}}, {"type": "node", "id": 5165756223, "lat": 6.3520704, "lon": 80.9122351, "tags": {"name": "agrarian services centre Sewanagala", "office": "government"}}, {"type": "node", "id": 5447141802, "lat": 6.074923, "lon": 80.2313948, "tags": {"name": "please cross check and update land use", "office": "company"}}, {"type": "node", "id": 6257451098, "lat": 6.4305557, "lon": 81.1153988, "tags": {"name": "Road Development Aurhority", "office": "government"}}, {"type": "node", "id": 6294999686, "lat": 6.0356018, "lon": 80.2183667, "tags": {"name": "Departement of motor traffic", "office": "government"}}, {"type": "node", "id": 6322523109, "lat": 6.0734344, "lon": 80.1989622, "tags": {"addr:city": "Galle", "addr:housenumber": "5/A", "addr:postcode": "+94", "addr:street": "Hapugala- Wakwella Road,", "email": "southernagro@gmail.com", "name": "Southern Agro Serve", "office": "company", "phone": "+94777362644", "website": "www.southernagro.lk"}}, {"type": "node", "id": 6481357590, "lat": 6.0573235, "lon": 80.2176391, "tags": {"addr:housenumber": "467/B1", "addr:street": "Dangedara Mawatha", "company": "construction", "contact:facebook": "https://www.facebook.com/SAVANROhomes/", "email": "info@savanroconstruction.lk", "name": "Savanro Construction", "office": "company", "phone": "+94 913904095", "website": "http://www.savanroconstruction.lk/index.html"}}, {"type": "node", "id": 6663055222, "lat": 5.940906, "lon": 80.5675222, "tags": {"name": "Road Development Authority", "office": "government"}}, {"type": "node", "id": 7617246441, "lat": 6.0236013, "lon": 80.7932356, "tags": {"name": "Ceylon Electricity Board", "office": "government"}}, {"type": "node", "id": 7775063980, "lat": 6.2379771, "lon": 80.263882, "tags": {"government": "administrative", "name": "Niyagama GND Office (38)", "office": "government"}}, {"type": "node", "id": 7775362726, "lat": 6.2349126, "lon": 80.2555075, "tags": {"government": "administrative", "name": "GND Office - Polpelakatiya", "office": "government"}}, {"type": "node", "id": 7775366760, "lat": 6.3282182, "lon": 80.2562072, "tags": {"government": "administrative", "name": "GN Office- Godamuna North", "office": "government"}}, {"type": "node", "id": 7775389380, "lat": 6.3471255, "lon": 80.235296, "tags": {"name": "GN Office- Karauwa", "office": "government"}}, {"type": "node", "id": 7775397105, "lat": 6.3082311, "lon": 80.2487852, "tags": {"name": "GN Office- Matthaka", "office": "government"}}, {"type": "node", "id": 7775397116, "lat": 6.32191, "lon": 80.247019, "tags": {"name": "GN Office- Godamuna South", "office": "government"}}, {"type": "node", "id": 7775397118, "lat": 6.3154018, "lon": 80.2474062, "tags": {"name": "GN Office- Martupitiya", "office": "government"}}, {"type": "node", "id": 7775418570, "lat": 6.3535926, "lon": 80.2433011, "tags": {"name": "GN Office- Boraluhena", "office": "government"}}, {"type": "node", "id": 7775527266, "lat": 6.2271287, "lon": 80.2536507, "tags": {"name": "GN Office- Akulavila", "office": "government"}}, {"type": "node", "id": 7775590479, "lat": 6.3547708, "lon": 80.2190794, "tags": {"name": "Army Camp", "office": "government"}}, {"type": "node", "id": 7775714586, "lat": 6.2259834, "lon": 80.2511207, "tags": {"government": "administrative", "name": "GN Office- Horangalla West", "office": "government"}}, {"type": "node", "id": 7775853560, "lat": 6.3697615, "lon": 80.2169189, "tags": {"name": "GN Office- Pitigala North", "office": "government"}}, {"type": "node", "id": 7775867292, "lat": 6.3440698, "lon": 80.222409, "tags": {"name": "GN Office- Pitigala", "office": "government"}}, {"type": "node", "id": 7775910680, "lat": 6.3579955, "lon": 80.2407548, "tags": {"name": "GN Office", "office": "government"}}, {"type": "node", "id": 7775916504, "lat": 6.3693005, "lon": 80.2375592, "tags": {"name": "GN Office- Uhanovita", "office": "government"}}, {"type": "node", "id": 7777240586, "lat": 6.2577475, "lon": 80.3253861, "tags": {"government": "administrative", "name": "Samurdhi Development Officer,224 A Koralegama-Hiniduma", "office": "government"}}, {"type": "node", "id": 7777240587, "lat": 6.258014, "lon": 80.3253695, "tags": {"amenity": "post_office", "government": "administrative", "name": "Sub Post Office Panangala", "office": "government"}}, {"type": "node", "id": 7777240593, "lat": 6.2524734, "lon": 80.3275104, "tags": {"name": "Kanneliya Tea Factory", "office": "company"}}, {"type": "node", "id": 7777240595, "lat": 6.2393152, "lon": 80.3302529, "tags": {"name": "Deepthi Sanasa Sociaty,Gallandala,Panangala", "office": "government"}}, {"type": "node", "id": 7777240609, "lat": 6.2430328, "lon": 80.3285739, "tags": {"name": "Samurdhi Development Officer,225 B Gallandala-Hiniduma", "office": "government"}}, {"type": "node", "id": 7777240614, "lat": 6.2432901, "lon": 80.3286027, "tags": {"name": "Economic Development Officer,225 B Gallandala", "office": "government"}}, {"type": "node", "id": 7777274568, "lat": 6.2854846, "lon": 80.3206814, "tags": {"government": "administrative", "name": "Nila Sewana,Ministry Of Home Affairs", "office": "government"}}, {"type": "node", "id": 7777278711, "lat": 6.2694958, "lon": 80.3248537, "tags": {"name": "Haycock Valley Tea Factory,Pannagala", "office": "company"}}, {"type": "node", "id": 7777278715, "lat": 6.2669816, "lon": 80.3246713, "tags": {"name": "Herbal Garden For Research & Extention-Kanneliya", "office": "government"}}, {"type": "node", "id": 7777278718, "lat": 6.2658351, "lon": 80.3272569, "tags": {"name": "Professional Development Center For Teachers", "office": "government"}}, {"type": "node", "id": 7777278758, "lat": 6.2643821, "lon": 80.3277719, "tags": {"name": "Unit Tea Factory", "office": "company"}}, {"type": "node", "id": 7777677659, "lat": 6.2834457, "lon": 80.3901259, "tags": {"name": "Grama Niladhari,Thalangalla 228 A", "office": "government"}}, {"type": "node", "id": 7777677660, "lat": 6.283479, "lon": 80.390546, "tags": {"name": "Samurdhi Development Officer,228 A Thalangalla,Opatha.", "office": "government"}}, {"type": "node", "id": 7777677680, "lat": 6.2807676, "lon": 80.3997123, "tags": {"government": "administrative", "name": "Grama Niladhari,Talangalla East", "office": "government"}}, {"type": "node", "id": 7777690017, "lat": 6.2638382, "lon": 80.4175508, "tags": {"name": "Singhe valley Tea Factory,Opatha.", "office": "company"}}, {"type": "node", "id": 7777690021, "lat": 6.2598482, "lon": 80.4156525, "tags": {"amenity": "pharmacy", "government": "administrative", "name": "Aurveda Central Dispensary,Opatha,", "office": "government"}}, {"type": "node", "id": 7777821063, "lat": 6.3031651, "lon": 80.3692221, "tags": {"name": "Economic Development Officer,228 Malgalla.", "office": "government"}}, {"type": "node", "id": 7777942520, "lat": 6.3217341, "lon": 80.3510065, "tags": {"name": "Sihara Tea Factory", "office": "company"}}, {"type": "node", "id": 7778422431, "lat": 6.33734, "lon": 80.3447342, "tags": {"name": "Jausminvally Plantation(PVT) LTD.", "office": "company"}}, {"type": "node", "id": 7778757775, "lat": 6.3395633, "lon": 80.3445464, "tags": {"name": "Hiniduma Hills Tea Factory", "office": "company"}}, {"type": "node", "id": 7779781796, "lat": 6.3451255, "lon": 80.3389835, "tags": {"name": "CEB Consumer Service Center,Habarakada,Thawalama.", "office": "government"}}, {"type": "node", "id": 7779803055, "lat": 6.3372813, "lon": 80.32583, "tags": {"government": "administrative", "name": "Thwalama Pradeshiya Sabhawa", "office": "government"}}, {"type": "node", "id": 7779803057, "lat": 6.339558, "lon": 80.3291962, "tags": {"government": "administrative", "name": "Vehicle Emission Tesing Center", "office": "government"}}, {"type": "node", "id": 7779803058, "lat": 6.3410055, "lon": 80.3298667, "tags": {"government": "administrative", "name": "Divisional Secretariant,Thawalama.", "office": "government"}}, {"type": "node", "id": 7780308890, "lat": 6.3683185, "lon": 80.31501, "tags": {"name": "Grama Niladhari,Ela Ihala.", "office": "government"}}, {"type": "node", "id": 7780308893, "lat": 6.3700595, "lon": 80.2928985, "tags": {"name": "United Funeral Aid Society", "office": "government"}}, {"type": "node", "id": 7780308957, "lat": 6.3759503, "lon": 80.3076339, "tags": {"name": "Ranmeer Tea Factory", "office": "company"}}, {"type": "node", "id": 7780684023, "lat": 6.3652764, "lon": 80.3238378, "tags": {"government": "administrative", "name": "Samurdhi Develop Officer,230 C,Kuburegoda.", "office": "government"}}, {"type": "node", "id": 7780684024, "lat": 6.365231, "lon": 80.3237701, "tags": {"government": "administrative", "name": "Economic Developer Officer,230 C,Kuburegoda.", "office": "government"}}, {"type": "node", "id": 7780684025, "lat": 6.365255, "lon": 80.3237968, "tags": {"government": "administrative", "name": "Grama Niladari Kuburegoda 230 C", "office": "government"}}, {"type": "node", "id": 7780684027, "lat": 6.2593016, "lon": 80.3225523, "tags": {"government": "administrative", "name": "Eppala GND Office [224]", "office": "government"}}, {"type": "node", "id": 7781410204, "lat": 6.3211022, "lon": 80.3162867, "tags": {"government": "administrative", "name": "Government Veterinary Surgeon,Hiniduma", "office": "government"}}, {"type": "node", "id": 7781410205, "lat": 6.3208676, "lon": 80.316276, "tags": {"government": "administrative", "name": "Tea Small Holdings Development Authority,Hiniduma.", "office": "government"}}, {"type": "node", "id": 7781410206, "lat": 6.3361217, "lon": 80.322099, "tags": {"name": "Site Forest Office", "office": "government"}}, {"type": "node", "id": 7781410207, "lat": 6.3343516, "lon": 80.326876, "tags": {"name": "Gramaniladhari, Batahena, 227A", "office": "government"}}, {"type": "node", "id": 7781410213, "lat": 6.3093455, "lon": 80.3166273, "tags": {"government": "administrative", "name": "Ministry Of Homeaffairs Nila Sewana,Hiniduma North 226", "office": "government"}}, {"type": "node", "id": 7781410214, "lat": 6.3132184, "lon": 80.3149841, "tags": {"government": "administrative", "name": "Economic Development Officer,226 B,Hiniduma.", "office": "government"}}, {"type": "node", "id": 7781410215, "lat": 6.3132595, "lon": 80.3150237, "tags": {"government": "administrative", "name": "Samurdhi Development Officer 226 B,Hiniduma West", "office": "government"}}, {"type": "node", "id": 7781410216, "lat": 6.3132974, "lon": 80.3150699, "tags": {"government": "administrative", "name": "Grama Niladhari Hiniduma West,226 B", "office": "government"}}, {"type": "node", "id": 7781410218, "lat": 6.3071994, "lon": 80.3175795, "tags": {"name": "Lucky Tea Factory", "office": "company"}}, {"type": "node", "id": 7781439389, "lat": 6.32191, "lon": 80.3180194, "tags": {"name": "Hingalagoda Tea Factory", "office": "company"}}, {"type": "node", "id": 7781439462, "lat": 6.3385543, "lon": 80.3258139, "tags": {"government": "administrative", "name": "Ministry Of Home Affiars Circuit Bangalow,Thawalama.", "office": "government"}}, {"type": "node", "id": 7781601769, "lat": 6.2319195, "lon": 80.2675483, "tags": {"government": "administrative", "name": "Niyagama South GND Office (38B)", "office": "government"}}, {"type": "node", "id": 7781700246, "lat": 6.2260508, "lon": 80.2512089, "tags": {"government": "administrative", "name": "GND Office- Horangalla Thalawa", "office": "government"}}, {"type": "node", "id": 7994463128, "lat": 6.2544904, "lon": 80.3277665, "tags": {"government": "administrative", "name": "GND Office/Koralegama", "office": "government"}}, {"type": "node", "id": 8005736355, "lat": 6.2777209, "lon": 80.3219837, "tags": {"government": "administrative", "name": "GND Office", "office": "government"}}, {"type": "node", "id": 8021629273, "lat": 6.3215474, "lon": 80.350619, "tags": {"government": "govenment", "name": "GS Office", "office": "government"}}, {"type": "node", "id": 8413706344, "lat": 6.0379404, "lon": 80.2201099, "tags": {"addr:housenumber": "No: 97", "addr:street": "Olcot Street, Galle", "description": "Information Technology Company", "name": "ORELIT - Galle Branch", "office": "company", "opening_hours": "Mo-Fr 08:00-17:00", "phone": "+94115706706", "website": "https://orelit.com"}}, {"type": "node", "id": 8516805837, "lat": 6.026088, "lon": 80.2183885, "tags": {"government": "administrative", "name": "National Housing Development Authority", "office": "government"}}, {"type": "node", "id": 9722117744, "lat": 5.9723272, "lon": 80.4289012, "tags": {"government": "administrative", "name": "Divisional Secretariat Weligama", "office": "government"}}, {"type": "node", "id": 10994233027, "lat": 6.0459196, "lon": 80.7291619, "tags": {"name": "#office", "office": "government"}}, {"type": "node", "id": 13369456917, "lat": 6.0269448, "lon": 80.7961762, "tags": {"addr:city": "Tangalle", "addr:housenumber": "61/1A", "addr:street": "Sea Avenue", "government": "public_service", "name": "CEB - DGM Office (SP2)", "office": "government", "phone": "0472200888"}}, {"type": "node", "id": 13404269740, "lat": 6.1078708, "lon": 80.5800352, "tags": {"name": "Grama Niladhari Office - Horapavita South", "office": "government"}}, {"type": "node", "id": 13404338634, "lat": 6.1280403, "lon": 80.5865852, "tags": {"name": "Grama Niladhari Office - Bamunugama West", "office": "government"}}, {"type": "way", "id": 136845339, "center": {"lat": 6.0277966, "lon": 80.2174171}, "nodes": [1501304856, 1501304858, 1501304857, 1501304859, 1501304856], "tags": {"amenity": "post_office", "building": "yes", "name": "Post Office", "office": "government", "opening_hours": "Mo-Su 08:00-16:00"}}, {"type": "way", "id": 137294927, "center": {"lat": 6.0276646, "lon": 80.2186349}, "nodes": [1506042205, 1506042177, 1506042131, 1506042207, 1506042193, 1506042230, 1506042180, 1506042205], "tags": {"amenity": "courthouse", "building": "yes", "historic": "monument", "name": "Magistrate Court (Malay Soilders' Barrack)", "office": "government"}}, {"type": "way", "id": 137295707, "center": {"lat": 6.0277153, "lon": 80.2178418}, "nodes": [1506051994, 1506052001, 1506052018, 1506051992, 1506052016, 1506052023, 1506052026, 1506052011, 1506052024, 1506052003, 1506051994], "tags": {"building": "yes", "historic": "monument", "name": "Former Queen's House", "office": "company"}}, {"type": "way", "id": 137295912, "center": {"lat": 6.0259331, "lon": 80.2184372}, "nodes": [1506052573, 1506052570, 1506052564, 4009263683, 4009263682, 1506052572, 1506052563, 1506052562, 1506052573], "tags": {"addr:housename": "E-corts", "addr:street": "Pedlar Street", "building": "office", "building:levels": "2", "roof:levels": "0"}}, {"type": "way", "id": 203765024, "center": {"lat": 6.1660211, "lon": 81.1262653}, "nodes": [2137630064, 2137630054, 2137630052, 2137630049, 2137630048, 2137630033, 2137630034, 2137630015, 2137630016, 2137630014, 2137630013, 2137630007, 2137630006, 2137630012, 2137630011, 2137629996, 2137629997, 2137629995, 2137629994, 2137629953, 2137629954, 2137629948, 2137629949, 2137629989, 2137629990, 2137629977, 2137629978, 2137629938, 2137629939, 2137629950, 2137629951, 2137629979, 2137629980, 2137630017, 2137630018, 2137630058, 2137630057, 2137630094, 2137630092, 2137630143, 2137630141, 2137630166, 2137630165, 2137630117, 2137630116, 2137630134, 2137630133, 2137630147, 2137630146, 2137630124, 2137630125, 2137630121, 2137630118, 2137630139, 2137630138, 2137630123, 2137630122, 2137630084, 2137630085, 2137630081, 2137630080, 2137630065, 2137630066, 2137630069, 2137630070, 2137630059, 2137630064], "tags": {"building": "yes", "building:levels": "2", "government": "administrative", "name": "Hambantota District Secretariat", "office": "government"}}, {"type": "way", "id": 286534457, "center": {"lat": 5.9378119, "lon": 80.5762409}, "nodes": [2902181648, 2902180821, 2902181650, 2902181651, 2902181652, 12387665858, 12387666059, 12387665925, 12387665926, 2902181653, 2902181654, 2902181655, 2902181656, 2902181657, 12387666034, 2902181659, 2902181660, 2902181661, 12387665922, 12387665884, 12387666039, 12387665912, 2902181662, 2902181663, 2902181664, 2902181665, 2902181666, 2902181667, 2902181668, 2902181669, 12387666046, 12387617378, 2902181648], "tags": {"building": "office", "building:levels": "2", "name": "Administrative Building"}}, {"type": "way", "id": 286788465, "center": {"lat": 6.2930171, "lon": 80.1645173}, "nodes": [2904639102, 2904639103, 2904639104, 2904639105, 2904639106, 2904639107, 2904639108, 2904639109, 2904639102], "tags": {"building": "office", "name": "Divisional Secretarial Office"}}, {"type": "way", "id": 287012246, "center": {"lat": 6.289153, "lon": 80.164045}, "nodes": [2906825272, 2906825273, 2906825274, 2906825275, 2906825276, 2906825277, 2906825278, 2906825279, 2906825272], "tags": {"building": "yes", "name": "Elpitiya Pradeshiya Saba", "office": "government"}}, {"type": "way", "id": 288254367, "center": {"lat": 6.1503112, "lon": 80.6976823}, "nodes": [2918156877, 2918156878, 2918156879, 2918156880, 2918156881, 2918156882, 2918156883, 2918156884, 2918156877], "tags": {"building": "yes", "name": "Zonal Educational Office", "office": "government"}}, {"type": "way", "id": 288581652, "center": {"lat": 6.0710023, "lon": 80.236491}, "nodes": [2921320151, 2921320152, 2921320153, 2921320154, 2921320155, 2921320156, 2921320157, 2921320158, 2921320159, 2921320160, 2921320151], "tags": {"building": "office"}}, {"type": "way", "id": 288581655, "center": {"lat": 6.0708733, "lon": 80.2367997}, "nodes": [2921320175, 2921320176, 2921320177, 2921320178, 2921320179, 2921320180, 2921320181, 2921320182, 2921320183, 2921320184, 2921320185, 2921320186, 2921320175], "tags": {"building": "office"}}, {"type": "way", "id": 288581656, "center": {"lat": 6.0708127, "lon": 80.2364773}, "nodes": [2921320187, 2921320188, 2921320189, 2921320190, 2921320187], "tags": {"building": "office"}}, {"type": "way", "id": 288581657, "center": {"lat": 6.0706158, "lon": 80.2355551}, "nodes": [2921320191, 2921320192, 2921320193, 2921320194, 2921320195, 2921320196, 2921320197, 2921320198, 2921320199, 2921320200, 2921320901, 2921320902, 2921320903, 2921320904, 2921320191], "tags": {"addr:street": "Mapalagama Road", "building": "yes", "name": "Dakshinapaya", "office": "government", "opening_hours": "Mo-Fr 08:00-17:00"}}, {"type": "way", "id": 288581658, "center": {"lat": 6.0708094, "lon": 80.2360364}, "nodes": [2921320905, 2921320906, 2921320907, 2921320908, 2921320905], "tags": {"building": "office"}}, {"type": "way", "id": 288581659, "center": {"lat": 6.0706694, "lon": 80.2360914}, "nodes": [2921320909, 2921320910, 2921320911, 2921320912, 2921320909], "tags": {"building": "office"}}, {"type": "way", "id": 288581660, "center": {"lat": 6.0704473, "lon": 80.2363192}, "nodes": [2921320913, 2921320914, 2921320915, 2921320916, 2921320917, 2921320918, 2921320919, 2921320920, 2921320913], "tags": {"building": "office"}}, {"type": "way", "id": 303915417, "center": {"lat": 6.0348545, "lon": 80.2360142}, "nodes": [5436872164, 5436861529, 5436861530, 4097730490, 5436861531, 3775982868, 5436861532, 3775982867, 3775982865, 5436872162, 8703211020, 6023705250, 5436872172, 5436872170, 5436764758, 3084241137, 5436872165, 5436872166, 3084241138, 3084241139, 5436872164], "tags": {"addr:city": "Galle", "name": "CPC-Southern Regional Office", "office": "government"}}, {"type": "way", "id": 349607217, "center": {"lat": 6.0714512, "lon": 80.2332797}, "nodes": [130346191, 5436553700, 5436553688, 3554571060, 5436553699, 2921323889, 5436553703, 5436554349, 5436554350, 5436554351, 5436554352, 5436554353, 5436554354, 5436554355, 5436553679, 3554600387, 5436553702, 5436553701, 3554600388, 3554606710, 3554606711, 3554606712, 3554606713, 308714252, 1088923261, 308714251, 5445098632, 5436553690, 2906908722, 5436553691, 2906908723, 5436553689, 5436553692, 2906908724, 130346191], "tags": {"addr:street": "Mapalagama Road", "amenity": "school", "name": "Sri Lanka School of Agriculture Labuduwa", "office": "government", "opening_hours": "Mo-Fr 08:00-17:00"}}, {"type": "way", "id": 356747808, "center": {"lat": 5.9529815, "lon": 80.5456227}, "nodes": [3621485374, 3621485375, 3621485373, 3621485372, 4888166284, 4888166285, 3621485374], "tags": {"addr:city": "Matara", "addr:housename": "Sri Vijaya Building", "addr:housenumber": "9", "addr:street": "Rahula Road", "building": "yes", "name": "Department of Immigration and Emigration", "office": "government", "phone": "+94-41-5412212"}}, {"type": "way", "id": 375660121, "center": {"lat": 5.9453276, "lon": 80.5466653}, "nodes": [3790069250, 12373305657, 12373305655, 3790069249, 3790069248, 3790069247, 3790069242, 3790069244, 3790069241, 3790069243, 3790069245, 3790069246, 3790069250], "tags": {"addr:city": "Matara", "addr:street": "Kachcheri Road", "building": "yes", "name": "A G Office", "office": "government"}}, {"type": "way", "id": 397999490, "center": {"lat": 6.0270362, "lon": 80.2176065}, "nodes": [4007739484, 4007739485, 4007739486, 4007739487, 4007739484], "tags": {"building": "yes", "name": "Clan House", "office": "company"}}, {"type": "way", "id": 434308840, "center": {"lat": 6.1639554, "lon": 81.126498}, "nodes": [4324688100, 4324688092, 4324688093, 4324688102, 4324688103, 4324688115, 4324688134, 4324688136, 4324688135, 4324688133, 4324688132, 4324688131, 4324688119, 4324688120, 4324688109, 4324688110, 4324688099, 4324688100], "tags": {"building": "yes", "name": "Menicipel Council Hambantota", "office": "government"}}, {"type": "way", "id": 437147620, "center": {"lat": 6.0338026, "lon": 80.2135713}, "nodes": [4349718090, 4349718089, 4349718091, 4349718095, 4349718098, 4349718100, 4349718106, 4349718112, 4349718093, 4349718090], "tags": {"building": "government_office", "government": "yes", "name": "District Secretariat Office - Galle", "office": "government", "opening_hours": "08:30-16:15", "phone": "0912222233", "website": "http://www.galle.dist.gov.lk/index.php/en/"}}, {"type": "way", "id": 439342211, "center": {"lat": 6.0373428, "lon": 80.2170157}, "nodes": [4369602850, 4369602851, 4369602829, 4369602828, 4369602850], "tags": {"building": "yes", "name": "Distric Survay Office", "office": "government"}}, {"type": "way", "id": 496754513, "center": {"lat": 6.15798, "lon": 80.5817426}, "nodes": [8258242230, 4884236349, 4884236350, 4884236351, 4884236352, 8258242228, 4884236353, 4884236354, 4884236355, 4884236356, 4884236357, 4884236358, 4884236359, 4884236360, 4884236361, 4884236362, 4884236363, 4884236364, 4884236365, 4884236366, 4884236367, 8258242229, 8258242230], "tags": {"government": "transportation", "landuse": "garages", "name": "SLTB Hakmana Depot", "office": "government"}}, {"type": "way", "id": 509220119, "center": {"lat": 6.0658397, "lon": 80.5655593}, "nodes": [4984804236, 4984804237, 4984804238, 4984804239, 4984804240, 4984804241, 4984804242, 4984804243, 4984804244, 4984804236], "tags": {"addr:city": "Kamburupitiya", "name": "Kamburupitiya Divisional Secretariat", "office": "government"}}, {"type": "way", "id": 526033376, "center": {"lat": 6.4407509, "lon": 80.5140456}, "nodes": [5116348537, 5116348536, 5116348535, 5116348534, 5116348537], "tags": {"building": "office", "name": "Kathlana Gama niladhari office"}}, {"type": "way", "id": 533883022, "center": {"lat": 6.0378531, "lon": 80.2258647}, "nodes": [5178841833, 5178841834, 5178841835, 5178841836, 5178841833], "tags": {"addr:city": "Galle", "addr:street": "Old Matara Road", "building": "yes", "name": "DSI Pettigalawatta", "office": "company"}}, {"type": "way", "id": 537043173, "center": {"lat": 6.0428901, "lon": 80.240794}, "nodes": [5201260307, 5201260308, 5201260309, 5201260310, 5201260307], "tags": {"addr:city": "Galle", "addr:street": "Bataduwa Plant - Galle", "building": "yes", "name": "Bataduwa Plant - DSI", "office": "company"}}, {"type": "way", "id": 545050907, "center": {"lat": 6.2509742, "lon": 80.1536087}, "nodes": [5268277209, 5268277210, 5268277211, 5268277212, 5268277209], "tags": {"building": "yes", "office": "company"}}, {"type": "way", "id": 545050908, "center": {"lat": 6.2506317, "lon": 80.1535757}, "nodes": [5268277213, 5268277214, 5268277215, 5268277216, 5268277213], "tags": {"building": "yes", "office": "company"}}, {"type": "way", "id": 563608474, "center": {"lat": 6.0704902, "lon": 80.2348695}, "nodes": [130346695, 130346552, 130346429, 130346191, 5436553700, 1093724792, 3960879628, 1093697865, 11865852094, 12160217778, 3960879627, 3960879626, 5436553677, 5434560538, 5434560535, 5434560537, 5431101721, 5434560536, 5431101717, 5431101716, 5431101715, 5431101714, 5431101713, 5431101712, 130346695], "tags": {"name": "Poddala Divisonal Secretariat", "office": "government"}}, {"type": "way", "id": 563983879, "center": {"lat": 6.0708416, "lon": 80.2363857}, "nodes": [5434560538, 5436553677, 5436553675, 5434581589, 5434581588, 5434581587, 5436553672, 5434581586, 5434581585, 5434581584, 5434581583, 5434581577, 5436658594, 5436658610, 5436658599, 5434560533, 5436658595, 5436658596, 5436658600, 5436658597, 5436553674, 5436658598, 5434560536, 5431101721, 5434560537, 5434560535, 5434560538], "tags": {"name": "Office of the Deputy Director of agriculture and Department of agrarian Development", "office": "government"}}, {"type": "way", "id": 564219673, "center": {"lat": 6.0696022, "lon": 80.2354065}, "nodes": [5436763856, 5436763855, 5436763854, 5436763853, 5436763852, 1242622152, 5436763861, 5436763859, 5436763860, 1242622148, 5436763862, 1242622147, 5436763858, 1242622146, 5436763851, 5436763850, 5436763849, 5436763848, 5436763847, 5431101717, 5431101716, 5431101715, 5431101714, 5431101713, 5436763846, 5436763845, 5436763844, 5436763856], "tags": {"office": "government"}}, {"type": "way", "id": 564923857, "center": {"lat": 6.0686066, "lon": 80.2246759}, "nodes": [1242131671, 5441957825, 5441957826, 5441905079, 1242263000, 1242131672, 1242131671], "tags": {"name": "CECB/CESL Base Office, Galle", "office": "government"}}, {"type": "way", "id": 566549551, "center": {"lat": 6.0666479, "lon": 80.21747}, "nodes": [5455082173, 1242329819, 1242329820, 5455860061, 5455860060, 5455860059, 5455860056, 5463877888, 5455082173], "tags": {"landuse": "residential", "name": "Divisional Survey Office -galle", "office": "government"}}, {"type": "way", "id": 566617381, "center": {"lat": 6.0676864, "lon": 80.1986585}, "nodes": [5456379091, 5456379081, 5456379080, 5456379079, 5456342827, 5456379082, 5456342826, 5456379083, 5456379085, 5456379084, 5456342825, 5456379086, 5456379087, 5456342824, 5456379088, 5456379090, 5456379089, 5456342823, 1971439071, 5455566843, 3464760294, 1971439202, 5456379092, 5456422350, 5456379091], "tags": {"name": "Subasingha Construction", "office": "company"}}, {"type": "way", "id": 568056518, "center": {"lat": 6.0602895, "lon": 80.2023759}, "nodes": [102764857, 5466582036, 102764890, 5466582038, 5466137734, 5466137733, 5466123920, 5466123919, 5466123918, 5466123917, 5466123916, 5466123915, 5466123914, 102764857], "tags": {"name": "Bope Poddala Pradeshiya Sabha, Wakwella Road, Galle", "office": "government"}}, {"type": "way", "id": 630903260, "center": {"lat": 6.3216285, "lon": 80.3181704}, "nodes": [5956780583, 5956780582, 5956780581, 5956780580, 5956780583], "tags": {"building": "office", "building:category_of_the_house": "single_house", "building:floor_area": "more_than_1000", "building:foundation_height": "1.5_to_3", "building:levels": "1", "building:material": "plastered", "building:ownership": "owner", "building:state_of_the_house": "semi_permanent", "floor:material": "cement", "roof:material": "tile"}}, {"type": "way", "id": 639684183, "center": {"lat": 6.3404228, "lon": 80.5593137}, "nodes": [6027222878, 6027222879, 6027222880, 6027222881, 6027222878], "tags": {"addr:city": "Deniyaya", "addr:street": "Deniyaya-Wiharahena Road", "building": "yes", "government": "public_service", "name": "Kotapola Pradeshiya Sabaha", "office": "government", "phone": "+94412 273 275"}}, {"type": "way", "id": 737591920, "center": {"lat": 6.4403893, "lon": 80.8903318}, "nodes": [6905959791, 6905959793, 6905959792, 6905959790, 6905959794, 6905959797, 6905959796, 6905959795, 6905959791], "tags": {"building": "office", "nohousenumber": "yes"}}, {"type": "way", "id": 737591921, "center": {"lat": 6.4403612, "lon": 80.890547}, "nodes": [6905959801, 6905959798, 6905959799, 6905959800, 6905959801], "tags": {"building": "office", "nohousenumber": "yes"}}, {"type": "way", "id": 737591922, "center": {"lat": 6.440569, "lon": 80.8907021}, "nodes": [6905959805, 6905959802, 6905959803, 6905959804, 6905959805], "tags": {"building": "office", "nohousenumber": "yes"}}, {"type": "way", "id": 798241206, "center": {"lat": 6.3311172, "lon": 80.3441611}, "nodes": [7465892170, 7465892166, 7465892164, 7465892173, 7465892174, 7465892171, 7465892172, 7465892165, 7465892168, 7465892167, 7465892170], "tags": {"building": "office", "building:category_of_the_house": "single_house", "building:floor_area": "751 - 1000", "building:foundation_height": "1_to_1.5", "building:levels": "1", "building:material": "plastered", "building:ownership": "owner", "building:state_of_the_house": "permanent", "floor:material": "cement", "roof:material": "asbestos"}}, {"type": "way", "id": 808010540, "center": {"lat": 6.2907693, "lon": 80.3957487}, "nodes": [7555938284, 7555938283, 7555938282, 7555938281, 7555938284], "tags": {"building": "office", "building:category_of_the_house": "single_house", "building:floor_area": "less_than_500", "building:levels": "1", "building:ownership": "owner", "building:state_of_the_house": "permanent", "floor:material": "mud/cow_dung", "roof:material": "tile"}}, {"type": "way", "id": 809244941, "center": {"lat": 6.2759487, "lon": 80.4060394}, "nodes": [2610318042, 7566755375, 7566755376, 7566755377, 2610318042], "tags": {"building": "yes", "name": "GN Office", "office": "government"}}, {"type": "way", "id": 813981006, "center": {"lat": 6.2857858, "lon": 80.3913215}, "nodes": [7603657199, 7603657198, 7603657197, 7603657196, 7603657199], "tags": {"building": "office", "building:category_of_the_house": "single_house", "building:floor_area": "less_than_500", "building:foundation_height": "less_than_1", "building:levels": "1", "building:material": "plastered", "building:state_of_the_house": "permanent", "floor:material": "cement", "roof:material": "tile"}}, {"type": "way", "id": 813981012, "center": {"lat": 6.2857964, "lon": 80.3900423}, "nodes": [7603657227, 7603657224, 7603657225, 7603657226, 7603657227], "tags": {"building": "office", "building:category_of_the_house": "single_house", "building:floor_area": "less_than_500", "building:foundation_height": "less_than_1", "building:levels": "1", "building:material": "mud", "building:state_of_the_house": "i", "floor:material": "mud/cow_dung", "roof:material": "tile"}}, {"type": "way", "id": 834108243, "center": {"lat": 6.328921, "lon": 80.3245711}, "nodes": [7786439298, 7786439297, 7786439296, 7786439295, 7786439298], "tags": {"building": "office", "building:category_of_the_house": "single_house", "building:floor_area": "less_than_500", "building:foundation_height": "less_than_1", "building:levels": "1", "building:ownership": "owner", "building:state_of_the_house": "semi_permanent", "floor:material": "mud/cow_dung", "roof:material": "tile"}}, {"type": "way", "id": 835535267, "center": {"lat": 6.3405603, "lon": 80.3295522}, "nodes": [7798825802, 7798825801, 7798825800, 7798825799, 7798825798, 7798825797, 7798825796, 7798825795, 7798825794, 7798825793, 7798825792, 7798825791, 7798825790, 7798825789, 7798825788, 7798825787, 7798825786, 7798825785, 7798825784, 7798825783, 7798825782, 7798825781, 7798825780, 7798825779, 7798825778, 7798825777, 7798825776, 7798825775, 7798825774, 7798825773, 7798825772, 7798825771, 7798825770, 7798825769, 7798825768, 7798825767, 7798825766, 7798825765, 7798825764, 7798825763, 7798825762, 7798825761, 7798825760, 7798825759, 7798825758, 7798825757, 7798825802], "tags": {"government": "administrative", "office": "government"}}, {"type": "way", "id": 857025205, "center": {"lat": 6.3305478, "lon": 80.3218745}, "nodes": [7990511598, 7990511597, 7990511596, 7990511595, 7990511598], "tags": {"building": "office", "building:category_of_the_house": "single_house", "building:floor_area": "less_than_500", "building:foundation_height": "less_than_1", "building:levels": "1", "building:material": "plastered", "building:ownership": "owner", "building:state_of_the_house": "permanent", "floor:material": "cement", "roof:material": "tile"}}, {"type": "way", "id": 857991732, "center": {"lat": 6.2841775, "lon": 80.3920413}, "nodes": [7998812600, 7998812597, 7998812598, 7998812599, 7998812600], "tags": {"building": "office", "building:state_of_the_house": "permanent"}}, {"type": "way", "id": 862008344, "center": {"lat": 6.3259507, "lon": 80.3378547}, "nodes": [8031767724, 8031767721, 8031767722, 8031767723, 8031767724], "tags": {"building": "office", "building:category_of_the_house": "single_house", "building:floor_area": "less_than_500", "building:foundation_height": "less_than_1", "building:levels": "1", "building:material": "mud", "building:ownership": "owner", "building:state_of_the_house": "semi_permanent", "floor:material": "mud/cow_dung", "roof:material": "tile"}}, {"type": "way", "id": 916881008, "center": {"lat": 5.9945821, "lon": 80.3082009}, "nodes": [8515843172, 8515843171, 8515843170, 8515843169, 8515843172], "tags": {"addr:city": "Habaraduwa", "addr:street": "Dikkumbura Road", "building": "yes", "building:levels": "1", "name": "Habaraduwa Divisional Secretariat", "office": "government"}}, {"type": "way", "id": 916881012, "center": {"lat": 5.9943044, "lon": 80.3082011}, "nodes": [8515843192, 8515843194, 8515843195, 8515843193, 8515843199, 8515843200, 8515843191, 8515843198, 8515843197, 8515843196, 8515843192], "tags": {"addr:city": "Habaraduwa", "addr:street": "Dikkumbura Road", "building": "yes", "building:levels": "2", "name": "Habaraduwa Divisional Secretariat", "office": "government"}}, {"type": "way", "id": 916890260, "center": {"lat": 5.993537, "lon": 80.3107735}, "nodes": [8515900651, 8515900653, 8515900652, 8515900650, 8515900657, 8515900648, 8515900656, 8515900655, 8515900647, 8515900660, 8515900661, 8515900649, 8515900659, 8515900654, 8515900658, 8515900651], "tags": {"addr:city": "Habaraduwa", "addr:street": "Colombo-Matara Road", "building": "yes", "building:levels": "2", "government": "administrative", "name": "Habaraduwa NWSDB", "office": "government"}}, {"type": "way", "id": 916890277, "center": {"lat": 5.9938604, "lon": 80.3117419}, "nodes": [8515928172, 8515928171, 8515928164, 8515928158, 8515928168, 8515928167, 8515928166, 8515928165, 8515928157, 8515928163, 8515928170, 8515928169, 8515928161, 8515928159, 8515928174, 8515928173, 8515928176, 8515928175, 8515928160, 8515928162, 8515928172], "tags": {"building": "yes", "government": "public_service", "name": "Agrarian Service Center - Koggala", "office": "government"}}, {"type": "way", "id": 916907496, "center": {"lat": 5.9938063, "lon": 80.308971}, "nodes": [8516092075, 8516092074, 8516092073, 8516092072, 8516092075], "tags": {"building": "yes", "building:levels": "2", "government": "yes", "name": "Habaraduwa Co-oparative Complex", "office": "government"}}, {"type": "way", "id": 916907497, "center": {"lat": 5.9937103, "lon": 80.3089554}, "nodes": [8516092086, 8516092079, 8516092076, 8516092083, 8516092085, 8516092084, 8516092077, 8516092078, 8516092082, 8516092081, 8516092080, 8516092086], "tags": {"building": "yes", "building:levels": "2", "name": "Habaraduwa Co-oparative Complex", "office": "government"}}, {"type": "way", "id": 920081526, "center": {"lat": 5.9940168, "lon": 80.3067817}, "nodes": [8543797079, 8543797081, 8543797080, 8543797078, 8543797082, 8543797076, 8543797087, 8543797086, 8543797088, 8543797075, 8543797085, 8543797077, 8543797084, 8543797083, 8543797079], "tags": {"addr:city": "Habaraduwa", "addr:street": "Colombo-Matara Road", "building": "yes", "government": "administrative", "name": "Habaraduwa Pradeshiya Sabha", "office": "government", "opening_hours": "Mo-Fr 08:30-16:30", "wheelchair": "yes"}}, {"type": "way", "id": 921897188, "center": {"lat": 5.981563, "lon": 80.339834}, "nodes": [8558758669, 8558758677, 8558758676, 8558758675, 8558758667, 8558758673, 8558758672, 8558758666, 8558758674, 8558758668, 8558758671, 8558758670, 8558758669], "tags": {"building": "yes", "government": "public_service", "name": "Kathaluwa Public Library", "office": "government", "wheelchair": "yes"}}, {"type": "way", "id": 926540831, "center": {"lat": 5.9849519, "lon": 80.3459537}, "nodes": [8597967722, 8597967719, 8597967720, 8597967721, 8597967722], "tags": {"building": "yes", "government": "social_services", "name": "Community Hall", "office": "government"}}, {"type": "way", "id": 945927299, "center": {"lat": 5.9772916, "lon": 80.3648551}, "nodes": [8757007320, 8757007321, 8757007319, 8757007324, 8757007323, 8757007322, 8757007320], "tags": {"building": "yes", "office": "government"}}, {"type": "way", "id": 945927300, "center": {"lat": 5.9774044, "lon": 80.3646428}, "nodes": [8757007328, 8757007325, 8757007326, 8757007327, 8757007328], "tags": {"building": "yes", "office": "government"}}, {"type": "way", "id": 1075297222, "center": {"lat": 6.0806958, "lon": 80.566765}, "nodes": [9861982153, 9861982154, 9861982155, 9861982156, 9861982153], "tags": {"addr:city": "Kamburupitiya", "addr:street": "kamburupitiya", "building": "office", "building:levels": "1", "name": "Zonal Education Office Kamburupitiya", "smoking": "no"}}, {"type": "way", "id": 1077942002, "center": {"lat": 6.0770878, "lon": 80.564712}, "nodes": [9883014940, 9883014941, 9883014942, 9883014943, 9883014940], "tags": {"addr:city": "Kamburupitiya", "addr:street": "Matara - Kamburupitiya Road", "building": "yes", "building:levels": "1", "name": "Ceylon Electricity Bord", "office": "government"}}, {"type": "way", "id": 1078799914, "center": {"lat": 5.9944724, "lon": 80.3082998}, "nodes": [9889648371, 9889648372, 9889648373, 9889648374, 9889648375, 9889648376, 9889648377, 9889648378, 9889648371], "tags": {"addr:city": "Habaraduwa", "addr:street": "Dikkumbura Road", "building": "yes", "building:levels": "2", "name": "Habaraduwa Divisional Secreteriat", "office": "government"}}, {"type": "way", "id": 1078801056, "center": {"lat": 5.9946034, "lon": 80.3084855}, "nodes": [9889659211, 9889659212, 9889659213, 9889659214, 9889659211], "tags": {"addr:city": "Habaraduwa", "addr:street": "Dikkumbura Road", "building": "yes", "building:levels": "2", "name": "Habaraduwa Divisional Secretariat", "office": "government"}}, {"type": "way", "id": 1207950563, "center": {"lat": 6.0335766, "lon": 80.21711}, "nodes": [11192561612, 11192561611, 11192561610, 11192561609, 11192561612], "tags": {"building": "office"}}, {"type": "way", "id": 1339169656, "center": {"lat": 6.0835692, "lon": 80.6432044}, "nodes": [12387564762, 12387564761, 12387564760, 12387564759, 12387564762], "tags": {"building": "yes", "name": "Mulatiyana Zonal Education Office", "office": "government"}}, {"type": "way", "id": 1378938817, "center": {"lat": 6.0952932, "lon": 80.6726534}, "nodes": [12768861378, 12768861379, 12768861380, 12768861381, 12768861378], "tags": {"air_conditioning": "no", "government": "public_service", "name": "Grama Niladhari Office - Kohuliyadda", "office": "government"}}, {"type": "way", "id": 1378947836, "center": {"lat": 6.1023717, "lon": 80.6770766}, "nodes": [12768937264, 12768937265, 12768937266, 12768937267, 12768937264], "tags": {"building": "yes", "government": "public_service", "name": "Grama Niladhari Offfice - Pananwela", "office": "government"}}, {"type": "way", "id": 1420892818, "center": {"lat": 6.0966346, "lon": 80.6673936}, "nodes": [13057488888, 13057488889, 13057488890, 13057488891, 13057488888], "tags": {"building": "yes", "government": "public_service", "name": "Grama Niladhari Office - Kebiliyapola", "office": "government"}}, {"type": "way", "id": 1461559702, "center": {"lat": 6.0813855, "lon": 80.6415536}, "nodes": [13404765997, 13404765998, 13404765999, 13404766000, 13405005001, 13405005002, 13404765997], "tags": {"building": "yes", "name": "MOH Hakmana", "office": "government"}}, {"type": "way", "id": 1461559703, "center": {"lat": 6.0815468, "lon": 80.6414784}, "nodes": [13405005003, 13405005004, 13405005005, 13405005006, 13405005007, 13405005008, 13405005009, 13405005010, 13405005003], "tags": {"building": "yes", "office": "government"}}, {"type": "way", "id": 1461559707, "center": {"lat": 6.08055, "lon": 80.6409855}, "nodes": [13405005033, 13405005034, 13405005035, 13405005036, 13405005037, 13405005038, 13405005039, 13405005040, 13405005041, 13405005042, 13405005043, 13405005044, 13405005045, 13405005046, 13405005033], "tags": {"building": "yes", "government": "public_service", "name": "Agrarian Service Center - Hakmana", "office": "government"}}, {"type": "way", "id": 1461562155, "center": {"lat": 6.0820342, "lon": 80.6447946}, "nodes": [13404993650, 13404993651, 13404993652, 13404993653, 13404993654, 13404993655, 13404993656, 13404993657, 13404993650], "tags": {"building": "yes", "government": "public_service", "name": "Hakmana Pradeshiya Sabawa", "office": "government"}}, {"type": "way", "id": 1462289692, "center": {"lat": 6.0452194, "lon": 80.6891625}, "nodes": [13413091286, 13413091287, 13413091288, 13413091289, 13413091286], "tags": {"building": "yes", "name": "Vocational Training Center -  Getamanna", "office": "government"}}, {"type": "way", "id": 1463881332, "center": {"lat": 6.0829953, "lon": 80.6485434}, "nodes": [13428214640, 13428214641, 13428214642, 13428214643, 13428214640], "tags": {"building": "yes", "name": "Land Title Settlement Department - Hakmana", "office": "government"}}]}