{"version": 0.6, "generator": "Overpass API 0.7.62.11 87bfad18", "osm3s": {"timestamp_osm_base": "2026-05-16T05:35:35Z", "copyright": "The data included in this document is from www.openstreetmap.org. The data is made available under ODbL."}, "elements": [{"type": "node", "id": 269362613, "lat": 6.8814277, "lon": 79.9043667, "tags": {"amenity": "place_of_worship", "name": "Kotte Rajamaha Viharaya", "religion": "buddhist"}}, {"type": "node", "id": 269366454, "lat": 6.9166446, "lon": 79.8566559, "tags": {"addr:city": "Colombo 2", "addr:housenumber": "61", "addr:street": "Sri Jinarathana Road", "amenity": "place_of_worship", "check_date": "2022-12-02", "denomination": "mahayana", "email": "gt@gangaramaya.com", "image": "https://photos.app.goo.gl/k83M6dX8ePfkXj5M7", "name": "Gangaramaya Temple", "name:en": "Gangaramaya Temple", "phone": "+94 112 435 169;+94 112 327 084;+94 112 459 622", "religion": "buddhist", "website": "https://gangaramaya.com/"}}, {"type": "node", "id": 599762371, "lat": 6.8325182, "lon": 79.9637522, "tags": {"addr:city": "Kottawa", "addr:street": "Piliyandala - Kottawa Road", "amenity": "place_of_worship", "name": "Sri Wijayatilakaramaya", "religion": "buddhist"}}, {"type": "node", "id": 599762379, "lat": 6.8221104, "lon": 79.9918832, "tags": {"amenity": "place_of_worship", "religion": "buddhist"}}, {"type": "node", "id": 599762408, "lat": 6.8139023, "lon": 79.9825652, "tags": {"amenity": "place_of_worship", "name": "Sri Wardhanaramaya", "religion": "buddhist"}}, {"type": "node", "id": 599762445, "lat": 6.8375568, "lon": 79.9808004, "tags": {"amenity": "place_of_worship", "name": "Makumbura Purana Viharaya", "religion": "buddhist"}}, {"type": "node", "id": 599762473, "lat": 6.8264621, "lon": 79.9766107, "tags": {"amenity": "place_of_worship", "name": "Kande Purana Viharaya", "religion": "buddhist"}}, {"type": "node", "id": 599815324, "lat": 6.84523, "lon": 80.0174862, "tags": {"access": "no", "addr:city": "Panagoda", "amenity": "place_of_worship", "description": "Army camp temple", "name": "Sri Bodhirajaramaya", "religion": "buddhist"}}, {"type": "node", "id": 619963184, "lat": 6.881071, "lon": 79.8998662, "tags": {"amenity": "place_of_worship", "name": "Sri Naga Viharaya", "religion": "buddhist"}}, {"type": "node", "id": 620403475, "lat": 6.8798086, "lon": 79.8611113, "tags": {"amenity": "place_of_worship", "check_date": "2024-07-04", "name": "Dharmaramaya", "religion": "buddhist", "wheelchair": "no"}}, {"type": "node", "id": 621054056, "lat": 6.8920885, "lon": 79.927807, "tags": {"amenity": "place_of_worship", "religion": "buddhist"}}, {"type": "node", "id": 621179349, "lat": 6.9329491, "lon": 79.8880675, "tags": {"addr:city": "Kolonnawa", "amenity": "place_of_worship", "name": "Kolonnawa Rajamaha Viharaya", "religion": "buddhist"}}, {"type": "node", "id": 621817276, "lat": 6.8963059, "lon": 79.8762131, "tags": {"addr:city": "Narahenpita", "amenity": "place_of_worship", "name": "Sri Abhayaramaya", "religion": "buddhist"}}, {"type": "node", "id": 621940730, "lat": 6.8489452, "lon": 79.8682463, "tags": {"amenity": "place_of_worship", "name": "Sri Subodharama Raja Maha Viharaya", "religion": "buddhist"}}, {"type": "node", "id": 622293225, "lat": 6.8562805, "lon": 79.8908922, "tags": {"addr:city": "Pepiliyana", "addr:street": "Pepiliyana Road", "amenity": "place_of_worship", "check_date": "2024-03-10", "denomination": "theravada", "name": "Pepiliyana Sunethra Devi Pirivena", "religion": "buddhist"}}, {"type": "node", "id": 637566077, "lat": 6.8908657, "lon": 79.8574707, "tags": {"amenity": "place_of_worship", "check_date": "2022-11-15", "name": "Palaya Kathiresan Kovil", "religion": "hindu"}}, {"type": "node", "id": 637566079, "lat": 6.8901125, "lon": 79.8579879, "tags": {"amenity": "place_of_worship", "name": "Vajiraramya Buddhis Temple", "religion": "buddhist"}}, {"type": "node", "id": 642981927, "lat": 6.8885067, "lon": 79.8655919, "tags": {"addr:city": "Thimbirigasyaya", "addr:street": "Isipathana Mawatha", "amenity": "place_of_worship", "name": "Isipathanarama Temple", "religion": "buddhist", "wikidata": "Q16979801", "wikipedia": "en:Isipathanaramaya Temple"}}, {"type": "node", "id": 642994300, "lat": 6.8796526, "lon": 79.8683774, "tags": {"addr:street": "Sri Visuddharama Rd", "amenity": "place_of_worship", "name": "Sri Visuddharamaya", "religion": "buddhist"}}, {"type": "node", "id": 653114085, "lat": 6.9180369, "lon": 79.8748048, "tags": {"amenity": "place_of_worship", "name": "St. Luke's Church"}}, {"type": "node", "id": 654176451, "lat": 6.9489069, "lon": 79.873702, "tags": {"amenity": "place_of_worship", "name": "St Joseph's Church", "religion": "christian"}}, {"type": "node", "id": 660913848, "lat": 7.0432385, "lon": 79.8598729, "tags": {"addr:city": "Uswetakeiyawa", "amenity": "place_of_worship", "denomination": "catholic", "name": "St.Mary's Church", "religion": "christian"}}, {"type": "node", "id": 660913860, "lat": 7.070402, "lon": 79.8604622, "tags": {"amenity": "place_of_worship", "name": "St.Nicolas Church"}}, {"type": "node", "id": 666855408, "lat": 6.9058138, "lon": 79.8558833, "tags": {"amenity": "place_of_worship", "check_date": "2024-08-08", "name": "Walukarama Temple", "religion": "buddhist"}}, {"type": "node", "id": 666881113, "lat": 6.8959689, "lon": 79.8561026, "tags": {"addr:city": "Bambalapitiya", "addr:street": "Bauddhaloka Mawatha", "amenity": "place_of_worship", "building": "mosque", "check_date": "2024-02-23", "name": "Jumma Mosque", "religion": "muslim"}}, {"type": "node", "id": 666903865, "lat": 6.8729207, "lon": 79.8777534, "tags": {"amenity": "place_of_worship", "name": "Balapokuna Purana Viharaya", "religion": "buddhist"}}, {"type": "node", "id": 667271921, "lat": 6.865794, "lon": 79.8610004, "tags": {"addr:city": "Wellawatte", "amenity": "place_of_worship", "check_date": "2022-10-25", "name": "Ramakrishna Mission", "religion": "hindu", "wheelchair": "no"}}, {"type": "node", "id": 667278638, "lat": 6.8860923, "lon": 79.8581341, "tags": {"amenity": "place_of_worship", "name": "St. Paul's Church", "religion": "christian"}}, {"type": "node", "id": 673069752, "lat": 6.8994789, "lon": 79.8950819, "tags": {"amenity": "place_of_worship", "name": "Dharma Nikethanaya Temple", "religion": "buddhist"}}, {"type": "node", "id": 673918205, "lat": 6.8822179, "lon": 79.8687215, "tags": {"amenity": "place_of_worship", "name": "Mayura Kovil", "religion": "hindu", "wheelchair": "limited"}}, {"type": "node", "id": 673924700, "lat": 6.865186, "lon": 79.8695807, "tags": {"amenity": "place_of_worship", "denomination": "theravada", "name": "Hathbodiya Temple", "religion": "buddhist"}}, {"type": "node", "id": 673927619, "lat": 6.8612874, "lon": 79.8670057, "tags": {"amenity": "place_of_worship", "name": "Temple"}}, {"type": "node", "id": 673953424, "lat": 6.8438594, "lon": 79.8675558, "tags": {"amenity": "place_of_worship", "name": "St.Anthoney's Church", "religion": "christian"}}, {"type": "node", "id": 673953425, "lat": 6.840718, "lon": 79.8701171, "tags": {"amenity": "place_of_worship", "denomination": "theravada", "name": "Sumanarama Temple", "religion": "buddhist"}}, {"type": "node", "id": 673953427, "lat": 6.8439807, "lon": 79.874106, "tags": {"amenity": "place_of_worship", "name": "Shashtrananda School"}}, {"type": "node", "id": 673953430, "lat": 6.8600198, "lon": 79.8743657, "tags": {"amenity": "place_of_worship", "name": "Prathibimbaramaya Temple"}}, {"type": "node", "id": 674889509, "lat": 6.8764975, "lon": 79.8612474, "tags": {"amenity": "place_of_worship", "check_date": "2023-10-08", "name": "Methodist Church Wellawatta", "religion": "christian"}}, {"type": "node", "id": 674898000, "lat": 6.8809548, "lon": 79.8959284, "tags": {"amenity": "place_of_worship", "name": "Vidya Vijaya aramaya", "religion": "buddhist"}}, {"type": "node", "id": 674943715, "lat": 6.8597544, "lon": 79.8863662, "tags": {"amenity": "place_of_worship", "denomination": "theravada", "name": "sri sumanaramaya", "religion": "buddhist"}}, {"type": "node", "id": 675994028, "lat": 6.856601, "lon": 79.8672968, "tags": {"amenity": "place_of_worship", "name": "Pattini Devalaya"}}, {"type": "node", "id": 676008027, "lat": 6.8571442, "lon": 79.881019, "tags": {"amenity": "place_of_worship", "name": "Sri Venkateshwara Maha Vishnu Kovil", "religion": "hindu"}}, {"type": "node", "id": 678259132, "lat": 6.9249896, "lon": 79.8525544, "tags": {"amenity": "place_of_worship", "name": "Sive Subramaniya Kovil Slave Island", "religion": "hindu"}}, {"type": "node", "id": 678259136, "lat": 6.9245156, "lon": 79.8530785, "tags": {"addr:city": "Colombo02", "addr:street": "Kew Lane", "amenity": "place_of_worship", "name": "Masjidul Akbar Jumma Mosque Slave Island", "religion": "muslim"}}, {"type": "node", "id": 678287423, "lat": 6.9211999, "lon": 79.8522443, "tags": {"amenity": "place_of_worship", "name": "Sri Bodhiraja Viharaya", "religion": "buddhist"}}, {"type": "node", "id": 678323259, "lat": 6.9076913, "lon": 79.8542371, "tags": {"amenity": "place_of_worship", "denomination": "catholic", "name": "St. Anthony's Church", "religion": "christian"}}, {"type": "node", "id": 678342993, "lat": 6.8947428, "lon": 79.8564867, "tags": {"amenity": "place_of_worship", "name": "Mattarama Buddhist Temple", "religion": "buddhist"}}, {"type": "node", "id": 678342999, "lat": 6.8948336, "lon": 79.8581401, "tags": {"amenity": "place_of_worship", "name": "St. Mary's Church", "religion": "christian"}}, {"type": "node", "id": 678591928, "lat": 6.858902, "lon": 79.8720785, "tags": {"addr:city": "Dehiwala", "amenity": "place_of_worship", "name": "Sri Punyawardanaramaya Temple"}}, {"type": "node", "id": 678612526, "lat": 6.8372459, "lon": 79.8695143, "tags": {"amenity": "place_of_worship", "name": "Jumma Mosque", "religion": "muslim"}}, {"type": "node", "id": 678640547, "lat": 6.831599, "lon": 79.8708579, "tags": {"amenity": "place_of_worship", "name": "Sri Sugatha Dharmayathanaya", "religion": "buddhist"}}, {"type": "node", "id": 678692751, "lat": 6.8716606, "lon": 79.8732557, "tags": {"addr:city": "Kohuwala", "addr:street": "Sri Maha Vihara Road", "amenity": "place_of_worship", "name": "Sri Maha Viharaya", "religion": "buddhist"}}, {"type": "node", "id": 679007498, "lat": 6.9085649, "lon": 79.8766027, "tags": {"amenity": "place_of_worship", "name": "Sri Bauddhaloka Maha Viharaya", "religion": "buddhist"}}, {"type": "node", "id": 679008484, "lat": 6.9092001, "lon": 79.8712374, "tags": {"addr:city": "Colombo", "addr:housename": "Sri Sambodhi Viharaya", "addr:housenumber": "108", "addr:postcode": "00700", "addr:street": "Wijerama Mawatha", "amenity": "place_of_worship", "building:levels": "2", "name": "Sri Sambodhi Viharaya", "religion": "buddhist"}}, {"type": "node", "id": 679023678, "lat": 6.8867925, "lon": 79.9140319, "tags": {"amenity": "place_of_worship", "name": "Veherakanda Temple", "religion": "buddhist"}}, {"type": "node", "id": 681217993, "lat": 6.8678121, "lon": 79.8977222, "tags": {"amenity": "place_of_worship", "name": "Subadrarama Temple", "religion": "buddhist"}}, {"type": "node", "id": 681253289, "lat": 6.8537078, "lon": 79.9426626, "tags": {"amenity": "place_of_worship", "name": "Sri Devram Maha Viharaya", "religion": "buddhist"}}, {"type": "node", "id": 681268686, "lat": 6.8434523, "lon": 79.930877, "tags": {"amenity": "place_of_worship", "denomination": "roman_catholic", "religion": "christian"}}, {"type": "node", "id": 681588260, "lat": 6.9686107, "lon": 79.8704458, "tags": {"amenity": "place_of_worship", "name": "St. John's Church"}}, {"type": "node", "id": 681802829, "lat": 6.9229836, "lon": 79.8681208, "tags": {"amenity": "place_of_worship", "name": "Sri Bodhirajaramaya", "religion": "buddhist"}}, {"type": "node", "id": 681802854, "lat": 6.9226428, "lon": 79.8652562, "tags": {"amenity": "place_of_worship", "name": "Fathima Church", "religion": "christian"}}, {"type": "node", "id": 681802920, "lat": 6.9192026, "lon": 79.8671874, "tags": {"amenity": "place_of_worship", "name": "Dutch Reform Church", "religion": "christian"}}, {"type": "node", "id": 681871598, "lat": 6.9268497, "lon": 79.8692688, "tags": {"amenity": "place_of_worship", "name": "Mahabodi Samagama", "religion": "buddhist"}}, {"type": "node", "id": 682080653, "lat": 6.92227, "lon": 79.8743435, "tags": {"amenity": "place_of_worship", "name": "Somaramaya", "religion": "buddhist"}}, {"type": "node", "id": 682080665, "lat": 6.9224511, "lon": 79.8759421, "tags": {"amenity": "place_of_worship", "name": "Vivekaramaya", "religion": "buddhist"}}, {"type": "node", "id": 682084505, "lat": 6.9305881, "lon": 79.8761875, "tags": {"addr:country": "LK", "amenity": "place_of_worship", "name": "Jumma mosque", "religion": "muslim"}}, {"type": "node", "id": 682652569, "lat": 6.9420432, "lon": 79.8590271, "tags": {"amenity": "place_of_worship", "name": "Wolvendaal Church", "religion": "christian", "wikidata": "Q16736534", "wikimedia_commons": "Category:Wolvendaal Church", "wikipedia": "en:Wolvendaal Church"}}, {"type": "node", "id": 682652665, "lat": 6.9456057, "lon": 79.8595145, "tags": {"amenity": "place_of_worship", "denomination": "roman_catholic", "name": "St. Mary's Church", "religion": "christian"}}, {"type": "node", "id": 682652715, "lat": 6.9421231, "lon": 79.8546222, "tags": {"amenity": "place_of_worship", "name": "New Kathiresan Kovil", "religion": "hindu"}}, {"type": "node", "id": 682685487, "lat": 6.9424426, "lon": 79.8573044, "tags": {"amenity": "place_of_worship", "name": "Sri Bodhirajaramaya", "religion": "buddhist"}}, {"type": "node", "id": 682685490, "lat": 6.9389919, "lon": 79.8564139, "tags": {"amenity": "place_of_worship", "check_date": "2024-12-26", "denomination": "methodist", "name": "Methodist Church", "religion": "christian", "wikidata": "Q38251247", "wikipedia": "en:Methodist Church, Pettah"}}, {"type": "node", "id": 682687385, "lat": 6.9367886, "lon": 79.8481559, "tags": {"addr:city": "Colombo 11", "addr:street": "Sir Baron Jayathilaka Mawatha", "amenity": "place_of_worship", "check_date": "2024-12-26", "name": "Sri Bodhiraja Viharaya", "religion": "buddhist"}}, {"type": "node", "id": 683783949, "lat": 6.9106902, "lon": 79.89409, "tags": {"amenity": "place_of_worship", "check_date": "2024-04-01", "denomination": "roman_catholic", "name": "Sacred Heart Church", "religion": "christian"}}, {"type": "node", "id": 683783951, "lat": 6.9122126, "lon": 79.8950667, "tags": {"addr:city": "Rajagiriya", "addr:street": "Dharmapala PL", "amenity": "place_of_worship", "name": "Sri Vijayaramaya Buddhist Temple", "religion": "buddhist"}}, {"type": "node", "id": 683783956, "lat": 6.9115436, "lon": 79.8977703, "tags": {"amenity": "place_of_worship", "name": "Temple", "religion": "buddhist"}}, {"type": "node", "id": 683787577, "lat": 6.913321, "lon": 79.890182, "tags": {"amenity": "place_of_worship", "name": "Sri Amaraviharaya"}}, {"type": "node", "id": 683788943, "lat": 6.9169103, "lon": 79.8973516, "tags": {"amenity": "place_of_worship", "name": "Sudharmaramaya Purana Viharaya", "religion": "buddhist"}}, {"type": "node", "id": 683788944, "lat": 6.9192002, "lon": 79.8973087, "tags": {"amenity": "place_of_worship", "denomination": "roman_catholic", "name": "St.Stephen's Church", "religion": "christian"}}, {"type": "node", "id": 683788946, "lat": 6.9303833, "lon": 79.8914722, "tags": {"amenity": "place_of_worship", "name": "Temple"}}, {"type": "node", "id": 683789964, "lat": 6.9266344, "lon": 79.8960641, "tags": {"amenity": "place_of_worship", "name": "Edirisingharamaya"}}, {"type": "node", "id": 683789965, "lat": 6.9272627, "lon": 79.8963431, "tags": {"amenity": "place_of_worship", "name": "Anandaramaya"}}, {"type": "node", "id": 683793259, "lat": 6.9199113, "lon": 79.9033445, "tags": {"amenity": "place_of_worship", "name": "Sri Suramyaramaya"}}, {"type": "node", "id": 696458414, "lat": 6.9338964, "lon": 79.8807771, "tags": {"amenity": "place_of_worship", "name": "Sri Wickramasingharamaya", "religion": "buddhist"}}, {"type": "node", "id": 696463032, "lat": 6.9415753, "lon": 79.8786098, "tags": {"amenity": "place_of_worship", "check_date": "2024-03-11", "name": "Sri Sudharmaramaya", "religion": "buddhist"}}, {"type": "node", "id": 696497074, "lat": 6.9486666, "lon": 79.8858733, "tags": {"amenity": "place_of_worship", "name": "Purana Maha Viharaya", "religion": "buddhist"}}, {"type": "node", "id": 767862378, "lat": 6.8970239, "lon": 79.9407903, "tags": {"amenity": "place_of_worship", "name": "Abhinawaramaya", "religion": "buddhist"}}, {"type": "node", "id": 913095566, "lat": 6.8468216, "lon": 79.9515202, "tags": {"amenity": "place_of_worship", "name": "Parama Dhamma Viharaya", "religion": "buddhist"}}, {"type": "node", "id": 971827272, "lat": 6.9014302, "lon": 79.9508443, "tags": {"addr:city": "Malabe", "addr:street": "Yasodhararama Road", "amenity": "place_of_worship", "name": "Yashodhararamaya", "religion": "buddhist"}}, {"type": "node", "id": 973582528, "lat": 6.9112454, "lon": 79.9461514, "tags": {"amenity": "place_of_worship", "name": "Sri Bodhirukkaramaya", "religion": "buddhist"}}, {"type": "node", "id": 973582533, "lat": 6.9096706, "lon": 79.9395517, "tags": {"amenity": "place_of_worship", "name": "Shalukaramaya"}}, {"type": "node", "id": 974334115, "lat": 6.9084047, "lon": 79.9573462, "tags": {"amenity": "place_of_worship", "name": "Susilaramaya", "religion": "buddhist"}}, {"type": "node", "id": 1076355955, "lat": 6.9355175, "lon": 79.9620168, "tags": {"amenity": "place_of_worship", "denomination": "catholic", "name": "St. Mary's Church, Welivita", "religion": "christian"}}, {"type": "node", "id": 1131884363, "lat": 6.941557, "lon": 79.8717664, "tags": {"amenity": "place_of_worship", "name": "Keththarama Temple", "religion": "buddhist"}}, {"type": "node", "id": 1235773268, "lat": 6.879834, "lon": 79.9726577, "tags": {"amenity": "place_of_worship", "religion": "buddhist"}}, {"type": "node", "id": 1261071452, "lat": 6.8632611, "lon": 79.865291, "tags": {"amenity": "place_of_worship", "name": "Dehiwala Jumma Masjid", "religion": "muslim"}}, {"type": "node", "id": 1261072496, "lat": 6.8611027, "lon": 79.8666091, "tags": {"amenity": "place_of_worship", "name": "Pinwathe Temple", "religion": "buddhist"}}, {"type": "node", "id": 1269985593, "lat": 7.0921396, "lon": 79.8502584, "tags": {"amenity": "place_of_worship", "denomination": "roman_catholic", "name": "St. Joseph's Pamunugama", "religion": "christian"}}, {"type": "node", "id": 1272979810, "lat": 6.8383659, "lon": 79.9220241, "tags": {"addr:city": "Maharagama", "amenity": "place_of_worship", "name": "Dharma Sri Maha Bodhi Temple", "religion": "buddhist"}}, {"type": "node", "id": 1272998499, "lat": 6.8040636, "lon": 79.9110807, "tags": {"amenity": "place_of_worship", "religion": "christian"}}, {"type": "node", "id": 1272998532, "lat": 6.8067311, "lon": 79.9071617, "tags": {"addr:city": "Wewala", "amenity": "place_of_worship", "name": "Gangarama Purana Viharasthanaya"}}, {"type": "node", "id": 1285552391, "lat": 7.0571928, "lon": 79.9343744, "tags": {"amenity": "place_of_worship", "name": "St. Jude Church", "religion": "christian"}}, {"type": "node", "id": 1285552469, "lat": 7.0634455, "lon": 79.9034968, "tags": {"amenity": "place_of_worship", "denomination": "roman_catholic", "name": "St. Anthony's Church Batagama", "religion": "christian"}}, {"type": "node", "id": 1303490906, "lat": 6.9256271, "lon": 80.0178699, "tags": {"amenity": "place_of_worship", "religion": "christian"}}, {"type": "node", "id": 1370722305, "lat": 7.0336413, "lon": 79.9301642, "tags": {"amenity": "place_of_worship", "name": "Ihalagama Sugatharamaya", "religion": "buddhist"}}, {"type": "node", "id": 1378992432, "lat": 6.93172, "lon": 79.8653657, "tags": {"amenity": "place_of_worship", "name": "Panchikawatte Masjid", "religion": "muslim"}}, {"type": "node", "id": 1463832342, "lat": 6.8457298, "lon": 80.045521, "tags": {"amenity": "place_of_worship", "name": "Sri Sugatha Dharmayathanaya", "religion": "buddhist"}}, {"type": "node", "id": 1523694052, "lat": 6.8454559, "lon": 79.9241074, "tags": {"amenity": "place_of_worship", "name": "Vipashyarama Temple", "religion": "buddhist"}}, {"type": "node", "id": 1523727182, "lat": 6.8384572, "lon": 79.9253305, "tags": {"amenity": "place_of_worship", "name": "Bogahawatta Temple", "religion": "buddhist"}}, {"type": "node", "id": 1526697840, "lat": 6.8294215, "lon": 79.9113847, "tags": {"addr:city": "Werahera", "amenity": "place_of_worship", "name": "Parama Dhamma Visuddharamaya"}}, {"type": "node", "id": 1526697944, "lat": 6.8281517, "lon": 79.9194883, "tags": {"addr:city": "Neelammahara", "amenity": "place_of_worship", "name": "Neelammahara Temple", "religion": "buddhist"}}, {"type": "node", "id": 1528654167, "lat": 6.8450566, "lon": 79.8720969, "tags": {"amenity": "place_of_worship", "name": "Anu-Subodharamaya Temple", "religion": "buddhist"}}, {"type": "node", "id": 1571683688, "lat": 6.9974864, "lon": 80.1726241, "tags": {"addr:postcode": "11742", "alt_name": "Meethirigala Nissarana Wanaya Aranya", "amenity": "place_of_worship", "contact:email": "nissaranavanaya@gmail.com", "contact:mobile": "+94 77 722 3468", "contact:phone": "+94332253295", "denomination": "theravada", "name": "Nissara\u1e47a Vanaya", "name:ceb": "Monasteryong Lasang Niss\u00ebr\u00ebn\u00eb", "name:da": "Nissara\u1e47a Skovskloster", "name:de": "Waldkloster Nissara\u1e47a", "name:en": "Nissara\u1e47a Forest Monastery", "name:es": "Monasterio Selv\u00e1tico Nissara\u1e47a", "name:id": "Wihara Hutan Nissara\u1e47a", "name:la": "Monast\u0113rium Silv\u0101ticum Nissara\u1e47a", "name:ms": "Biara Hutan Nissara\u1e47a", "name:nb": "Nissara\u1e47a skogskloster", "name:pam": "Monasteriung P\u00falung Nissarana", "name:pi": "\ud804\udc26\ud804\udc3a\ud804\udc32\ud804\udc46\ud804\udc32\ud804\udc2d\ud804\udc21", "name:si": "\u0db1\u0dd2\u0dc3\u0dca\u0dc3\u0dbb\u0dab \u0dc0\u0db1\u0dba", "name:tl": "Monasteryong Gubat Niss\u00ebr\u00ebn\u00eb", "name:vec": "Monasti\u00e8r Forestale Nissara\u1e47a", "religion": "buddhist", "website": "https://www.nissarana.lk/", "wikidata": "Q17051454", "wikipedia": "en:Nissarana Vanaya"}}, {"type": "node", "id": 1600082505, "lat": 6.8775343, "lon": 79.9434257, "tags": {"amenity": "place_of_worship", "check_date": "2024-03-02", "email": "info@jothikaramaya.org.lk", "name": "Jothika Ramaya", "phone": "+94 71 259 9572", "religion": "buddhist", "website": "https://jothikaramaya.org.lk/"}}, {"type": "node", "id": 1600085617, "lat": 6.8834319, "lon": 79.9421975, "tags": {"amenity": "place_of_worship", "name": "Chittha Viveka Asramaya", "religion": "buddhist"}}, {"type": "node", "id": 1642781006, "lat": 6.8279341, "lon": 79.8746799, "tags": {"addr:city": "colombo", "addr:street": "Pirivena Road", "amenity": "place_of_worship", "denomination": "theravada", "name": "Parama Dhamma Chethiya Pirivena", "religion": "buddhist"}}, {"type": "node", "id": 1650091390, "lat": 6.8533076, "lon": 79.9229329, "tags": {"addr:city": "Maharagama", "amenity": "place_of_worship", "name": "Sri Pagnatilakaramaya", "religion": "buddhist"}}, {"type": "node", "id": 1651212802, "lat": 6.8520616, "lon": 79.9189227, "tags": {"addr:city": "Nawinna", "addr:street": "High Level Road", "amenity": "place_of_worship", "name": "Isipathanaramaya", "religion": "buddhist"}}, {"type": "node", "id": 1651265543, "lat": 6.8656312, "lon": 79.9114724, "tags": {"addr:city": "Embuldeniya", "amenity": "place_of_worship", "name": "Sri Sudharmaramaya"}}, {"type": "node", "id": 1651294563, "lat": 6.8625405, "lon": 79.9013179, "tags": {"addr:city": "Delkanda", "addr:street": "Old Kesbawa Road", "amenity": "place_of_worship", "name": "Bodhimalu Viharaya", "religion": "buddhist"}}, {"type": "node", "id": 1651318450, "lat": 6.8451744, "lon": 79.9540893, "tags": {"addr:city": "Pannipitiya", "addr:street": "High Level Road", "amenity": "place_of_worship", "check_date": "2024-04-06", "name": "Vidyalankara Pirivena", "religion": "buddhist"}}, {"type": "node", "id": 1654174017, "lat": 6.8597152, "lon": 79.9287814, "tags": {"amenity": "place_of_worship", "name": "Siri Mangalaramaya", "religion": "buddhist"}}, {"type": "node", "id": 1654305500, "lat": 6.8317211, "lon": 79.8682352, "tags": {"amenity": "place_of_worship", "name": "Thapodhanaramaya", "religion": "buddhist"}}, {"type": "node", "id": 1655728802, "lat": 6.8773804, "lon": 79.8818321, "tags": {"addr:city": "Kirulapone", "addr:street": "Poorwarama Road", "amenity": "place_of_worship", "name": "Sri Poorvaramaya", "religion": "buddhist"}}, {"type": "node", "id": 1665544394, "lat": 6.8441884, "lon": 79.9299045, "tags": {"addr:city": "Maharagama", "addr:street": "Mahamegawatte Road", "amenity": "place_of_worship", "name": "Baptists Church", "religion": "christian"}}, {"type": "node", "id": 1665576499, "lat": 6.8599457, "lon": 79.921933, "tags": {"amenity": "place_of_worship", "name": "Sri Nalandaramaya", "religion": "buddhist"}}, {"type": "node", "id": 1670775465, "lat": 6.872969, "lon": 79.9136681, "tags": {"addr:city": "Madiwela", "addr:street": "Bodhiya Road", "amenity": "place_of_worship", "name": "Sri Bodhi Piriven Temple", "religion": "buddhist"}}, {"type": "node", "id": 1672927312, "lat": 6.8916622, "lon": 79.8669158, "tags": {"addr:city": "Jawatte", "addr:street": "Jawatte Road", "amenity": "place_of_worship", "name": "Church of the Good Shepherd", "religion": "christian", "service_times": "Su 6:30,17:30"}}, {"type": "node", "id": 1672991075, "lat": 6.9073022, "lon": 79.8757186, "tags": {"addr:city": "Borella", "addr:street": "Bauddhaloka Mawatha", "amenity": "place_of_worship", "name": "Dhamma Gaweshi Monastry", "name:si": "\u0db0\u0db8\u0dca\u0db8 \u0d9c\u0dc0\u0dda\u0dc1\u0dd3 \u0d86\u0dc1\u0dca\u200d\u0dbb\u0db8\u0dba", "religion": "buddhist"}}, {"type": "node", "id": 1672991076, "lat": 6.9064582, "lon": 79.8746618, "tags": {"amenity": "place_of_worship", "name": "Sri Kalyana Dharma Peramuna", "religion": "buddhist"}}, {"type": "node", "id": 1673007839, "lat": 6.8832426, "lon": 79.88705, "tags": {"amenity": "place_of_worship", "name": "Wickremasingharamaya", "religion": "buddhist"}}, {"type": "node", "id": 1673021337, "lat": 6.8683119, "lon": 79.8890443, "tags": {"addr:city": "Nugegoda", "addr:housenumber": "9/8", "addr:street": "Nalandarama Road", "amenity": "place_of_worship", "name": "Sri Nalandaramaya", "religion": "buddhist"}}, {"type": "node", "id": 1673021345, "lat": 6.8701395, "lon": 79.887295, "tags": {"addr:city": "Nugegoda WP", "addr:street": "High Level Road", "amenity": "place_of_worship", "name": "Sri Dhammarama Viharaya", "religion": "buddhist"}}, {"type": "node", "id": 1673031664, "lat": 6.852064, "lon": 79.9134659, "tags": {"amenity": "place_of_worship", "name": "Nawinna Raja Maha Viharaya", "religion": "buddhist"}}, {"type": "node", "id": 1673065576, "lat": 6.8434401, "lon": 79.940054, "tags": {"addr:city": "Maharagama", "amenity": "place_of_worship", "name": "Sri Chandrasekararamaya", "religion": "buddhist"}}, {"type": "node", "id": 1673065585, "lat": 6.8447692, "lon": 79.941419, "tags": {"addr:city": "Maharagama", "addr:street": "High Level Road", "amenity": "place_of_worship", "name": "Indraramaya Temple", "religion": "buddhist"}}, {"type": "node", "id": 1678269042, "lat": 6.9706222, "lon": 79.9136521, "tags": {"amenity": "place_of_worship", "name": "Sri Swarnathilakaramaya", "religion": "buddhist"}}, {"type": "node", "id": 1678271630, "lat": 6.9758991, "lon": 79.9129172, "tags": {"amenity": "place_of_worship", "name": "Sri Nagarukkaramaya", "religion": "buddhist"}}, {"type": "node", "id": 1683190009, "lat": 6.8638449, "lon": 79.8638852, "tags": {"addr:city": "Wellawatte", "amenity": "place_of_worship", "check_date": "2022-10-15", "name": "Sri Sudharmaramaya", "religion": "buddhist"}}, {"type": "node", "id": 1684190295, "lat": 6.8515944, "lon": 79.9238347, "tags": {"amenity": "place_of_worship", "name": "Sri Vivekaramaya", "religion": "buddhist"}}, {"type": "node", "id": 1695899008, "lat": 6.8606381, "lon": 79.9084281, "tags": {"amenity": "place_of_worship", "name": "Pagnodayaramaya", "religion": "buddhist"}}, {"type": "node", "id": 1695899014, "lat": 6.8586222, "lon": 79.9107455, "tags": {"amenity": "place_of_worship", "name": "Sri Wijayarama Raja Maha Viharaya", "religion": "buddhist"}}, {"type": "node", "id": 1697583807, "lat": 6.8307162, "lon": 80.1334187, "tags": {"amenity": "place_of_worship", "religion": "buddhist"}}, {"type": "node", "id": 1714950934, "lat": 6.8598008, "lon": 79.8650028, "tags": {"addr:city": "Dehiwala", "amenity": "place_of_worship", "name": "St. Mary's Church", "religion": "christian"}}, {"type": "node", "id": 1716481461, "lat": 6.821556, "lon": 79.8696862, "tags": {"amenity": "place_of_worship", "religion": "buddhist"}}, {"type": "node", "id": 1723588932, "lat": 6.8809111, "lon": 79.8707055, "tags": {"amenity": "place_of_worship", "religion": "buddhist"}}, {"type": "node", "id": 1736059684, "lat": 6.8429767, "lon": 79.9782977, "tags": {"amenity": "place_of_worship", "name": "Malapalla Temple", "religion": "buddhist"}}, {"type": "node", "id": 1736081350, "lat": 6.8615126, "lon": 79.9380486, "tags": {"amenity": "place_of_worship", "name": "Polwatte Temple", "religion": "buddhist"}}, {"type": "node", "id": 1778850409, "lat": 6.9069022, "lon": 80.0530928, "tags": {"addr:city": "Ambulgama", "amenity": "place_of_worship", "name": "Ambulgama Purana Raja Maha Viharaya", "religion": "buddhist"}}, {"type": "node", "id": 1788224810, "lat": 6.828958, "lon": 80.0271253, "tags": {"amenity": "place_of_worship", "name": "Pitipana Purana Maha Viharaya", "religion": "buddhist"}}, {"type": "node", "id": 1788297088, "lat": 6.8525718, "lon": 80.0675421, "tags": {"amenity": "place_of_worship", "name": "Sri Punyaloka Viharaya", "religion": "buddhist"}}, {"type": "node", "id": 1788326237, "lat": 6.8556126, "lon": 80.0975468, "tags": {"addr:city": "Meepe", "addr:place": "Pitumpe", "addr:postcode": "10500", "amenity": "place_of_worship", "denomination": "theravada", "name": "Pitumpe Temple", "religion": "buddhist"}}, {"type": "node", "id": 1791828394, "lat": 6.8161901, "lon": 79.9709179, "tags": {"amenity": "place_of_worship", "religion": "buddhist"}}, {"type": "node", "id": 1793993591, "lat": 6.8089517, "lon": 79.9489777, "tags": {"amenity": "place_of_worship", "name": "Sri Nikethanaramaya", "religion": "buddhist"}}, {"type": "node", "id": 1794009721, "lat": 6.8111423, "lon": 79.9554836, "tags": {"addr:city": "Siddamulla", "addr:street": "Piliyandala - Kottawa Road", "amenity": "place_of_worship", "name": "Sri Sangarama Maha Viharaya", "religion": "buddhist"}}, {"type": "node", "id": 1807902918, "lat": 7.0692068, "lon": 79.9551251, "tags": {"amenity": "place_of_worship", "name": "Subadraramaya Temple", "religion": "buddhist"}}, {"type": "node", "id": 1819715434, "lat": 6.8817792, "lon": 79.9014865, "tags": {"amenity": "place_of_worship", "name": "St Thomas", "religion": "christian"}}, {"type": "node", "id": 1838377733, "lat": 6.8759528, "lon": 79.8807906, "tags": {"addr:city": "Kirulapone", "addr:street": "Kirulapana Masjid Road", "amenity": "place_of_worship", "name": "Jumma Masjid", "religion": "muslim"}}, {"type": "node", "id": 1838419598, "lat": 6.8945884, "lon": 79.8531736, "tags": {"amenity": "place_of_worship", "name": "Borah Mosque", "religion": "muslim"}}, {"type": "node", "id": 1838424077, "lat": 6.86937, "lon": 79.8590004, "tags": {"addr:city": "Wellawatte", "addr:street": "International Buddhist Centre Road", "amenity": "place_of_worship", "name": "Int. Buddhist Centre", "religion": "buddhist"}}, {"type": "node", "id": 1838453760, "lat": 6.852625, "lon": 79.8717918, "tags": {"addr:city": "Dehiwala", "amenity": "place_of_worship", "name": "Dharmaraja Temple", "religion": "buddhist"}}, {"type": "node", "id": 1838453765, "lat": 6.8629096, "lon": 79.863485, "tags": {"amenity": "place_of_worship", "religion": "buddhist"}}, {"type": "node", "id": 1838453783, "lat": 6.8541563, "lon": 79.8657783, "tags": {"amenity": "place_of_worship", "religion": "buddhist"}}, {"type": "node", "id": 1838453797, "lat": 6.8507183, "lon": 79.8638712, "tags": {"addr:city": "Dehiwala", "amenity": "place_of_worship", "name": "Christian Reformed Church", "religion": "christian"}}, {"type": "node", "id": 1838532106, "lat": 6.8258713, "lon": 79.8784786, "tags": {"amenity": "place_of_worship", "name": "Mallikaramaya", "religion": "buddhist"}}, {"type": "node", "id": 1839459853, "lat": 6.9230627, "lon": 79.8663979, "tags": {"amenity": "place_of_worship", "name": "Maha Pirivena (Ode Pansala)", "religion": "buddhist"}}, {"type": "node", "id": 1839468653, "lat": 6.8937434, "lon": 79.9114939, "tags": {"amenity": "place_of_worship", "name": "Sri Parakumba Pirivena", "religion": "buddhist"}}, {"type": "node", "id": 1839468676, "lat": 6.8940176, "lon": 79.9124487, "tags": {"amenity": "place_of_worship", "name": "Sunethrarama Viharaya", "religion": "buddhist"}}, {"type": "node", "id": 1839468735, "lat": 6.8979192, "lon": 79.9091855, "tags": {"amenity": "place_of_worship", "name": "Mahindaramaya", "religion": "buddhist"}}, {"type": "node", "id": 1839503039, "lat": 6.8793506, "lon": 79.9243229, "tags": {"addr:city": "Madiwela", "amenity": "place_of_worship", "name": "Eeyam Poruwa Raja Maha Viharaya", "religion": "buddhist"}}, {"type": "node", "id": 1840750594, "lat": 7.0040909, "lon": 79.9533712, "tags": {"amenity": "place_of_worship", "name": "Kadawatha Church", "religion": "christian"}}, {"type": "node", "id": 1843473648, "lat": 6.9941875, "lon": 80.0126748, "tags": {"amenity": "place_of_worship", "name": "Sri Wardanaramaya", "religion": "buddhist"}}, {"type": "node", "id": 1843491238, "lat": 6.9504097, "lon": 80.0530856, "tags": {"amenity": "place_of_worship", "name": "Sri Shaila Chaithyarama Purana Viharaya", "religion": "buddhist"}}, {"type": "node", "id": 1843534073, "lat": 6.9320039, "lon": 79.9834495, "tags": {"amenity": "place_of_worship", "name": "Sankha Pitti Viharaya", "religion": "buddhist", "toilets:wheelchair": "no", "wheelchair": "limited"}}, {"type": "node", "id": 1843603532, "lat": 6.9649284, "lon": 80.0137477, "tags": {"amenity": "place_of_worship", "name": "Somalankaramaya", "religion": "buddhist"}}, {"type": "node", "id": 1843603970, "lat": 6.9934846, "lon": 80.0311499, "tags": {"amenity": "place_of_worship", "name": "Ahugammana Sri Sudharmaramaya", "religion": "buddhist"}}, {"type": "node", "id": 1843685970, "lat": 6.9475079, "lon": 79.9879931, "tags": {"amenity": "place_of_worship", "religion": "buddhist"}}, {"type": "node", "id": 1862625130, "lat": 6.9031395, "lon": 80.0876447, "tags": {"amenity": "place_of_worship", "check_date": "2024-03-31", "ele": "18.2", "name": "Pahathgama Paptist Church", "religion": "christian", "time": "2012-08-12T06:35:57.986Z"}}, {"type": "node", "id": 1862625132, "lat": 6.9201012, "lon": 80.0978672, "tags": {"amenity": "place_of_worship", "ele": "21.3", "name": "Kaluaggala Raja Maha Viharaya", "religion": "buddhist", "time": "2012-08-12T07:02:28.497Z"}}, {"type": "node", "id": 1862625150, "lat": 6.9185782, "lon": 80.0994658, "tags": {"amenity": "place_of_worship", "ele": "25.5", "name": "Our Lady Sorrow Church", "religion": "christian", "time": "2012-08-12T07:02:06.602Z"}}, {"type": "node", "id": 1862711677, "lat": 6.95979, "lon": 80.1123245, "tags": {"amenity": "place_of_worship", "name": "Sri Subhadraramaya", "religion": "buddhist"}}, {"type": "node", "id": 1862832375, "lat": 6.8923934, "lon": 80.1062856, "tags": {"amenity": "place_of_worship", "religion": "buddhist"}}, {"type": "node", "id": 1862855079, "lat": 6.8675859, "lon": 80.122057, "tags": {"amenity": "place_of_worship", "name": "Saylabimbarama Temple", "religion": "buddhist"}}, {"type": "node", "id": 1863871401, "lat": 6.8788898, "lon": 79.8766899, "tags": {"amenity": "place_of_worship", "check_date": "2024-03-10", "name": "Calvary", "religion": "christian"}}, {"type": "node", "id": 1895968921, "lat": 6.8064455, "lon": 79.8845564, "tags": {"amenity": "place_of_worship", "name": "Soysaramaya", "religion": "buddhist"}}, {"type": "node", "id": 1899707164, "lat": 7.0463061, "lon": 79.9076985, "tags": {"amenity": "place_of_worship", "name": "Sri Wardhanaramaya", "religion": "buddhist"}}, {"type": "node", "id": 1901979576, "lat": 7.0253667, "lon": 79.8996895, "tags": {"amenity": "place_of_worship", "name": "Mulagandhikuti Viharaya", "religion": "buddhist"}}, {"type": "node", "id": 1903781414, "lat": 7.0101048, "lon": 79.898056, "tags": {"amenity": "place_of_worship", "name": "Sri Premaramaya", "religion": "buddhist"}}, {"type": "node", "id": 1907040475, "lat": 6.8571603, "lon": 79.9846689, "tags": {"addr:city": "Rukmalgama", "amenity": "place_of_worship", "denomination": "theravada", "name": "Dharma Wijayaloka Temple", "name:si": "\u0dc1\u0dca\u200d\u0dbb\u0dd3 \u0db0\u0dbb\u0dca\u0db8\u0dc0\u0dd2\u0da2\u0dba\u0dcf\u0dbd\u0ddd\u0d9a \u0dc0\u0dd2\u0dc4\u0dcf\u0dbb\u0dba", "religion": "buddhist"}}, {"type": "node", "id": 1908190603, "lat": 6.9634748, "lon": 79.8729371, "tags": {"amenity": "place_of_worship", "name": "Dhawalasingharamaya", "religion": "buddhist"}}, {"type": "node", "id": 1909489380, "lat": 6.9961895, "lon": 79.8903822, "tags": {"amenity": "place_of_worship", "name": "Purana Viharaya", "religion": "buddhist"}}, {"type": "node", "id": 1909618653, "lat": 7.0133153, "lon": 79.8970233, "tags": {"amenity": "place_of_worship", "name": "Pulinathararamaya", "religion": "buddhist"}}, {"type": "node", "id": 1912538667, "lat": 6.9206215, "lon": 79.9118355, "tags": {"amenity": "place_of_worship", "name": "Gnanawimalarama Viharaya", "religion": "buddhist"}}, {"type": "node", "id": 1918165065, "lat": 6.9346226, "lon": 79.9171279, "tags": {"addr:city": "Kotikawatte", "amenity": "place_of_worship", "name": "Sri Nagharukkharamaya", "religion": "buddhist"}}, {"type": "node", "id": 1918165067, "lat": 6.9368711, "lon": 79.919629, "tags": {"amenity": "place_of_worship", "name": "Dharma Rakshitharamaya", "religion": "buddhist"}}, {"type": "node", "id": 1918165070, "lat": 6.9342724, "lon": 79.9183764, "tags": {"addr:city": "Kotikawatte", "amenity": "place_of_worship", "name": "Sri Vimalaramaya", "religion": "buddhist"}}, {"type": "node", "id": 1924788491, "lat": 6.95045, "lon": 79.8769765, "tags": {"amenity": "place_of_worship", "religion": "hindu"}}, {"type": "node", "id": 1934706179, "lat": 6.845472, "lon": 79.9579095, "tags": {"amenity": "place_of_worship", "name": "Meththaramaya", "religion": "buddhist"}}, {"type": "node", "id": 1934839419, "lat": 6.8403823, "lon": 79.9669078, "tags": {"addr:city": "Kottawa", "amenity": "place_of_worship", "name": "Saddhathissa"}}, {"type": "node", "id": 1941158945, "lat": 6.8241189, "lon": 80.0553595, "tags": {"amenity": "place_of_worship", "name": "Dampe Purana Temple", "religion": "buddhist"}}, {"type": "node", "id": 1967937200, "lat": 6.8346757, "lon": 79.9898117, "tags": {"amenity": "place_of_worship", "name": "Vipassana Meditation Center", "religion": "buddhist"}}, {"type": "node", "id": 1967937273, "lat": 6.8272508, "lon": 80.0128787, "tags": {"amenity": "place_of_worship", "name": "Mawathgama Sri Vishuddharamaya", "religion": "buddhist"}}, {"type": "node", "id": 1967937337, "lat": 6.8351444, "lon": 79.9937384, "tags": {"amenity": "place_of_worship", "name": "Sasanawardanaramaya", "religion": "buddhist"}}, {"type": "node", "id": 2021549315, "lat": 6.9506751, "lon": 80.1972886, "tags": {"amenity": "place_of_worship", "name": "Lower Davidson Kovil", "religion": "hindu"}}, {"type": "node", "id": 2021549325, "lat": 6.9519194, "lon": 80.1975913, "tags": {"amenity": "place_of_worship", "name": "Penrith Estate Catholic Church", "religion": "christian"}}, {"type": "node", "id": 2034219328, "lat": 6.8932081, "lon": 79.8838591, "tags": {"amenity": "place_of_worship", "name": "Peoples Church", "religion": "christian"}}, {"type": "node", "id": 2034242950, "lat": 6.9184066, "lon": 79.8790712, "tags": {"amenity": "place_of_worship", "check_date": "2024-04-01", "name": "Sri Lankarama Maha Viharaya", "religion": "buddhist"}}, {"type": "node", "id": 2034242957, "lat": 6.9291868, "lon": 79.8839771, "tags": {"amenity": "place_of_worship", "name": "Gnanawimalarama Viharaya", "religion": "buddhist"}}, {"type": "node", "id": 2037991696, "lat": 6.8501351, "lon": 80.033647, "tags": {"amenity": "place_of_worship", "religion": "buddhist"}}, {"type": "node", "id": 2045794937, "lat": 6.8263863, "lon": 79.9847917, "tags": {"addr:city": "Homagama", "amenity": "place_of_worship", "name": "Doowe Purana Rajamaha Viharaya", "religion": "buddhist"}}, {"type": "node", "id": 2045876058, "lat": 6.8421702, "lon": 79.9658331, "tags": {"addr:city": "Kottawa", "amenity": "place_of_worship", "name": "Sri Punyabhiwardanaramaya", "religion": "buddhist"}}, {"type": "node", "id": 2051587807, "lat": 6.8952992, "lon": 79.9544244, "tags": {"amenity": "place_of_worship", "religion": "buddhist"}}, {"type": "node", "id": 2051587827, "lat": 6.8973868, "lon": 79.9478128, "tags": {"addr:city": "Malabe", "addr:street": "Udawatte Road (Narrow)", "amenity": "place_of_worship", "denomination": "theravada", "name": "Sri Saddharma Nikethanaramaya", "religion": "buddhist"}}, {"type": "node", "id": 2071116348, "lat": 6.8620202, "lon": 79.915949, "tags": {"amenity": "place_of_worship", "name": "Jayagath Yogashramaya", "religion": "buddhist"}}, {"type": "node", "id": 2091831614, "lat": 6.9344801, "lon": 79.8912602, "tags": {"addr:city": "Kolonnawa", "amenity": "place_of_worship", "name": "Abesingharamaya", "religion": "buddhist"}}, {"type": "node", "id": 2091833347, "lat": 6.9360484, "lon": 79.8946559, "tags": {"addr:city": "Kolonnawa", "amenity": "place_of_worship", "name": "Wimalaramaya", "religion": "buddhist"}}, {"type": "node", "id": 2094306174, "lat": 6.9216888, "lon": 79.8749595, "tags": {"amenity": "place_of_worship", "name": "Sri Vajirasramaya", "religion": "buddhist"}}, {"type": "node", "id": 2094306185, "lat": 6.9214199, "lon": 79.8712956, "tags": {"amenity": "place_of_worship", "check_date": "2024-08-22", "name": "Punchi Borella Bodhiya", "religion": "buddhist"}}, {"type": "node", "id": 2094306210, "lat": 6.9202483, "lon": 79.8735916, "tags": {"amenity": "place_of_worship", "name": "Sri Sumangalaramaya ", "religion": "buddhist"}}, {"type": "node", "id": 2094422500, "lat": 6.9107185, "lon": 79.9064969, "tags": {"amenity": "place_of_worship", "name": "Vivekaramaya", "religion": "buddhist"}}, {"type": "node", "id": 2094641185, "lat": 6.9189569, "lon": 79.9107402, "tags": {"amenity": "place_of_worship", "name": "Mihindu Viharaya", "religion": "buddhist"}}, {"type": "node", "id": 2094641186, "lat": 6.9145776, "lon": 79.9092167, "tags": {"amenity": "place_of_worship", "name": "Sri Sudharshanaramaya", "religion": "buddhist"}}, {"type": "node", "id": 2099315044, "lat": 6.8480332, "lon": 79.9029524, "tags": {"amenity": "place_of_worship", "name": "Sri Paramadharmavardanaramaya", "religion": "buddhist"}}, {"type": "node", "id": 2099417957, "lat": 6.8705763, "lon": 79.9035733, "tags": {"amenity": "place_of_worship", "name": "Sri Chandrarama Viharaya", "religion": "buddhist"}}, {"type": "node", "id": 2101145738, "lat": 6.9743267, "lon": 79.9540525, "tags": {"amenity": "place_of_worship", "name": "Gale Pansala", "religion": "buddhist"}}, {"type": "node", "id": 2101145740, "lat": 6.9721861, "lon": 79.9585264, "tags": {"amenity": "place_of_worship", "name": "Abhinawaramaya", "religion": "buddhist"}}, {"type": "node", "id": 2101191733, "lat": 6.9679476, "lon": 79.9542724, "tags": {"amenity": "place_of_worship", "name": "St.Francis Xavier", "religion": "christian"}}, {"type": "node", "id": 2101207623, "lat": 6.9686505, "lon": 79.9590843, "tags": {"amenity": "place_of_worship", "name": "Abeysekararamaya", "religion": "buddhist"}}, {"type": "node", "id": 2146160343, "lat": 6.8626273, "lon": 80.1697235, "tags": {"addr:city": "Thummodara", "amenity": "place_of_worship", "name": "Thunmodara Sri Sumana Pirivena", "religion": "buddhist"}}, {"type": "node", "id": 2212541161, "lat": 7.0456512, "lon": 79.8917179, "tags": {"amenity": "place_of_worship", "name": "St. Sebastian's Shrine ", "religion": "christian"}}, {"type": "node", "id": 2221776550, "lat": 6.9122675, "lon": 79.8877897, "tags": {"amenity": "place_of_worship", "check_date": "2024-04-01", "name": "Sri Jayawardanaramaya", "religion": "buddhist"}}, {"type": "node", "id": 2320506059, "lat": 6.9308823, "lon": 79.8754524, "tags": {"amenity": "place_of_worship", "name": "Thripitaka Pirivena", "religion": "buddhist"}}, {"type": "node", "id": 2347272766, "lat": 6.951628, "lon": 80.0964134, "tags": {"addr:city": "Kapugoda", "amenity": "place_of_worship", "name": "Giridara Purana Viharaya", "religion": "buddhist"}}, {"type": "node", "id": 2347291971, "lat": 6.9593192, "lon": 80.0519688, "tags": {"amenity": "place_of_worship", "name": "Liyanegama Temple", "religion": "buddhist"}}, {"type": "node", "id": 2362887712, "lat": 7.0326015, "lon": 79.9344267, "tags": {"amenity": "place_of_worship", "basilica": "minor", "denomination": "catholic", "name": "Basilica of Our Lady of Lanka", "name:fr": "Basilique Notre-Dame de Lanka", "religion": "christian", "wikidata": "Q4867360", "wikipedia": "en:Basilica of Our Lady of Lanka"}}, {"type": "node", "id": 2386004442, "lat": 6.8696922, "lon": 79.8962938, "tags": {"amenity": "place_of_worship", "name": "Wijayamangalaramaya", "religion": "buddhist"}}, {"type": "node", "id": 2386004480, "lat": 6.867165, "lon": 79.8957627, "tags": {"amenity": "place_of_worship", "name": "Bethany Christian Life Centre", "religion": "christian"}}, {"type": "node", "id": 2386004483, "lat": 6.8584264, "lon": 79.9006549, "tags": {"amenity": "place_of_worship", "name": "Saranath Buddhist Centre", "religion": "buddhist"}}, {"type": "node", "id": 2386004486, "lat": 6.8634527, "lon": 79.9026904, "tags": {"amenity": "place_of_worship", "name": "Pushparamaya Temple", "religion": "buddhist"}}, {"type": "node", "id": 2386004498, "lat": 6.8561347, "lon": 79.9065066, "tags": {"addr:city": "Wijerama", "amenity": "place_of_worship", "name": "Sunethra Maha Devi Temple", "religion": "buddhist"}}, {"type": "node", "id": 2393564227, "lat": 6.9408404, "lon": 79.9141253, "tags": {"addr:city": "Kotikawatte", "amenity": "place_of_worship", "name": "Sri Piyadassinaramaya", "religion": "buddhist"}}, {"type": "node", "id": 2400546634, "lat": 6.8800549, "lon": 79.9594175, "tags": {"amenity": "place_of_worship", "building": "yes", "check_date": "2024-03-01", "name": "Ganewatte Purana Viharaya", "religion": "buddhist"}}, {"type": "node", "id": 2401748889, "lat": 6.9412175, "lon": 80.16192, "tags": {"addr:city": "Kosgama", "amenity": "place_of_worship", "name": "St Joseph's Church", "religion": "christian"}}, {"type": "node", "id": 2406769219, "lat": 6.9067504, "lon": 79.8954762, "tags": {"addr:city": "Rajagiriya", "addr:postcode": "10107", "addr:street": "Nawala Road", "amenity": "place_of_worship", "denomination": "sunni", "name": "Nawala Jumma Mosque", "religion": "muslim"}}, {"type": "node", "id": 2408611439, "lat": 6.8847245, "lon": 79.8892842, "tags": {"addr:city": "Nawala", "addr:postcode": "10107", "addr:street": "Temple road", "amenity": "place_of_worship", "building": "yes", "name": "Diyawanna Purana Temple", "religion": "buddhist"}}, {"type": "node", "id": 2419528255, "lat": 6.9116114, "lon": 79.8707762, "tags": {"amenity": "place_of_worship", "description": "Buddha Statue", "religion": "buddhist"}}, {"type": "node", "id": 2419647666, "lat": 6.8714771, "lon": 79.8615229, "tags": {"addr:city": "Wellawatte - Colombo 06", "amenity": "place_of_worship", "check_date": "2023-03-04", "name": "Methodist Church", "religion": "christian"}}, {"type": "node", "id": 2419648046, "lat": 6.8728192, "lon": 79.8628801, "tags": {"amenity": "place_of_worship", "denomination": "anglican", "name": "Holy Trinity Church", "religion": "christian"}}, {"type": "node", "id": 2419649358, "lat": 6.87745, "lon": 79.8647603, "tags": {"amenity": "place_of_worship", "religion": "hindu"}}, {"type": "node", "id": 2419678006, "lat": 6.9119312, "lon": 79.8706761, "tags": {"amenity": "place_of_worship", "description": "Buddha Statue", "religion": "buddhist"}}, {"type": "node", "id": 2422459412, "lat": 6.8642006, "lon": 79.8858301, "tags": {"addr:city": "Kohuwala", "amenity": "place_of_worship", "name": "Wijayamangalarama Temple", "religion": "buddhist"}}, {"type": "node", "id": 2423771608, "lat": 6.8569092, "lon": 79.9483525, "tags": {"amenity": "place_of_worship", "name": "Devadhara Temple", "religion": "buddhist"}}, {"type": "node", "id": 2423798294, "lat": 6.8534633, "lon": 79.9465554, "tags": {"amenity": "place_of_worship", "check_date": "2024-04-06", "name": "Sri Dhamminda Temple", "religion": "buddhist"}}, {"type": "node", "id": 2431948774, "lat": 6.8646361, "lon": 80.0007955, "tags": {"amenity": "place_of_worship", "name": "\u0db8\u0dd0\u0daf\u0d9c\u0ddc\u0da9\u0dbd\u0db1\u0dca\u0daf \u0db4\u0dd4\u0dbb\u0dcf\u0dab \u0dbb\u0da2\u0db8\u0dc4\u0dcf \u0dc0\u0dd2\u0dc4\u0dcf\u0dbb\u0dba", "name:en": "Madagodalanda Ancient Royal Temple", "religion": "buddhist"}}, {"type": "node", "id": 2444095203, "lat": 6.8366641, "lon": 79.9440439, "tags": {"amenity": "place_of_worship", "name": "Duwa Temple", "religion": "buddhist"}}, {"type": "node", "id": 2479912831, "lat": 7.0365081, "lon": 79.9278713, "tags": {"amenity": "place_of_worship", "name": "Mindu Dhahampasala"}}, {"type": "node", "id": 2499032369, "lat": 6.8325846, "lon": 79.9801567, "tags": {"amenity": "place_of_worship", "name": "Hiripitiya Temple", "religion": "buddhist"}}, {"type": "node", "id": 2507004946, "lat": 7.006067, "lon": 79.8972043, "tags": {"amenity": "place_of_worship", "name": "Mobole Jumma Masjid", "religion": "muslim"}}, {"type": "node", "id": 2512765331, "lat": 6.8567292, "lon": 79.9401929, "tags": {"amenity": "place_of_worship", "name": "\"API\" Buddha Shrine", "religion": "buddhist"}}, {"type": "node", "id": 2527546964, "lat": 6.8790915, "lon": 79.8965911, "tags": {"amenity": "place_of_worship", "building": "hut", "name": "Statue of Lord Buddha", "religion": "buddhist"}}, {"type": "node", "id": 2577741047, "lat": 6.8555544, "lon": 79.9709747, "tags": {"amenity": "place_of_worship", "name": "Nigrodharama purana viharaya", "religion": "buddhist"}}, {"type": "node", "id": 2578264690, "lat": 6.909683, "lon": 79.8931076, "tags": {"amenity": "place_of_worship", "name": "Sri Gnanawasa Thripitaka Vidyayathanaya", "religion": "buddhist"}}, {"type": "node", "id": 2585392388, "lat": 6.9095335, "lon": 79.896156, "tags": {"amenity": "place_of_worship", "religion": "buddhist"}}, {"type": "node", "id": 2596442778, "lat": 6.9896172, "lon": 80.0164881, "tags": {"amenity": "place_of_worship", "name": "Kalyana Pradeepa Pirivena Delgoda", "religion": "buddhist"}}, {"type": "node", "id": 2599943241, "lat": 6.9441894, "lon": 79.8783744, "tags": {"amenity": "place_of_worship", "check_date": "2023-03-08", "religion": "buddhist"}}, {"type": "node", "id": 2602610892, "lat": 6.9524588, "lon": 80.052572, "tags": {"amenity": "place_of_worship", "name": "Sri Kalyana Ashramaya Temple", "religion": "buddhist"}}, {"type": "node", "id": 2617163510, "lat": 6.919251, "lon": 79.9411674, "tags": {"amenity": "place_of_worship", "religion": "buddhist"}}, {"type": "node", "id": 2678380516, "lat": 7.0528584, "lon": 79.9222681, "tags": {"amenity": "place_of_worship", "name": "\u0dc0\u0dbd\u0dca\u0db4\u0ddc\u0dbd \u0db4\u0db1\u0dca\u0dc3\u0dbd", "religion": "buddhist"}}, {"type": "node", "id": 2687982456, "lat": 6.8395546, "lon": 79.9603455, "tags": {"amenity": "place_of_worship", "name": "Sri Sugathanandaramaya"}}, {"type": "node", "id": 2710603392, "lat": 6.8632513, "lon": 79.9846173, "tags": {"amenity": "place_of_worship", "name": "Thalwadiya Temple"}}, {"type": "node", "id": 2712099084, "lat": 6.8509802, "lon": 79.9637712, "tags": {"amenity": "place_of_worship", "name": "Dhammakittikarama Raja Maha Viharaya"}}, {"type": "node", "id": 2724797113, "lat": 6.8660441, "lon": 80.0109957, "tags": {"addr:city": "Habarakada", "amenity": "place_of_worship", "name": "Dharma Wijaya Asramaya", "religion": "buddhist"}}, {"type": "node", "id": 2724797182, "lat": 6.8694416, "lon": 80.0153239, "tags": {"addr:city": "Habarakada", "amenity": "place_of_worship", "name": "Sri Shilaanthayathana Purana Viharaya", "religion": "buddhist"}}, {"type": "node", "id": 2739082528, "lat": 6.9089809, "lon": 80.0819275, "tags": {"addr:city": "Hanwella", "amenity": "place_of_worship", "name": "Hanwella Bo Tree", "religion": "buddhist"}}, {"type": "node", "id": 2741745597, "lat": 6.8569029, "lon": 80.0236414, "tags": {"amenity": "place_of_worship", "religion": "buddhist"}}, {"type": "node", "id": 2741745599, "lat": 6.8567419, "lon": 80.0320845, "tags": {"addr:city": "Godagama-Kotte Road", "amenity": "place_of_worship", "name": "Godagama Purana Viharaya", "religion": "buddhist"}}, {"type": "node", "id": 2747538049, "lat": 6.8158906, "lon": 79.9152085, "tags": {"addr:city": "Thumbowila", "amenity": "place_of_worship", "check_date": "2024-04-06", "name": "Sri Saddharmarama Purana Viharaya", "religion": "buddhist"}}, {"type": "node", "id": 2753063932, "lat": 6.9035183, "lon": 80.0874704, "tags": {"amenity": "place_of_worship", "check_date": "2024-03-31", "name": "Pahathgama Bodi Tree", "religion": "buddhist"}}, {"type": "node", "id": 2755818390, "lat": 6.9342266, "lon": 79.9851426, "tags": {"amenity": "place_of_worship", "name": "Sri Rankadu Maha Paththini Devalaya", "religion": "multifaith"}}, {"type": "node", "id": 2800749434, "lat": 7.0652883, "lon": 80.0648038, "tags": {"amenity": "place_of_worship", "name": "Maligatenna Raja Mahaviharaya", "religion": "buddhist"}}, {"type": "node", "id": 2800749435, "lat": 7.0645967, "lon": 80.0505404, "tags": {"amenity": "place_of_worship", "name": "Pilikuttuwa", "religion": "buddhist"}}, {"type": "node", "id": 2826701432, "lat": 6.9404365, "lon": 79.8608731, "tags": {"addr:country": "LK", "amenity": "place_of_worship", "building": "mosque", "name": "Masjid Muhiadeen Khadiriya Thakiya", "religion": "muslim"}}, {"type": "node", "id": 2913308653, "lat": 6.8270951, "lon": 79.9890033, "tags": {"amenity": "place_of_worship", "name": "Sri Pushparama Viharaya", "religion": "buddhist"}}, {"type": "node", "id": 3074716181, "lat": 6.8934702, "lon": 79.973286, "tags": {"amenity": "place_of_worship", "name": "Kahanthota Temple", "religion": "buddhist"}}, {"type": "node", "id": 3077737133, "lat": 6.8578081, "lon": 79.8706457, "tags": {"addr:city": "Dehiwala", "amenity": "place_of_worship", "name": "Buddhist Center", "religion": "buddhist"}}, {"type": "node", "id": 3077741528, "lat": 6.8535687, "lon": 79.87535, "tags": {"amenity": "place_of_worship", "name": "Piyarathanarama Temple", "religion": "buddhist"}}, {"type": "node", "id": 3077742797, "lat": 6.853431, "lon": 79.876413, "tags": {"amenity": "place_of_worship", "name": "Galvihara Temple", "religion": "buddhist"}}, {"type": "node", "id": 3085648468, "lat": 6.9167522, "lon": 79.8771325, "tags": {"addr:city": "Borella", "amenity": "place_of_worship", "check_date": "2024-08-09", "name": "Jumma Mosque", "religion": "muslim"}}, {"type": "node", "id": 3116456777, "lat": 6.9333138, "lon": 79.8636761, "tags": {"amenity": "place_of_worship", "name": "Bodhiraja Viharaya", "religion": "buddhist"}}, {"type": "node", "id": 3116467851, "lat": 6.9082259, "lon": 79.9450405, "tags": {"amenity": "place_of_worship", "name": "Thalahena", "religion": "buddhist"}}, {"type": "node", "id": 3127180945, "lat": 6.914649, "lon": 79.877818, "tags": {"amenity": "place_of_worship", "check_date": "2024-03-04", "name": "Borella Bodiya", "religion": "buddhist"}}, {"type": "node", "id": 3127443960, "lat": 6.9262884, "lon": 79.8724936, "tags": {"amenity": "place_of_worship", "name": "Jayashekararamaya Kuppiyawatte", "religion": "buddhist"}}, {"type": "node", "id": 3133210394, "lat": 6.9071529, "lon": 79.9366327, "tags": {"addr:city": "8th Mile Post", "addr:street": "New Kandy Road", "amenity": "place_of_worship", "name": "Lumbini Monastery", "name:si": "\u0dbd\u0dd4\u0db8\u0dca\u0db6\u0dd2\u0dab\u0dd2 \u0d86\u0dbb\u0db1\u0dca\u200d\u0dba \u0dc3\u0dda\u0db1\u0dcf\u0dc3\u0db1\u0dba", "religion": "buddhist"}}, {"type": "node", "id": 3150373177, "lat": 6.9220415, "lon": 79.8639508, "tags": {"amenity": "place_of_worship", "name": "Sri Vinayalankararamaya Temple", "religion": "buddhist"}}, {"type": "node", "id": 3152529661, "lat": 6.9030805, "lon": 79.90644, "tags": {"amenity": "place_of_worship", "name": "Siri Perakumba Viharaya", "religion": "buddhist"}}, {"type": "node", "id": 3187946133, "lat": 6.9352935, "lon": 79.8539143, "tags": {"amenity": "place_of_worship", "religion": "buddhist"}}, {"type": "node", "id": 3188801114, "lat": 6.934419, "lon": 79.8675416, "tags": {"amenity": "place_of_worship", "religion": "christian"}}, {"type": "node", "id": 3199143768, "lat": 6.9631421, "lon": 79.8820538, "tags": {"amenity": "place_of_worship", "religion": "buddhist"}}, {"type": "node", "id": 3224851419, "lat": 6.8002564, "lon": 79.9149835, "tags": {"addr:city": "Piliyandala", "amenity": "place_of_worship", "name": "Tapodaramaya Temple", "religion": "buddhist"}}, {"type": "node", "id": 3247298754, "lat": 6.8733713, "lon": 79.9282744, "tags": {"addr:city": "Sri Jayawardenapura", "amenity": "place_of_worship", "name": "Sri Sambuddhaloka Viharaya", "religion": "buddhist", "wheelchair": "limited"}}, {"type": "node", "id": 3247320167, "lat": 6.8706691, "lon": 79.9076921, "tags": {"addr:city": "Embuldeniya", "amenity": "place_of_worship", "name": "Vivekaramaya Temple", "religion": "buddhist"}}, {"type": "node", "id": 3247320264, "lat": 6.8664973, "lon": 79.9234628, "tags": {"addr:city": "Thalapathpitiya", "amenity": "place_of_worship", "name": "Sri Bodhirukkaramaya", "religion": "buddhist"}}, {"type": "node", "id": 3247327833, "lat": 6.8751622, "lon": 79.9247762, "tags": {"addr:city": "Madiwela", "amenity": "place_of_worship", "name": "Khethumathi Viharaya", "religion": "buddhist"}}, {"type": "node", "id": 3254701935, "lat": 6.9368143, "lon": 79.9763652, "tags": {"addr:city": "Kaduwela", "addr:street": "Avissawella Road(Colombo-Hanwella Low Level Road)", "amenity": "place_of_worship", "name": "Mahamevnawa Bodhignana Monastery", "religion": "buddhist"}}, {"type": "node", "id": 3307476596, "lat": 6.9505656, "lon": 79.8739125, "tags": {"amenity": "place_of_worship", "religion": "buddhist"}}, {"type": "node", "id": 3323507941, "lat": 6.9978761, "lon": 79.8825062, "tags": {"amenity": "place_of_worship", "name": "St. Mary's Church Nayakakanda", "religion": "christian"}}, {"type": "node", "id": 3324643387, "lat": 6.9448255, "lon": 79.8816506, "tags": {"amenity": "place_of_worship", "religion": "buddhist"}}, {"type": "node", "id": 3336400886, "lat": 7.0707431, "lon": 79.9589787, "tags": {"amenity": "place_of_worship", "name": "Mahindarama temple", "religion": "buddhist"}}, {"type": "node", "id": 3354645308, "lat": 6.8761725, "lon": 79.8893624, "tags": {"amenity": "place_of_worship", "religion": "buddhist"}}, {"type": "node", "id": 3370453486, "lat": 6.9234149, "lon": 79.913372, "tags": {"amenity": "place_of_worship", "name": "Statue of Lord Buddha", "religion": "buddhist"}}, {"type": "node", "id": 3370468386, "lat": 6.9245802, "lon": 79.9125282, "tags": {"amenity": "place_of_worship", "name": "Our Lady of Perpetual Help", "religion": "christian"}}, {"type": "node", "id": 3370480040, "lat": 6.9280314, "lon": 79.9122651, "tags": {"addr:city": "Gothatuwa", "amenity": "place_of_worship", "name": "Kande Viharaya", "religion": "buddhist"}}, {"type": "node", "id": 3370508896, "lat": 6.9285783, "lon": 79.9031581, "tags": {"amenity": "place_of_worship", "name": "Paramitha Viharaya Temple", "name:si": "\u0d9c\u0ddc\u0dad\u0da7\u0dd4\u0dc0 \u0dc1\u0dca\u200d\u0dbb\u0dd3 \u0db4\u0dcf\u0dbb\u0db8\u0dd2\u0dad\u0dcf \u0db6\u0ddc\u0db0\u0dd2\u0db8\u0dc5\u0dd4 \u0dc0\u0dd2\u0dc4\u0dcf\u0dbb\u0dba", "religion": "buddhist"}}, {"type": "node", "id": 3371327616, "lat": 6.8414579, "lon": 79.9034069, "tags": {"addr:city": "Boralesgamuwa", "amenity": "place_of_worship", "name": "Sri Nagarukkharamaya", "religion": "buddhist"}}, {"type": "node", "id": 3371428216, "lat": 6.861602, "lon": 79.928715, "tags": {"amenity": "place_of_worship", "name": "Lord Buddha Statue", "religion": "buddhist"}}, {"type": "node", "id": 3379198886, "lat": 6.843251, "lon": 79.9155753, "tags": {"addr:city": "Boralesgamuwa", "amenity": "place_of_worship", "name": "Vapikaramaya", "religion": "buddhist"}}, {"type": "node", "id": 3379350666, "lat": 6.9058205, "lon": 80.0367021, "tags": {"amenity": "place_of_worship", "religion": "buddhist"}}, {"type": "node", "id": 3379350667, "lat": 6.895641, "lon": 80.0430183, "tags": {"amenity": "place_of_worship", "name": "Jalthara Monastery", "religion": "buddhist"}}, {"type": "node", "id": 3401389255, "lat": 6.8746318, "lon": 79.8578575, "tags": {"addr:city": "Wellawatte", "amenity": "place_of_worship", "name": "Sri Jayasingharamaya", "religion": "buddhist"}}, {"type": "node", "id": 3401467538, "lat": 6.865117, "lon": 79.8620256, "tags": {"addr:city": "Wellawatte", "amenity": "place_of_worship", "check_date": "2023-10-08", "name": "Aishwari Amman Temple", "religion": "hindu"}}, {"type": "node", "id": 3401467570, "lat": 6.8541354, "lon": 79.8661238, "tags": {"addr:city": "Dehiwala", "amenity": "place_of_worship", "name": "Darshanika Ramaya Temple", "religion": "buddhist"}}, {"type": "node", "id": 3401467574, "lat": 6.8528759, "lon": 79.8661352, "tags": {"addr:city": "Dehiwala", "amenity": "place_of_worship", "name": "Dehiwala Town Jumma Mosque", "religion": "muslim"}}, {"type": "node", "id": 3401468967, "lat": 6.8585439, "lon": 79.8674718, "tags": {"addr:city": "Dehiwala", "amenity": "place_of_worship", "name": "Sri Mahabodhi Viharaya", "religion": "buddhist"}}, {"type": "node", "id": 3401468970, "lat": 6.856671, "lon": 79.8668312, "tags": {"addr:city": "Dehiwala", "amenity": "place_of_worship", "name": "Vidywardana Pirivena", "religion": "buddhist"}}, {"type": "node", "id": 3403158275, "lat": 6.9392697, "lon": 79.8980474, "tags": {"addr:city": "Wellampitiya", "amenity": "place_of_worship", "name": "Sri Sambuddharaja Purana Viharaya", "religion": "buddhist"}}, {"type": "node", "id": 3403158915, "lat": 6.943407, "lon": 79.8973124, "tags": {"addr:city": "Wellampitiya", "amenity": "place_of_worship", "name": "Sri Vivekaramaya", "religion": "buddhist"}}, {"type": "node", "id": 3403161421, "lat": 6.9467911, "lon": 79.9058912, "tags": {"addr:city": "Wellampitiya", "amenity": "place_of_worship", "name": "Sri Kalyaniwansikaramaya", "religion": "buddhist"}}, {"type": "node", "id": 3403161441, "lat": 6.9485431, "lon": 79.9107431, "tags": {"addr:city": "Wellampitiya", "amenity": "place_of_worship", "name": "Kohilawatte Jumma Mosque", "religion": "muslim"}}, {"type": "node", "id": 3403171318, "lat": 6.8484775, "lon": 79.9314914, "tags": {"amenity": "place_of_worship", "description": "Buddha Statue", "religion": "buddhist"}}, {"type": "node", "id": 3403172052, "lat": 6.8499497, "lon": 79.9304971, "tags": {"amenity": "place_of_worship", "name": "Buddha statue", "religion": "buddhist"}}, {"type": "node", "id": 3403175027, "lat": 6.9554986, "lon": 79.8843057, "tags": {"addr:city": "Peliyagoda", "amenity": "place_of_worship", "check_date": "2023-03-08", "name": "Kovil", "religion": "hindu"}}, {"type": "node", "id": 3403175031, "lat": 6.9578912, "lon": 79.8863167, "tags": {"addr:city": "Peliyagoda", "amenity": "place_of_worship", "name": "Neegrodharamaya", "religion": "buddhist"}}, {"type": "node", "id": 3403245220, "lat": 6.9538188, "lon": 79.9030772, "tags": {"addr:city": "Kelaniya", "amenity": "place_of_worship", "name": "Dharmakara Piriven Viharaya", "religion": "buddhist"}}, {"type": "node", "id": 3403270982, "lat": 6.9492949, "lon": 79.9214998, "tags": {"addr:city": "Kelaniya", "amenity": "place_of_worship", "name": "Kithsiri Mewan Temple", "religion": "buddhist"}}, {"type": "node", "id": 3403382897, "lat": 6.9452125, "lon": 79.9158001, "tags": {"addr:city": "Kohilawatte", "amenity": "place_of_worship", "name": "Gangathilaka Purana Raja Maha Viharaya", "religion": "buddhist"}}, {"type": "node", "id": 3403570767, "lat": 6.9309693, "lon": 79.9283274, "tags": {"addr:city": "Angoda", "amenity": "place_of_worship", "name": "Henewatte Viharaya", "religion": "buddhist"}}, {"type": "node", "id": 3410001594, "lat": 7.0941515, "lon": 80.0927291, "tags": {"addr:city": "Uduthuththiripitiya", "addr:postcode": "11054", "addr:street": "Gorakadeniya", "amenity": "place_of_worship", "name": "\u0dc1\u0dca\u200d\u0dbb\u0dd3 \u0db4\u0dd4\u0dab\u0dca\u200d\u0dba\u0dc0\u0dbb\u0dca\u0db0\u0db1\u0dcf\u0dbb\u0dcf\u0db8 \u0dc0\u0dd2\u0dc4\u0dcf\u0dbb\u0dba", "religion": "buddhist"}}, {"type": "node", "id": 3416276703, "lat": 6.867893, "lon": 79.8640527, "tags": {"amenity": "place_of_worship", "religion": "buddhist"}}, {"type": "node", "id": 3416948055, "lat": 6.934343, "lon": 80.1873951, "tags": {"addr:city": "Puwakpitiya", "amenity": "place_of_worship", "check_date": "2024-03-31", "name": "Bodhimaluwa Temple", "religion": "buddhist"}}, {"type": "node", "id": 3416948084, "lat": 6.9310826, "lon": 80.1881962, "tags": {"addr:city": "Puwakpitiya", "amenity": "place_of_worship", "name": "St. Annes Church", "religion": "christian"}}, {"type": "node", "id": 3418988056, "lat": 6.9344347, "lon": 80.1906563, "tags": {"addr:city": "Puwakpitiya", "amenity": "place_of_worship", "check_date": "2024-03-30", "denomination": "assemblies_of_god", "name": "Bethel Chapel", "religion": "christian"}}, {"type": "node", "id": 3419064873, "lat": 6.9410411, "lon": 80.1959364, "tags": {"addr:city": "Puwakpitiya", "amenity": "place_of_worship", "check_date": "2024-03-30", "name": "Kiriwandala Vidyasanwardana Pirivena", "religion": "buddhist"}}, {"type": "node", "id": 3445501695, "lat": 6.9501878, "lon": 79.8777238, "tags": {"amenity": "place_of_worship", "name": "Sanchi Viharaya", "religion": "buddhist"}}, {"type": "node", "id": 3470869404, "lat": 6.963288, "lon": 79.9871503, "tags": {"amenity": "place_of_worship", "name": "Sri Sucharitharmaya", "religion": "buddhist"}}, {"type": "node", "id": 3474563755, "lat": 6.9769145, "lon": 80.0064124, "tags": {"addr:street": "New Kandy Rd", "amenity": "place_of_worship", "name": "Sri Sambodhi Viharaya", "religion": "buddhist"}}, {"type": "node", "id": 3474612776, "lat": 6.9710234, "lon": 79.9734432, "tags": {"amenity": "place_of_worship", "name": "Buddha Statue", "religion": "buddhist"}}, {"type": "node", "id": 3474612792, "lat": 6.9695635, "lon": 79.9834023, "tags": {"amenity": "place_of_worship", "name": "Buddha Statue", "religion": "buddhist"}}, {"type": "node", "id": 3491874385, "lat": 7.0161835, "lon": 79.9542208, "tags": {"amenity": "place_of_worship", "name": "Temple", "religion": "buddhist"}}, {"type": "node", "id": 3498427105, "lat": 6.8183104, "lon": 79.9200551, "tags": {"addr:city": "Bokundara", "amenity": "place_of_worship", "check_date": "2024-04-06", "name": "Parama Dhamma Nikethanaramaya", "religion": "buddhist"}}, {"type": "node", "id": 3504454087, "lat": 6.8392634, "lon": 79.921799, "tags": {"addr:city": "Maharagama", "amenity": "place_of_worship", "name": "Susilaramaya"}}, {"type": "node", "id": 3506435557, "lat": 6.9105198, "lon": 79.9320738, "tags": {"amenity": "place_of_worship", "religion": "buddhist"}}, {"type": "node", "id": 3516456504, "lat": 6.9813403, "lon": 80.0075508, "tags": {"amenity": "place_of_worship", "religion": "buddhist"}}, {"type": "node", "id": 3516471133, "lat": 6.906423, "lon": 79.926924, "tags": {"addr:city": "Thalangama (WP)", "addr:street": "New Kandy Road", "alt_name": "Fathima Church", "amenity": "place_of_worship", "denomination": "roman_catholic", "name": "Fatima Church", "religion": "christian"}}, {"type": "node", "id": 3517637126, "lat": 6.9219324, "lon": 79.9142475, "tags": {"amenity": "place_of_worship", "religion": "buddhist"}}, {"type": "node", "id": 3517643487, "lat": 6.9109088, "lon": 79.9070113, "tags": {"amenity": "place_of_worship", "religion": "buddhist"}}, {"type": "node", "id": 3520264277, "lat": 6.8994875, "lon": 79.9121296, "tags": {"amenity": "place_of_worship", "religion": "buddhist"}}, {"type": "node", "id": 3521487738, "lat": 6.8566324, "lon": 79.8891626, "tags": {"addr:city": "Pepiliyana", "addr:street": "Pepiliyana Road", "amenity": "place_of_worship", "name": "Sunethra Devi Purana Raja Maha Viharaya", "religion": "buddhist"}}, {"type": "node", "id": 3524715869, "lat": 6.8031036, "lon": 79.9214956, "tags": {"addr:city": "Piliyandala", "amenity": "place_of_worship", "name": "Dharma Shasthrodaya Piriven Viharaya"}}, {"type": "node", "id": 3537863454, "lat": 6.9097689, "lon": 79.9397584, "tags": {"amenity": "place_of_worship", "religion": "buddhist"}}, {"type": "node", "id": 3537909787, "lat": 6.8738982, "lon": 79.9538641, "tags": {"amenity": "place_of_worship", "religion": "buddhist"}}, {"type": "node", "id": 3547312393, "lat": 7.0468475, "lon": 80.1453492, "tags": {"amenity": "place_of_worship", "religion": "buddhist"}}, {"type": "node", "id": 3567517623, "lat": 6.8229351, "lon": 80.0671441, "tags": {"amenity": "place_of_worship", "religion": "buddhist"}}, {"type": "node", "id": 3592944584, "lat": 6.9288711, "lon": 79.8696316, "tags": {"amenity": "place_of_worship", "religion": "buddhist"}}, {"type": "node", "id": 3593222464, "lat": 6.9010887, "lon": 79.9292281, "tags": {"amenity": "place_of_worship", "name": "Korambe Pansala", "religion": "buddhist"}}, {"type": "node", "id": 3626956499, "lat": 6.9147531, "lon": 79.8871341, "tags": {"amenity": "place_of_worship", "name": "Gothamee Viharaya", "religion": "buddhist"}}, {"type": "node", "id": 3636085808, "lat": 7.0285785, "lon": 79.945337, "tags": {"amenity": "place_of_worship", "religion": "buddhist"}}, {"type": "node", "id": 3641792794, "lat": 6.980249, "lon": 79.9829899, "tags": {"amenity": "place_of_worship", "religion": "buddhist"}}, {"type": "node", "id": 3641795723, "lat": 7.0231848, "lon": 79.9836737, "tags": {"amenity": "place_of_worship", "religion": "buddhist"}}, {"type": "node", "id": 3643539686, "lat": 6.8920699, "lon": 79.9665988, "tags": {"amenity": "place_of_worship", "religion": "buddhist"}}, {"type": "node", "id": 3656293619, "lat": 7.0047735, "lon": 80.0595722, "tags": {"amenity": "place_of_worship", "religion": "buddhist"}}, {"type": "node", "id": 3658423027, "lat": 6.9217304, "lon": 79.8585019, "tags": {"amenity": "place_of_worship", "check_date": "2024-08-10", "name": "Dawson Street Mosque", "religion": "muslim"}}, {"type": "node", "id": 3658423139, "lat": 6.926001, "lon": 79.8493987, "tags": {"amenity": "place_of_worship", "check_date": "2024-12-26", "name": "Java Lane Mosque", "religion": "muslim"}}, {"type": "node", "id": 3658423938, "lat": 6.9234746, "lon": 79.8505449, "tags": {"amenity": "place_of_worship", "name": "Tholappu Garden Mosque", "religion": "muslim"}}, {"type": "node", "id": 3666657161, "lat": 6.8830722, "lon": 80.0848223, "tags": {"amenity": "place_of_worship", "religion": "buddhist"}}, {"type": "node", "id": 3686547949, "lat": 6.9969418, "lon": 79.9169184, "tags": {"addr:street": "Wattala-Mahara Road", "amenity": "place_of_worship", "building": "church", "denomination": "roman_catholic", "name": "St. Sebasthiyan Church, Enderamulla", "religion": "christian", "wheelchair": "no"}}, {"type": "node", "id": 3708772476, "lat": 6.8513452, "lon": 80.1209965, "tags": {"amenity": "place_of_worship", "religion": "buddhist"}}, {"type": "node", "id": 3708853584, "lat": 6.9978502, "lon": 79.8999847, "tags": {"amenity": "place_of_worship", "denomination": "roman_catholic", "name": "St' Mary's Chruch, Mabola, Wattala.", "religion": "christian"}}, {"type": "node", "id": 3710367059, "lat": 6.9899244, "lon": 79.9215869, "tags": {"amenity": "place_of_worship", "name": "Temple", "religion": "buddhist"}}, {"type": "node", "id": 3714954202, "lat": 7.0416683, "lon": 80.0368542, "tags": {"amenity": "place_of_worship", "name": "Uruwala Sabhawe Viharaya", "religion": "buddhist"}}, {"type": "node", "id": 3716277904, "lat": 7.0084705, "lon": 80.0248348, "tags": {"amenity": "place_of_worship", "name": "Guruge Viharaya", "religion": "buddhist"}}, {"type": "node", "id": 3716322100, "lat": 6.9927225, "lon": 80.0175245, "tags": {"amenity": "place_of_worship", "name": "Ven. Bandarawela Amithananda Temple", "religion": "buddhist"}}, {"type": "node", "id": 3717106833, "lat": 6.9139417, "lon": 79.8887529, "tags": {"addr:city": "Colombo", "addr:housenumber": "64", "addr:street": "1st Lane", "amenity": "place_of_worship", "name": "HHKC", "religion": "buddhist"}}, {"type": "node", "id": 3726581775, "lat": 6.9226926, "lon": 80.144376, "tags": {"amenity": "place_of_worship", "religion": "buddhist"}}, {"type": "node", "id": 3732320789, "lat": 6.9223679, "lon": 80.1238221, "tags": {"addr:street": "Boralugoda-Mawalagama Road", "amenity": "place_of_worship", "name": "Sri Wardanaramaya Templa", "name:si": "\u0dc1\u0dca\u200d\u0dbb\u0dd3 \u0dc0\u0dbb\u0dca\u0db0\u0db1\u0dcf\u0dbb\u0dcf\u0db8\u0dba \u0db6\u0ddc\u0dbb\u0dc5\u0dd4\u0d9c\u0ddc\u0da9", "religion": "buddhist"}}, {"type": "node", "id": 3737955963, "lat": 7.0021137, "lon": 79.9106074, "tags": {"amenity": "place_of_worship", "name": "Gongithota Sathdharmaramaya Temple", "religion": "buddhist"}}, {"type": "node", "id": 3740152662, "lat": 6.9093675, "lon": 79.8716287, "tags": {"amenity": "place_of_worship", "name": "Vipassana Meditation Center", "religion": "buddhist"}}, {"type": "node", "id": 3742323068, "lat": 6.8735221, "lon": 79.8724258, "tags": {"addr:city": "Pamankada", "addr:street": "Saranankara Road", "amenity": "place_of_worship", "name": "Gangaramaya", "religion": "buddhist"}}, {"type": "node", "id": 3750137403, "lat": 6.9663678, "lon": 79.9466365, "tags": {"amenity": "place_of_worship", "religion": "buddhist"}}, {"type": "node", "id": 3752482619, "lat": 6.8835111, "lon": 79.868279, "tags": {"addr:city": "Havelock Town", "addr:street": "Havelock Road", "amenity": "place_of_worship", "check_date": "2025-12-27", "name": "Sama Viharaya", "religion": "buddhist"}}, {"type": "node", "id": 3752483630, "lat": 6.8836304, "lon": 79.8698904, "tags": {"addr:city": "Havelock Town", "addr:street": "Swarna Road", "amenity": "place_of_worship", "name": "Swarna Bodhiya Viharaya", "religion": "buddhist"}}, {"type": "node", "id": 3753190794, "lat": 6.9676835, "lon": 79.8678486, "tags": {"addr:street": "Temple road", "amenity": "place_of_worship", "denomination": "hindu", "name": "Sri Venkateshwara Hindu Temple", "religion": "hindu"}}, {"type": "node", "id": 3753192238, "lat": 6.9672012, "lon": 79.8671504, "tags": {"addr:street": "Temple road", "amenity": "place_of_worship", "denomination": "Hindu", "name": "Pillaiyar Kovil", "religion": "hindu"}}, {"type": "node", "id": 3753194491, "lat": 6.9672172, "lon": 79.866663, "tags": {"addr:street": "Temple road", "amenity": "place_of_worship", "denomination": "Hindu_Tamil", "name": "Temple of Siva", "religion": "hindu"}}, {"type": "node", "id": 3753204381, "lat": 6.9658652, "lon": 79.8677048, "tags": {"addr:city": "Colombo", "addr:housenumber": "9", "addr:street": "Modara Street", "amenity": "place_of_worship", "name": "St Peter's Church", "religion": "christian"}}, {"type": "node", "id": 3753210488, "lat": 6.9589997, "lon": 79.8614249, "tags": {"amenity": "place_of_worship", "name": "St Andrew's Church", "name:zh": "\u5723\u5b89\u5fb7\u9c81\u6559\u5802", "name:zh-Hans": "\u5723\u5b89\u5fb7\u9c81\u6559\u5802", "name:zh-Hant": "\u8056\u5b89\u5fb7\u9b6f\u6559\u5802", "religion": "christian"}}, {"type": "node", "id": 3753228911, "lat": 6.8540233, "lon": 80.0527587, "tags": {"addr:city": "Meegoda", "addr:street": "High Level Road", "amenity": "place_of_worship", "name": "Meegoda Meditation Center", "religion": "buddhist"}}, {"type": "node", "id": 3757610154, "lat": 6.8974221, "lon": 79.9940925, "tags": {"addr:city": "Athurugiriya", "addr:postcode": "10150", "addr:street": "Lake Terrace", "amenity": "place_of_worship", "name": "Seevali Asapuwa", "religion": "buddhist"}}, {"type": "node", "id": 3763278660, "lat": 6.9502965, "lon": 79.9571648, "tags": {"amenity": "place_of_worship", "name": "Temple", "religion": "buddhist"}}, {"type": "node", "id": 3772776045, "lat": 6.8545929, "lon": 79.8822485, "tags": {"amenity": "place_of_worship", "name": "Sri Maha Viharaya", "religion": "buddhist"}}, {"type": "node", "id": 3772780658, "lat": 6.8575428, "lon": 79.8810477, "tags": {"amenity": "place_of_worship", "name": "Sri Vishnu Temple", "religion": "hindu"}}, {"type": "node", "id": 3810756651, "lat": 6.9826238, "lon": 80.0191664, "tags": {"addr:city": "kaduboda", "addr:street": "Delgoda-Pugoda Road", "amenity": "place_of_worship", "name": "Kaduboda vivekaramaya", "religion": "buddhist"}}, {"type": "node", "id": 3816433290, "lat": 6.9724579, "lon": 79.9099428, "tags": {"amenity": "place_of_worship", "name": "Temple", "religion": "buddhist"}}, {"type": "node", "id": 3822162798, "lat": 6.8730221, "lon": 79.8687414, "tags": {"amenity": "place_of_worship", "religion": "buddhist"}}, {"type": "node", "id": 3842174362, "lat": 6.9237972, "lon": 79.872748, "tags": {"amenity": "place_of_worship", "name": "Sri Mahindaramaya Tenple", "religion": "buddhist"}}, {"type": "node", "id": 3861736677, "lat": 6.9299408, "lon": 79.8988948, "tags": {"amenity": "place_of_worship", "name": "Temple", "religion": "buddhist"}}, {"type": "node", "id": 3864518043, "lat": 7.0795542, "lon": 80.1464346, "tags": {"amenity": "place_of_worship", "name": "Sri Nalikerarama Purana Viharaya", "religion": "buddhist"}}, {"type": "node", "id": 3870160353, "lat": 7.0857524, "lon": 79.8704884, "tags": {"amenity": "place_of_worship", "denomination": "roman_catholic", "religion": "christian"}}, {"type": "node", "id": 3894826848, "lat": 7.0840031, "lon": 79.982852, "tags": {"amenity": "place_of_worship", "name": "Buddha statue in Mahawela Junction", "religion": "buddhist"}}, {"type": "node", "id": 3894826849, "lat": 7.0868409, "lon": 79.9796142, "tags": {"amenity": "place_of_worship", "name": "Buddha statue", "religion": "buddhist"}}, {"type": "node", "id": 3896081470, "lat": 6.9761891, "lon": 79.9904441, "tags": {"amenity": "place_of_worship", "name": "Temple", "religion": "buddhist"}}, {"type": "node", "id": 3897636069, "lat": 7.0841832, "lon": 79.9427741, "tags": {"amenity": "place_of_worship", "building": "wayside_shrine", "building:age": "more_than_30", "building:foundation_height": "1 to 1.5", "building:levels": "1", "building:material": "plaster", "religion": "christian", "roof:material": "concrete", "roof:shape": "hipped"}}, {"type": "node", "id": 3903907773, "lat": 6.8371454, "lon": 79.9077127, "tags": {"addr:city": "boralasgamuwa", "addr:street": "Pirivena Road", "amenity": "place_of_worship", "denomination": "theravada", "name": "Parama Damma Nivasa - Privena", "religion": "buddhist"}}, {"type": "node", "id": 3905845362, "lat": 7.0484187, "lon": 79.9961007, "tags": {"amenity": "place_of_worship", "name": "Jesue statue", "religion": "christian"}}, {"type": "node", "id": 3905980264, "lat": 6.9251777, "lon": 79.9355211, "tags": {"amenity": "place_of_worship", "name": "Temple", "religion": "buddhist"}}, {"type": "node", "id": 3906001533, "lat": 7.0607381, "lon": 79.9608165, "tags": {"amenity": "place_of_worship", "name": "Buddha statue", "religion": "buddhist"}}, {"type": "node", "id": 3919785583, "lat": 7.0629651, "lon": 79.9413369, "tags": {"amenity": "place_of_worship", "name": "Buddha statue", "religion": "buddhist"}}, {"type": "node", "id": 3920254394, "lat": 6.9147497, "lon": 79.8763642, "tags": {"addr:city": "Borella", "addr:street": "Ward Place", "amenity": "place_of_worship", "name": "Thilakeratnaramaya", "religion": "buddhist"}}, {"type": "node", "id": 3925604178, "lat": 6.8835711, "lon": 79.9401925, "tags": {"amenity": "place_of_worship", "religion": "buddhist"}}, {"type": "node", "id": 3934166915, "lat": 6.8765685, "lon": 79.8690177, "tags": {"amenity": "place_of_worship", "religion": "buddhist"}}, {"type": "node", "id": 3944770333, "lat": 6.8959402, "lon": 79.9218338, "tags": {"addr:city": "Sri Jayawardenepura Kotte", "addr:street": "Borella-Kottawa Road", "amenity": "place_of_worship", "name": "Sri Sudhassanaramya", "religion": "buddhist"}}, {"type": "node", "id": 3949425371, "lat": 6.9330145, "lon": 79.862481, "tags": {"addr:city": "Colombo", "addr:postcode": "01000", "addr:street": "Adikarana Road", "amenity": "place_of_worship", "name": "Temple", "religion": "buddhist"}}, {"type": "node", "id": 3954241629, "lat": 6.9640541, "lon": 79.8639189, "tags": {"amenity": "place_of_worship", "religion": "muslim"}}, {"type": "node", "id": 3954316975, "lat": 6.9637084, "lon": 79.8664835, "tags": {"amenity": "place_of_worship", "name": "Pushparama Purana Viharaya", "religion": "buddhist"}}, {"type": "node", "id": 3954317061, "lat": 6.9603119, "lon": 79.8684423, "tags": {"amenity": "place_of_worship", "name": "Masjidur Rahumaniya Mosque", "religion": "muslim"}}, {"type": "node", "id": 3954317069, "lat": 6.9612167, "lon": 79.868501, "tags": {"amenity": "place_of_worship", "denomination": "Hindu_Tamil", "name": "Sri Maha Kaliamman Temple", "religion": "hindu"}}, {"type": "node", "id": 3954317070, "lat": 6.9611113, "lon": 79.8700386, "tags": {"amenity": "place_of_worship", "name": "Al Masidua Islahiya Mosque", "religion": "muslim"}}, {"type": "node", "id": 3954317211, "lat": 6.9608189, "lon": 79.8725569, "tags": {"amenity": "place_of_worship", "name": "Jumma Mosque", "religion": "muslim"}}, {"type": "node", "id": 3954317214, "lat": 6.9612649, "lon": 79.8720617, "tags": {"amenity": "place_of_worship", "name": "Methodist Church", "religion": "christian"}}, {"type": "node", "id": 3954317215, "lat": 6.9592765, "lon": 79.8692481, "tags": {"amenity": "place_of_worship", "name": "Siri Nandanaramaya", "religion": "hindu"}}, {"type": "node", "id": 3954317216, "lat": 6.9573373, "lon": 79.8711663, "tags": {"amenity": "place_of_worship", "name": "St. Anthony's Church", "religion": "christian"}}, {"type": "node", "id": 3954317424, "lat": 6.9545981, "lon": 79.87543, "tags": {"amenity": "place_of_worship", "name": "Holy Trinity Church", "religion": "christian"}}, {"type": "node", "id": 3957881819, "lat": 7.0841874, "lon": 79.9461023, "tags": {"amenity": "place_of_worship", "name": "Jesus Statue", "religion": "christian"}}, {"type": "node", "id": 3963316759, "lat": 6.9628559, "lon": 80.1627499, "tags": {"amenity": "place_of_worship", "name": "Sri Nandanarama Purana Viharaya, Manakada", "religion": "buddhist"}}, {"type": "node", "id": 3973173358, "lat": 7.0951114, "lon": 79.9467873, "tags": {"amenity": "place_of_worship", "name": "Jesus statue", "religion": "christian"}}, {"type": "node", "id": 3973173359, "lat": 7.096722, "lon": 79.9441335, "tags": {"amenity": "place_of_worship", "name": "Jesus statue", "religion": "christian"}}, {"type": "node", "id": 3975490070, "lat": 7.0638023, "lon": 79.9367625, "tags": {"amenity": "place_of_worship", "name": "Buddha statue", "religion": "buddhist"}}, {"type": "node", "id": 3994613006, "lat": 7.0264962, "lon": 79.9505597, "tags": {"amenity": "place_of_worship", "name": "Temple", "religion": "buddhist"}}, {"type": "node", "id": 4000137713, "lat": 6.8112274, "lon": 79.9387212, "tags": {"addr:city": "Makuluduwa", "addr:street": "Piliyandala - Maharagama road", "amenity": "place_of_worship", "name": "Sri Thisarana Sarana Dharmayathanaya", "religion": "buddhist"}}, {"type": "node", "id": 4008730052, "lat": 7.0697742, "lon": 79.944163, "tags": {"amenity": "place_of_worship", "name": "Buddha statue", "religion": "buddhist"}}, {"type": "node", "id": 4009326706, "lat": 6.9377546, "lon": 79.8506467, "tags": {"addr:housenumber": "141", "addr:street": "1st Cross Street", "amenity": "place_of_worship", "image": "https://photos.app.goo.gl/7DhmkhX8xgD4E2gw9", "name": "Sammangodu Sri Kathirvelayutha Swamy Kovil", "religion": "hindu", "url": "https://youtu.be/UbfYHmkWmxU?si=IKIpYQ-g-cIT3gSu&t=389"}}, {"type": "node", "id": 4012372689, "lat": 7.0767251, "lon": 79.9675074, "tags": {"amenity": "place_of_worship", "name": "budu medura", "religion": "buddhist"}}, {"type": "node", "id": 4021567665, "lat": 7.0911023, "lon": 79.9688552, "tags": {"amenity": "place_of_worship", "name": "Buddha Statue", "religion": "buddhist"}}, {"type": "node", "id": 4032624878, "lat": 6.8823369, "lon": 79.8942464, "tags": {"amenity": "place_of_worship", "man_made": "tower", "religion": "buddhist", "tower:construction": "freestanding", "tower:type": "stupa"}}, {"type": "node", "id": 4036195269, "lat": 7.0776801, "lon": 79.949485, "tags": {"amenity": "place_of_worship", "name": "Sri Sumangala Weerasingharamaya", "religion": "buddhist"}}, {"type": "node", "id": 4037648104, "lat": 7.0827023, "lon": 79.9485819, "tags": {"amenity": "place_of_worship", "name": "buddha statue", "religion": "buddhist"}}, {"type": "node", "id": 4037740140, "lat": 6.8185836, "lon": 79.9386817, "tags": {"addr:city": "Arewwala", "addr:street": "Elapahala Road", "amenity": "place_of_worship", "name": "Sri Wijayanandanaramaya", "religion": "buddhist"}}, {"type": "node", "id": 4038103709, "lat": 6.8142851, "lon": 79.9656628, "tags": {"addr:city": "Mattegoda", "addr:street": "Galwaladeniya Road", "amenity": "place_of_worship", "name": "Sarana Dhamma Temple", "religion": "buddhist"}}, {"type": "node", "id": 4047245397, "lat": 7.0998409, "lon": 79.948394, "tags": {"amenity": "place_of_worship", "name": "Buddha Statue", "religion": "buddhist"}}, {"type": "node", "id": 4047395250, "lat": 7.0937296, "lon": 79.9542454, "tags": {"amenity": "place_of_worship", "name": "Buddha statue", "religion": "buddhist"}}, {"type": "node", "id": 4047591212, "lat": 7.0733329, "lon": 79.930342, "tags": {"amenity": "place_of_worship", "name": "Buddha statue", "religion": "buddhist"}}, {"type": "node", "id": 4047591214, "lat": 7.0731652, "lon": 79.9334483, "tags": {"amenity": "place_of_worship", "name": "christ statue", "religion": "christian"}}, {"type": "node", "id": 4052414589, "lat": 7.08169, "lon": 79.9654816, "tags": {"amenity": "place_of_worship", "name": "Kettharama Purana Viharaya", "religion": "buddhist"}}, {"type": "node", "id": 4053938921, "lat": 6.8659937, "lon": 80.0242393, "tags": {"addr:city": "Panagoda", "addr:postcode": "10200", "amenity": "place_of_worship", "denomination": "theravada", "name": "Sri Vimalarama Buddhist Temple", "religion": "buddhist"}}, {"type": "node", "id": 4053938922, "lat": 6.8672754, "lon": 80.0243916, "tags": {"addr:city": "Panagoda", "addr:postcode": "10200", "amenity": "place_of_worship", "name": "Indraramaya Temple", "religion": "buddhist"}}, {"type": "node", "id": 4053970806, "lat": 6.8816649, "lon": 80.023946, "tags": {"amenity": "place_of_worship", "name": "Manungala Rajamaha Viharaya", "religion": "buddhist"}}, {"type": "node", "id": 4053980658, "lat": 6.8782664, "lon": 80.0281553, "tags": {"addr:city": "Meegasmulla", "amenity": "place_of_worship", "name": "Silguna Asapuwa", "religion": "buddhist"}}, {"type": "node", "id": 4056408266, "lat": 6.9024954, "lon": 79.9223917, "tags": {"amenity": "place_of_worship", "name": "Sri Sudharmarama Purana Viharaya", "religion": "buddhist"}}, {"type": "node", "id": 4059069371, "lat": 7.0797069, "lon": 80.1988244, "tags": {"amenity": "place_of_worship", "name": "Waharaka Ariyachinthashramaya", "religion": "buddhist"}}, {"type": "node", "id": 4059547804, "lat": 6.9360743, "lon": 79.9148918, "tags": {"amenity": "place_of_worship", "name": "Baptist church", "religion": "christian"}}, {"type": "node", "id": 4059547805, "lat": 6.9364937, "lon": 79.9181306, "tags": {"amenity": "place_of_worship", "name": "Saranankara viharaya", "religion": "buddhist"}}, {"type": "node", "id": 4066168656, "lat": 7.0855229, "lon": 79.9447039, "tags": {"amenity": "place_of_worship", "building": "wayside_shrine", "religion": "christian"}}, {"type": "node", "id": 4066168657, "lat": 7.0855427, "lon": 79.9446058, "tags": {"amenity": "place_of_worship", "building": "wayside_shrine", "religion": "christian"}}, {"type": "node", "id": 4066168670, "lat": 7.0856925, "lon": 79.9449525, "tags": {"amenity": "place_of_worship", "building": "wayside_shrine", "religion": "christian"}}, {"type": "node", "id": 4074738121, "lat": 7.0944778, "lon": 80.1373473, "tags": {"amenity": "place_of_worship", "name": "Bopeththa Temple", "religion": "buddhist"}}, {"type": "node", "id": 4074777189, "lat": 7.0383349, "lon": 80.1475223, "tags": {"amenity": "place_of_worship", "name": "Temple", "religion": "buddhist"}}, {"type": "node", "id": 4074837814, "lat": 7.0924867, "lon": 79.8882493, "tags": {"amenity": "place_of_worship", "building": "wayside_shrine", "religion": "christian"}}, {"type": "node", "id": 4074843305, "lat": 7.0663614, "lon": 80.1738846, "tags": {"amenity": "place_of_worship", "name": "Temple", "religion": "buddhist"}}, {"type": "node", "id": 4077593293, "lat": 6.8316271, "lon": 79.9362618, "tags": {"addr:city": "Arewwala", "addr:street": "Pannipitiya Road", "amenity": "place_of_worship", "check_date": "2024-04-06", "name": "Arewwala Purana Temple", "religion": "buddhist"}}, {"type": "node", "id": 4078029972, "lat": 6.8144819, "lon": 79.9350782, "tags": {"addr:city": "Maukuluduwa", "addr:street": "Piliyandala - Maharagama road", "amenity": "place_of_worship", "name": "Makuluduwa Purana Raja Maha Viharaya", "religion": "buddhist"}}, {"type": "node", "id": 4078029974, "lat": 6.8148691, "lon": 79.9320094, "tags": {"addr:city": "Makuluduwa", "addr:street": "Makuluduwa Road", "amenity": "place_of_worship", "name": "Sri Sudharmalankara Viharaya", "religion": "buddhist"}}, {"type": "node", "id": 4078600305, "lat": 6.9341853, "lon": 79.9744373, "tags": {"amenity": "place_of_worship", "name": "Temple", "religion": "buddhist"}}, {"type": "node", "id": 4082278568, "lat": 6.865492, "lon": 80.0267855, "tags": {"addr:postcode": "10200", "amenity": "place_of_worship", "name": "Kande Purana Rajamaha Viharaya", "religion": "buddhist"}}, {"type": "node", "id": 4094610918, "lat": 6.8545529, "lon": 80.0042714, "tags": {"amenity": "place_of_worship", "name": "Bithiwala Kumbura Temple", "religion": "buddhist"}}, {"type": "node", "id": 4095856122, "lat": 6.8745572, "lon": 80.0020989, "tags": {"amenity": "place_of_worship", "name": "Temple", "religion": "buddhist"}}, {"type": "node", "id": 4098727264, "lat": 6.85671, "lon": 80.0591971, "tags": {"amenity": "place_of_worship", "name": "Temple", "religion": "buddhist"}}, {"type": "node", "id": 4101097707, "lat": 6.8665361, "lon": 79.8947773, "tags": {"amenity": "place_of_worship", "denomination": "roman_catholic", "name": "St. Joseph's Church", "religion": "christian"}}, {"type": "node", "id": 4105386875, "lat": 6.878026, "lon": 80.0374552, "tags": {"amenity": "place_of_worship", "name": "Lenagala Rajamaha Viharaya", "religion": "buddhist"}}, {"type": "node", "id": 4106732561, "lat": 6.8214453, "lon": 80.0496419, "tags": {"addr:city": "Dampe", "amenity": "place_of_worship", "name": "Bpdhiwardanaramaya Temple", "religion": "buddhist"}}, {"type": "node", "id": 4106732562, "lat": 6.8346072, "lon": 80.0486807, "tags": {"addr:city": "Dampe", "amenity": "place_of_worship", "name": "Wela Mada Temple", "religion": "buddhist"}}, {"type": "node", "id": 4192037133, "lat": 6.9122978, "lon": 79.8773225, "tags": {"addr:city": "Borella", "addr:street": "Baseline Road", "amenity": "place_of_worship", "check_date": "2024-03-11", "denomination": "roman_catholic", "name": "St. Anthony's Church", "religion": "christian"}}, {"type": "node", "id": 4196313089, "lat": 7.0126459, "lon": 79.9667416, "tags": {"amenity": "place_of_worship", "religion": "christian"}}, {"type": "node", "id": 4197877998, "lat": 6.9562099, "lon": 79.9954049, "tags": {"amenity": "place_of_worship", "religion": "buddhist"}}, {"type": "node", "id": 4201309465, "lat": 6.9282824, "lon": 79.9278668, "tags": {"addr:city": "Angoda", "addr:street": "Mulleriyawa Hospital road", "amenity": "place_of_worship", "name": "Sri Sudhrmarama Tmple", "religion": "buddhist"}}, {"type": "node", "id": 4208447148, "lat": 6.9631593, "lon": 80.1316007, "tags": {"amenity": "place_of_worship", "religion": "buddhist"}}, {"type": "node", "id": 4233205610, "lat": 6.9347378, "lon": 79.8438484, "tags": {"addr:street": "Chatham Street", "amenity": "place_of_worship", "check_date": "2025-01-15", "name": "Fort Jumma Mosque", "religion": "muslim"}}, {"type": "node", "id": 4243904917, "lat": 6.9166716, "lon": 79.9735428, "tags": {"amenity": "place_of_worship", "name": "Sisilarama", "religion": "buddhist"}}, {"type": "node", "id": 4267851369, "lat": 6.8389366, "lon": 79.9791986, "tags": {"addr:city": "Makumbura", "addr:street": "High Level Road", "amenity": "place_of_worship", "name": "Paththini Devalaya", "religion": "buddhist"}}, {"type": "node", "id": 4304782810, "lat": 6.9481148, "lon": 79.8645241, "tags": {"addr:city": "Kotahena", "addr:street": "St Benadicts Street", "amenity": "place_of_worship", "building": "church", "denomination": "roman_catholic", "historic": "yes", "name": "St. Lucia Church", "name:pl": "Katedra \u015awi\u0119tej \u0141ucji", "religion": "christian", "tourism": "attraction", "wikidata": "Q4426067", "wikimedia_commons": "Category:St. Lucia's Cathedral", "wikipedia": "en:St. Lucia's Cathedral"}}, {"type": "node", "id": 4310399691, "lat": 6.9373729, "lon": 79.8723039, "tags": {"amenity": "place_of_worship", "building": "mosque", "name": "Jumma mosque", "religion": "muslim"}}, {"type": "node", "id": 4310401289, "lat": 6.9394256, "lon": 79.873136, "tags": {"amenity": "place_of_worship", "building": "mosque", "name": "Masjidhul Salam", "religion": "muslim"}}, {"type": "node", "id": 4312074797, "lat": 7.0998045, "lon": 79.9696668, "tags": {"amenity": "place_of_worship", "name": "Budu Medura", "religion": "buddhist"}}, {"type": "node", "id": 4313753730, "lat": 7.0985773, "lon": 79.9882198, "tags": {"amenity": "place_of_worship", "name": "Bodhiya", "religion": "buddhist"}}, {"type": "node", "id": 4333442492, "lat": 7.0900446, "lon": 80.0024987, "tags": {"amenity": "place_of_worship", "name": "temple", "religion": "buddhist"}}, {"type": "node", "id": 4333442523, "lat": 7.0976245, "lon": 80.0218101, "tags": {"amenity": "place_of_worship", "name": "Indigolla Church", "religion": "christian"}}, {"type": "node", "id": 4333442524, "lat": 7.0907463, "lon": 80.0185904, "tags": {"amenity": "place_of_worship", "name": "Indigolla Temple", "religion": "buddhist"}}, {"type": "node", "id": 4350782594, "lat": 7.082109, "lon": 80.127122, "tags": {"amenity": "place_of_worship", "name": "Viweka Senasanaya"}}, {"type": "node", "id": 4350782598, "lat": 7.071563, "lon": 80.102504, "tags": {"amenity": "place_of_worship", "name": "Pettagankanda Aranya Senasanaya", "religion": "buddhist"}}, {"type": "node", "id": 4350789695, "lat": 7.085487, "lon": 80.07591, "tags": {"amenity": "place_of_worship", "name": "Sri Ariyanandanaramaya", "religion": "buddhist"}}, {"type": "node", "id": 4352137293, "lat": 7.067728, "lon": 80.141852, "tags": {"amenity": "place_of_worship", "name": "Ratambale Temple", "religion": "buddhist"}}, {"type": "node", "id": 4352137391, "lat": 7.074939, "lon": 80.144087, "tags": {"amenity": "place_of_worship", "name": "Gothami Aramaya", "religion": "buddhist"}}, {"type": "node", "id": 4352143790, "lat": 7.033282, "lon": 80.093616, "tags": {"amenity": "place_of_worship", "name": "Abhinawarama Temple", "religion": "buddhist"}}, {"type": "node", "id": 4410213537, "lat": 6.9827902, "lon": 80.1089071, "tags": {"amenity": "place_of_worship", "name": "Temple", "religion": "buddhist"}}, {"type": "node", "id": 4410225163, "lat": 6.97371, "lon": 80.0893551, "tags": {"amenity": "place_of_worship", "name": "Temple", "religion": "buddhist"}}, {"type": "node", "id": 4416334748, "lat": 7.0228349, "lon": 79.9999951, "tags": {"amenity": "place_of_worship", "name": "Waboda Temple", "religion": "buddhist"}}, {"type": "node", "id": 4439992590, "lat": 7.0486028, "lon": 79.9002582, "tags": {"amenity": "place_of_worship", "name": "Buddhist Center Kandana"}}, {"type": "node", "id": 4441511980, "lat": 7.0402562, "lon": 79.9090892, "tags": {"amenity": "place_of_worship", "denomination": "catholic", "name": "Church"}}, {"type": "node", "id": 4441950138, "lat": 7.01358, "lon": 79.9391283, "tags": {"addr:city": "Pahala Karagahamuna", "addr:street": "Ragama-Kadawatha Road", "amenity": "place_of_worship", "name": "Sri Jayathilakarama Viharaya", "religion": "buddhist"}}, {"type": "node", "id": 4441951674, "lat": 7.0109498, "lon": 79.9377925, "tags": {"addr:city": "Kadawarga", "addr:street": "Galedanda Rajamaha Vihara Para", "amenity": "place_of_worship", "name": "Gal Edanda Rajamaha Viharaya", "name:si": "\u0d9c\u0dbd\u0dca \u0d92\u0daf\u0db1\u0dca\u0da9 \u0dbb\u0da2\u0db8\u0dc4\u0dcf \u0dc0\u0dd2\u0dc4\u0dcf\u0dbb\u0dba", "religion": "buddhist"}}, {"type": "node", "id": 4452397119, "lat": 7.003728, "lon": 79.9582212, "tags": {"addr:city": "Kadawatha", "addr:street": "Sunethrarama Mawatha", "amenity": "place_of_worship", "name": "Sunethraramaya", "religion": "buddhist"}}, {"type": "node", "id": 4465716440, "lat": 6.8848611, "lon": 79.9744257, "tags": {"amenity": "place_of_worship", "name": "Purana Viharaya Hokandara", "religion": "buddhist"}}, {"type": "node", "id": 4476508488, "lat": 6.9581571, "lon": 79.9152419, "tags": {"amenity": "place_of_worship", "name": "Sugatharamaya", "religion": "buddhist"}}, {"type": "node", "id": 4481072330, "lat": 7.0016975, "lon": 79.9479851, "tags": {"amenity": "place_of_worship", "name": "Sri Bimbarama Viharaya", "religion": "buddhist"}}, {"type": "node", "id": 4497804225, "lat": 7.0040061, "lon": 79.94266, "tags": {"addr:street": "Ragama-Kadawatha Road", "amenity": "place_of_worship", "name": "Jathyanthara Baudda Madyasthanaya", "religion": "buddhist"}}, {"type": "node", "id": 4497935638, "lat": 7.0000533, "lon": 79.9326833, "tags": {"addr:street": "Kirimetiyagara / St. Anthony's Road", "amenity": "place_of_worship", "denomination": "catholic", "name": "St. Anthony's Church", "religion": "christian"}}, {"type": "node", "id": 4557400389, "lat": 6.8495766, "lon": 79.8861083, "tags": {"addr:postcode": "10350", "addr:street": "siri sadaham monastery, Bellanthara, Dehiwala.", "amenity": "place_of_worship", "email": "info@ashramaya.org", "name:en": "Siri Sadaham Monastery", "phone": "+94 112 732 700", "website": "https://ashramaya.org/"}}, {"type": "node", "id": 4637575303, "lat": 6.8043563, "lon": 79.9590193, "tags": {"amenity": "place_of_worship", "name": "Kudamaduwa Temple", "religion": "buddhist"}}, {"type": "node", "id": 4637644277, "lat": 6.8085914, "lon": 79.9663501, "tags": {"amenity": "place_of_worship", "description": "Buddha Statue", "religion": "buddhist"}}, {"type": "node", "id": 4640491048, "lat": 6.8195689, "lon": 79.9224692, "tags": {"addr:city": "Niwanthidiya", "addr:street": "Arewwala-Bokundara Road", "amenity": "place_of_worship", "check_date": "2024-04-06", "name": "Sri Mahindarama Purana Viharaya", "religion": "buddhist"}}, {"type": "node", "id": 4641351289, "lat": 6.8349086, "lon": 79.9565514, "tags": {"amenity": "place_of_worship", "name": "Temple", "religion": "buddhist"}}, {"type": "node", "id": 4666466249, "lat": 6.9315182, "lon": 79.8840169, "tags": {"amenity": "place_of_worship", "check_date": "2024-03-15", "name": "Kolonnawa Bodhiya", "religion": "buddhist"}}, {"type": "node", "id": 4689046890, "lat": 6.9128378, "lon": 79.8837405, "tags": {"addr:street": "Balcome Place", "amenity": "place_of_worship", "name:en": "Lanka Rama - Office of the Catholic Bishops Conferencr"}}, {"type": "node", "id": 4693170272, "lat": 6.9859076, "lon": 79.9184093, "tags": {"amenity": "place_of_worship", "name": "Temple", "religion": "buddhist"}}, {"type": "node", "id": 4698361198, "lat": 6.9448495, "lon": 79.8637503, "tags": {"amenity": "place_of_worship", "name": "Temple", "religion": "buddhist"}},