{"version": 0.6, "generator": "Overpass API 0.7.62.11 87bfad18", "osm3s": {"timestamp_osm_base": "2026-05-16T05:36:37Z", "copyright": "The data included in this document is from www.openstreetmap.org. The data is made available under ODbL."}, "elements": [{"type": "node", "id": 253144768, "lat": 6.9291227, "lon": 79.8493786, "tags": {"addr:city": "Colombo", "air_conditioning": "yes", "bar": "yes", "check_date": "2022-11-29", "internet_access:fee": "no", "name": "Cinnamon Lakeside Hotel", "opening_hours": "24/7", "payment:cash": "yes", "payment:credit_cards": "yes", "payment:debit_cards": "yes", "reservation": "yes", "stars": "5", "tourism": "hotel", "website": "https://www.cinnamonhotels.com/cinnamonlakesidecolombo", "wheelchair": "yes"}}, {"type": "node", "id": 598722464, "lat": 6.8422713, "lon": 79.8630895, "tags": {"addr:city": "Mount Lavinia", "name": "Haus Chandra Hotel", "tourism": "hotel"}}, {"type": "node", "id": 599815325, "lat": 6.8445658, "lon": 80.0096997, "tags": {"name": "Hilltop", "tourism": "hotel"}}, {"type": "node", "id": 618555638, "lat": 6.9211657, "lon": 79.8476483, "tags": {"addr:city": "Colombo City Limit", "brand": "Ramada", "brand:wikidata": "Q1502859", "name": "Ramada Colombo", "tourism": "hotel"}}, {"type": "node", "id": 621919953, "lat": 6.8386792, "lon": 79.8635346, "tags": {"addr:city": "Mount Lavinia", "name": "Berjaya Mount Royal Beach Hotel", "tourism": "hotel"}}, {"type": "node", "id": 666892253, "lat": 6.9097418, "lon": 79.8515739, "tags": {"addr:city": "Colombo 03", "name": "Sea View Hotel", "tourism": "hotel"}}, {"type": "node", "id": 675966932, "lat": 6.8851576, "lon": 79.8554529, "tags": {"name": "Ottery Tourist Inn", "tourism": "hotel"}}, {"type": "node", "id": 675994033, "lat": 6.8553227, "lon": 79.865709, "tags": {"addr:city": "Dehiwala", "name": "Concord Grand", "tourism": "hotel"}}, {"type": "node", "id": 844674878, "lat": 6.9836547, "lon": 79.9328847, "tags": {"check_date": "2024-08-04", "name": "Clarion Hotel", "tourism": "hotel"}}, {"type": "node", "id": 1272254898, "lat": 6.8866186, "lon": 79.8556869, "tags": {"name": "Eestee Rest", "tourism": "hotel"}}, {"type": "node", "id": 1272998505, "lat": 6.8078018, "lon": 79.9067701, "tags": {"addr:city": "Piliyandala", "name": "Rock House (Galbangalawa)", "tourism": "hotel"}}, {"type": "node", "id": 1272998527, "lat": 6.8038771, "lon": 79.9170621, "tags": {"addr:city": "Piliyandala", "name": "Liyanka Reception Hall", "tourism": "hotel"}}, {"type": "node", "id": 1376677117, "lat": 6.9155325, "lon": 79.8480881, "tags": {"name": "Ranmuthu Hotel", "tourism": "hotel"}}, {"type": "node", "id": 1530580878, "lat": 6.8664419, "lon": 79.8767855, "tags": {"tourism": "hotel"}}, {"type": "node", "id": 1554576963, "lat": 6.838719, "lon": 79.8651187, "tags": {"addr:city": "Mount Lavinia", "addr:housenumber": "30", "addr:postcode": "10370", "addr:street": "College Avenue", "air_conditioning": "yes", "brand": "Tropic Inn Hotel", "email": "tropicinntropicinn@yahoo.com", "internet_access": "yes", "internet_access:fee": "no", "name": "Tropic Inn - Mount Lavinia", "name:en": "Tropic Inn - Restaurant", "name:si": "\u0da7\u0dca\u200d\u0dbb\u0ddc\u0db4\u0dd2\u0d9a\u0dca \u0d89\u0db1\u0dca - \u0daf\u0dd9\u0dc4\u0dd2\u0dc0\u0dbd, \u0d9c\u0dbd\u0dca\u0d9a\u0dd2\u0dc3\u0dca\u0dc3", "payment:american_express": "yes", "payment:cash": "yes", "payment:credit_cards": "yes", "payment:debit_cards": "yes", "payment:mastercard": "yes", "payment:visa": "yes", "phone": "+94112738653", "restaurant": "yes", "rooms": "15", "tourism": "guest_house", "website": "https://www.tripadvisor.com/Hotel_Review-g499079-d583010-Reviews-Tropic_Inn-Dehiwala_Mount_Lavinia_Western_Province.html"}}, {"type": "node", "id": 1651212807, "lat": 6.8547128, "lon": 79.9137013, "tags": {"addr:city": "Nawinna", "name": "Guest House", "tourism": "guest_house"}}, {"type": "node", "id": 1652449032, "lat": 6.8424164, "lon": 79.9099562, "tags": {"addr:city": "Boralesgamuwa", "addr:street": "Maharagama-Dehiwala Road", "name": "Golden Rose Reception Hall", "tourism": "hotel"}}, {"type": "node", "id": 1778854596, "lat": 6.8610974, "lon": 80.0340753, "tags": {"name": "Villuda Inn", "tourism": "hotel"}}, {"type": "node", "id": 1788224832, "lat": 6.8356078, "lon": 80.0026461, "tags": {"name": "Bon Bon Hotel", "tourism": "hotel"}}, {"type": "node", "id": 1819715437, "lat": 6.8895795, "lon": 79.9033719, "tags": {"name": "Solis Hotel", "tourism": "hotel"}}, {"type": "node", "id": 1838393543, "lat": 6.9090556, "lon": 79.8499652, "tags": {"addr:city": "Colombo 03", "name": "Juliana", "tourism": "hotel"}}, {"type": "node", "id": 1838393583, "lat": 6.9085057, "lon": 79.8502478, "tags": {"addr:city": "Colombo 03", "name": "Renuka City Hotel", "tourism": "hotel"}}, {"type": "node", "id": 1838393588, "lat": 6.8971936, "lon": 79.8523099, "tags": {"name": "Sun Hill", "tourism": "hotel"}}, {"type": "node", "id": 1843491206, "lat": 6.9095658, "lon": 80.0824115, "tags": {"addr:city": "Hanwella", "name": "Hanwella Rest House", "tourism": "guest_house"}}, {"type": "node", "id": 1843491281, "lat": 6.9093818, "lon": 80.0770264, "tags": {"addr:city": "Hanwella", "name": "Green Valley", "tourism": "hotel"}}, {"type": "node", "id": 1843534082, "lat": 6.9396561, "lon": 79.9808799, "tags": {"name": "Biyagama Village", "tourism": "hotel"}}, {"type": "node", "id": 1862625129, "lat": 6.9126053, "lon": 80.0956732, "tags": {"addr:city": "Hanwella", "addr:street": "High Level Road", "ele": "13.9", "name": "Ambalama Leisure Lounge", "time": "2012-08-12T06:32:40.181Z", "tourism": "hotel"}}, {"type": "node", "id": 1862815993, "lat": 6.9091263, "lon": 80.1274911, "tags": {"addr:city": "Waga", "addr:street": "Boralugoda-Mawalagama Road", "name": "The Nature's Resort", "tourism": "guest_house"}}, {"type": "node", "id": 1999705295, "lat": 6.8502948, "lon": 79.865502, "tags": {"addr:city": "Dehiwala", "name": "Malsara", "tourism": "hotel"}}, {"type": "node", "id": 2034206016, "lat": 6.888874, "lon": 79.8777852, "tags": {"addr:city": "Narahenpita", "addr:street": "Elvitigala Mawatha", "name": "Hotel Sansu", "tourism": "hotel"}}, {"type": "node", "id": 2038027935, "lat": 6.8401032, "lon": 80.0209468, "tags": {"addr:city": "Homagama", "name": "Amaliya Reach Holiday Resort", "tourism": "hotel"}}, {"type": "node", "id": 2049663688, "lat": 6.8977792, "lon": 79.8563983, "tags": {"addr:city": "Bambalapitiya", "addr:street": "R. A. De Mel Mawatha", "name": "Colombo Court Hotel & Spa;Colombo Court", "tourism": "hotel"}}, {"type": "node", "id": 2105371081, "lat": 6.9414589, "lon": 79.864045, "tags": {"internet_access": "terminal", "name": "Brighten Rest", "tourism": "hotel"}}, {"type": "node", "id": 2105371082, "lat": 6.9304715, "lon": 79.8651588, "tags": {"name": "Shalimar Hotel", "source": "Booking.com", "tourism": "hotel"}}, {"type": "node", "id": 2108452786, "lat": 7.0909599, "lon": 79.88757, "tags": {"internet_access": "wlan", "name": "The Blue Gum", "tourism": "hotel"}}, {"type": "node", "id": 2190743975, "lat": 6.8961387, "lon": 79.8554872, "tags": {"addr:city": "Colombo", "addr:street": "Edward Lane", "name": "Pearl Grand Hotel", "tourism": "hotel"}}, {"type": "node", "id": 2328964033, "lat": 6.9311621, "lon": 79.855306, "tags": {"name": "Benchmark Holidays", "tourism": "hotel"}}, {"type": "node", "id": 2339531734, "lat": 6.8060363, "lon": 80.1837379, "tags": {"addr:city": "Wewila, kalatuwana", "addr:street": "Udagama Road", "ele": "230", "name": "Serenity Village", "phone": "+94 11 4422722, +94 11 4930350", "tourism": "hotel", "website": "https://www.serenity.lk/"}}, {"type": "node", "id": 2391809198, "lat": 6.8886027, "lon": 79.8565065, "tags": {"name": "Greenlands Hotel", "tourism": "hotel", "website": "https://www.tripadvisor.com/Restaurant_Review-g293962-d1133408-Reviews-Greenlands_Hotel-Colombo.html"}}, {"type": "node", "id": 2423771585, "lat": 6.8598128, "lon": 79.9459397, "tags": {"name": "Water Villa", "tourism": "hotel"}}, {"type": "node", "id": 2619373183, "lat": 6.8746204, "lon": 79.9009939, "tags": {"name": "Relax Rooms", "tourism": "guest_house"}}, {"type": "node", "id": 2646850061, "lat": 6.887612, "lon": 79.8707339, "tags": {"name": "Hotel Janaki", "tourism": "hotel"}}, {"type": "node", "id": 2687982664, "lat": 6.8353754, "lon": 79.9653932, "tags": {"name": "Rochelle Gardens", "tourism": "hotel"}}, {"type": "node", "id": 2739138215, "lat": 6.911113, "lon": 80.0820571, "tags": {"addr:city": "Hanwella", "addr:street": "Hanwella - Malwana Road", "name": "Hanwella Holiday Inn", "tourism": "hotel"}}, {"type": "node", "id": 2755766284, "lat": 6.9356011, "lon": 79.9766815, "tags": {"addr:city": "Kaduwela", "addr:street": "Rajasinghe Mawatha", "name": "Rock Chalet", "tourism": "hotel"}}, {"type": "node", "id": 2760208497, "lat": 6.9092552, "lon": 79.9739495, "tags": {"amenity": "theatre", "building": "hotel", "name": "Water World", "tourism": "hotel"}}, {"type": "node", "id": 2857612082, "lat": 6.9145614, "lon": 79.8725832, "tags": {"addr:city": "Colombo", "addr:housenumber": "97", "addr:street": "Rosmead Place", "addr:unit": "1", "cuisine": "indian", "internet_access": "wlan", "name": "Parisare (Homestay)", "phone": "2694749", "source": "survey", "tourism": "guest_house"}}, {"type": "node", "id": 2860007688, "lat": 6.8581846, "lon": 80.0974471, "tags": {"addr:city": "Meepe", "addr:street": "Meepe-Ingiriya Road", "name": "Kithulkanda Mountain Hotel", "tourism": "hotel"}}, {"type": "node", "id": 3085695779, "lat": 6.9082767, "lon": 79.8494265, "tags": {"addr:city": "Colombo 03", "addr:street": "Sellamuttu Av", "name": "Comfort @15", "tourism": "hotel"}}, {"type": "node", "id": 3085695787, "lat": 6.9057946, "lon": 79.8505771, "tags": {"addr:city": "Colombo 03", "addr:street": "Galle Road", "name": "Cinnamon Village Eco Tourism Hotel & Lodge", "tourism": "hotel"}}, {"type": "node", "id": 3085695788, "lat": 6.9181678, "lon": 79.8473204, "tags": {"addr:city": "Colombo 03", "addr:street": "Galle Road", "name": "Samudra Hotel", "operator": "Sri Lanka Tourist Board", "tourism": "hotel"}}, {"type": "node", "id": 3130659455, "lat": 7.0288647, "lon": 79.8619265, "tags": {"addr:city": "Uswetakeiyawa", "name": "Naval Club House", "tourism": "hotel"}}, {"type": "node", "id": 3130659458, "lat": 7.0420097, "lon": 79.858976, "tags": {"addr:city": "Wattala", "name": "Hamilton Beach Villa", "tourism": "hotel"}}, {"type": "node", "id": 3130659461, "lat": 7.0501612, "lon": 79.8564272, "tags": {"addr:city": "Bopitiya", "name": "Reefs Edge Hotel", "tourism": "hotel"}}, {"type": "node", "id": 3130659462, "lat": 7.0788024, "lon": 79.8498966, "tags": {"addr:city": "Bopitiya", "name": "Beach Bungalow", "tourism": "hotel"}}, {"type": "node", "id": 3130659463, "lat": 7.0839091, "lon": 79.8487074, "tags": {"addr:city": "Ja-Ela", "name": "Villa Palma", "tourism": "hotel"}}, {"type": "node", "id": 3130659464, "lat": 7.0475197, "lon": 79.8572318, "tags": {"addr:city": "Bopitiya", "name": "Sea Shine Beach Hotel", "tourism": "hotel"}}, {"type": "node", "id": 3130664916, "lat": 6.9337998, "lon": 79.8441932, "tags": {"addr:city": "Colombo 01", "addr:street": "Hospital Street", "name": "City Rest Fort", "tourism": "hotel"}}, {"type": "node", "id": 3130664917, "lat": 6.9320693, "lon": 79.8466171, "tags": {"addr:city": "Colombo", "addr:housenumber": "20 1/2", "addr:street": "Sir Chittamapalam A Gardiner Mawatha", "name": "City Beds - The Regent", "phone": "+94777733747", "tourism": "hotel", "website": "https://citybedssrilanka.com/"}}, {"type": "node", "id": 3130689156, "lat": 6.9150324, "lon": 79.8542302, "tags": {"addr:city": "Colombo", "name": "Lake Lodge", "tourism": "hotel"}}, {"type": "node", "id": 3130689157, "lat": 6.912514, "lon": 79.857759, "tags": {"addr:city": "Colombo", "name": "Premier Suite", "tourism": "hotel"}}, {"type": "node", "id": 3130689158, "lat": 6.9072108, "lon": 79.8597836, "tags": {"addr:city": "Colombo 7", "name": "Colombo Villa", "tourism": "hotel"}}, {"type": "node", "id": 3130689159, "lat": 6.9051452, "lon": 79.8540373, "tags": {"addr:city": "Colombo 03", "addr:street": "Walukarama Road", "name": "Boutique Colombo", "tourism": "hotel"}}, {"type": "node", "id": 3130689160, "lat": 6.9047564, "lon": 79.8546435, "tags": {"addr:city": "Colombo 03", "name": "5th Lane House", "tourism": "hotel"}}, {"type": "node", "id": 3130689161, "lat": 6.9037925, "lon": 79.8554911, "tags": {"addr:city": "Colombo 3", "name": "Kolpetty House", "tourism": "hotel"}}, {"type": "node", "id": 3130689162, "lat": 6.9032493, "lon": 79.8546167, "tags": {"addr:city": "Colombo 3", "name": "Bliss Hotel", "tourism": "hotel"}}, {"type": "node", "id": 3130689163, "lat": 6.9010126, "lon": 79.8517252, "tags": {"addr:city": "Colombo 03", "name": "Talibah Boutique Hotel", "tourism": "hotel"}}, {"type": "node", "id": 3130689164, "lat": 6.8984119, "lon": 79.8520947, "tags": {"addr:city": "Colombo", "check_date": "2024-02-25", "name": "Hotel Lazaani", "tourism": "hotel"}}, {"type": "node", "id": 3130689165, "lat": 6.8970291, "lon": 79.8528786, "tags": {"addr:city": "Colombo", "name": "Palmyrah Holiday Homes", "tourism": "hotel"}}, {"type": "node", "id": 3130689166, "lat": 6.8969598, "lon": 79.8525835, "tags": {"addr:city": "Colombo", "name": "Aqua Marine Holiday Homes", "tourism": "hotel"}}, {"type": "node", "id": 3130689167, "lat": 6.8975137, "lon": 79.8524012, "tags": {"addr:city": "Colombo", "name": "C J Villas", "tourism": "hotel"}}, {"type": "node", "id": 3130689168, "lat": 6.8975297, "lon": 79.8522778, "tags": {"addr:city": "Colombo", "name": "Ocean Conclave Hotel", "tourism": "hotel"}}, {"type": "node", "id": 3130689169, "lat": 6.8974324, "lon": 79.854441, "tags": {"addr:city": "Colombo", "name": "Clock Inn Colombo", "tourism": "hotel"}}, {"type": "node", "id": 3130733884, "lat": 6.8867798, "lon": 79.8893273, "tags": {"addr:city": "Nawala", "name": "D Villas", "tourism": "hotel"}}, {"type": "node", "id": 3130733886, "lat": 6.8855228, "lon": 79.8882567, "tags": {"addr:city": "Nawala", "name": "Monsoon Suites", "tourism": "hotel"}}, {"type": "node", "id": 3130733887, "lat": 6.8684498, "lon": 79.8589628, "tags": {"addr:city": "Wellawatte", "air_conditioning": "yes", "name": "Mirage Hotel", "tourism": "hotel", "wheelchair": "yes"}}, {"type": "node", "id": 3130733888, "lat": 6.8677066, "lon": 79.8590536, "tags": {"addr:city": "Wellawatte", "air_conditioning": "yes", "name": "Sai Sea City Hotel", "tourism": "hotel", "wheelchair": "no"}}, {"type": "node", "id": 3130733889, "lat": 6.8679509, "lon": 79.8605482, "tags": {"addr:city": "Wellawatte", "check_date": "2026-04-27", "facebook": "https://www.facebook.com/lafalahotel/", "name": "Lafala Hotel", "tourism": "hotel"}}, {"type": "node", "id": 3130733890, "lat": 6.8437964, "lon": 79.8651705, "tags": {"addr:city": "Mount Lavinia", "name": "Dammika Home", "tourism": "hotel"}}, {"type": "node", "id": 3130733891, "lat": 6.8451453, "lon": 79.8650469, "tags": {"addr:city": "Mount Lavinia", "name": "Lavinia Villa", "tourism": "hotel"}}, {"type": "node", "id": 3130733894, "lat": 6.8424403, "lon": 79.8649103, "tags": {"addr:city": "Mount Lavinia", "name": "Fifteen Beach Road House", "tourism": "hotel"}}, {"type": "node", "id": 3130733895, "lat": 6.8416893, "lon": 79.8646689, "tags": {"addr:city": "Mount Lavinia", "name": "Aurora Holiday House", "tourism": "hotel"}}, {"type": "node", "id": 3130733896, "lat": 6.842398, "lon": 79.8639281, "tags": {"addr:city": "Mount Lavinia", "name": "Lavinia Beach Hostel", "tourism": "hotel"}}, {"type": "node", "id": 3130733897, "lat": 6.8402193, "lon": 79.8636067, "tags": {"addr:city": "Mount Lavinia", "name": "Mount Bay Hotel", "tourism": "hotel"}}, {"type": "node", "id": 3130733898, "lat": 6.8402543, "lon": 79.865695, "tags": {"addr:city": "Mount Lavinia", "name": "Royce Hotel", "name:ru": "\u043e\u0444\u0438\u0441 \u044d\u043a\u0437\u043e\u0442\u0438\u043a \u0425\u043e\u043b\u0438\u0434\u0435\u0439", "tourism": "hotel"}}, {"type": "node", "id": 3130733899, "lat": 6.8401289, "lon": 79.8666009, "tags": {"addr:city": "Mount Lavinia", "name": "Ocen Blue House", "tourism": "hotel"}}, {"type": "node", "id": 3130733900, "lat": 6.8398018, "lon": 79.8647824, "tags": {"addr:city": "Mount Lavinia", "name": "Ivory Inn", "tourism": "hotel"}}, {"type": "node", "id": 3130764930, "lat": 6.8357451, "lon": 79.8635546, "tags": {"addr:city": "Mount Lavinia", "name": "Rivi Ras Hotel", "tourism": "hotel"}}, {"type": "node", "id": 3130764931, "lat": 6.835737, "lon": 79.8653109, "tags": {"addr:city": "Mount Lavinia", "name": "Aqua Marine Holiday Homes", "tourism": "hotel"}}, {"type": "node", "id": 3130764932, "lat": 6.8354988, "lon": 79.8658678, "tags": {"addr:city": "Mount Lavinia", "name": "Golden Bridge Guest House", "tourism": "hotel"}}, {"type": "node", "id": 3130764933, "lat": 6.8356924, "lon": 79.8634221, "tags": {"addr:city": "Mount Lavinia", "addr:housenumber": "56/9 De Saram Rd, Dehiwala-Mount Lavinia 10370", "name": "Ranveli Beach Resort", "tourism": "hotel"}}, {"type": "node", "id": 3130764934, "lat": 6.8352365, "lon": 79.8640343, "tags": {"addr:city": "Mount Lavinia", "name": "Omni Holiday Bungalow", "tourism": "hotel"}}, {"type": "node", "id": 3130764935, "lat": 6.8334725, "lon": 79.8625626, "tags": {"addr:city": "Mount Lavinia", "name": "Relaxn On Hotel", "tourism": "hotel"}}, {"type": "node", "id": 3130764936, "lat": 6.833533, "lon": 79.8644815, "tags": {"addr:city": "Mount Lavinia", "name": "Mount Lodge", "tourism": "hotel"}}, {"type": "node", "id": 3130764937, "lat": 6.8328468, "lon": 79.8645018, "tags": {"addr:city": "Mount Lavinia", "name": "Lavinia House", "tourism": "hotel"}}, {"type": "node", "id": 3130764938, "lat": 6.8322887, "lon": 79.864946, "tags": {"addr:city": "Mount Lavinia", "name": "Prestige Court Residence Hotel", "tourism": "hotel"}}, {"type": "node", "id": 3130764939, "lat": 6.8312443, "lon": 79.8632456, "tags": {"addr:city": "Mount Lavinia", "name": "Hotel Sunhill", "tourism": "hotel"}}, {"type": "node", "id": 3204074560, "lat": 6.8476098, "lon": 79.9937503, "tags": {"addr:city": "Homagama", "addr:street": "Pinketha Road", "name": "Hotel Green Court", "tourism": "hotel"}}, {"type": "node", "id": 3204074676, "lat": 6.8482073, "lon": 80.0353303, "tags": {"addr:city": "Godagama", "name": "Lotus Godagama Reach Hotel", "tourism": "hotel"}}, {"type": "node", "id": 3247298779, "lat": 6.8691096, "lon": 79.9291574, "tags": {"addr:city": "Sri Jayawardenapura", "name": "Lush 24", "tourism": "hotel"}}, {"type": "node", "id": 3401467539, "lat": 6.8655111, "lon": 79.8612831, "tags": {"addr:city": "Wellawatte", "air_conditioning": "yes", "bar": "yes", "check_date": "2023-10-08", "email": "reservations@fairviewhotel.lk", "internet_access": "wlan", "internet_access:fee": "no", "name": "Fair View Hotel Colombo", "payment:mastercard": "yes", "payment:visa": "yes", "phone": "+94 112 058 392", "reservation": "yes", "stars": "3", "tourism": "hotel", "website": "https://www.tangerinehotels.com/fairviewhotel/", "wheelchair": "yes"}}, {"type": "node", "id": 3401467548, "lat": 6.8589879, "lon": 79.860752, "tags": {"addr:city": "Dehiwala", "addr:street": "Initium Road", "name": "Adhikaram Sea View Hotel", "tourism": "hotel"}}, {"type": "node", "id": 3401467551, "lat": 6.8581934, "lon": 79.860898, "tags": {"addr:city": "Dehiwala", "name": "Big John", "tourism": "hotel"}}, {"type": "node", "id": 3401467553, "lat": 6.8559687, "lon": 79.8624432, "tags": {"addr:city": "Dehiwala", "name": "Windsor motel", "tourism": "hotel"}}, {"type": "node", "id": 3401481198, "lat": 6.8610791, "lon": 79.8632269, "tags": {"addr:city": "Dehiwala", "name": "New Siloam Guest", "tourism": "hotel"}}, {"type": "node", "id": 3401481201, "lat": 6.8580648, "lon": 79.8625741, "tags": {"addr:city": "Dehiwala", "name": "Ocean Legend 2", "tourism": "hotel"}}, {"type": "node", "id": 3403161428, "lat": 6.9478481, "lon": 79.9069509, "tags": {"addr:city": "Wellampitiya", "name": "Riverside", "tourism": "hotel"}}, {"type": "node", "id": 3406860323, "lat": 6.825495, "lon": 79.9606436, "tags": {"addr:city": "Kotttawa", "addr:street": "Piliyandala - Kottawa Road", "name": "Summer Field Reception Hall & Restaurant", "tourism": "hotel"}}, {"type": "node", "id": 3416948085, "lat": 6.9325399, "lon": 80.1813517, "tags": {"addr:city": "Puwakpitiya", "name": "Dons Lake Resort", "tourism": "hotel"}}, {"type": "node", "id": 3419315967, "lat": 6.835662, "lon": 80.036981, "tags": {"addr:city": "Pitipana", "name": "Orchid Leisure Villa", "tourism": "hotel"}}, {"type": "node", "id": 3419367905, "lat": 6.9414537, "lon": 80.1436563, "tags": {"addr:city": "Kosgama", "name": "Saffron Villa", "tourism": "hotel"}}, {"type": "node", "id": 3419425512, "lat": 6.9481933, "lon": 80.0950531, "tags": {"addr:city": "Kapugoda", "name": "Hotel Lucky Star", "tourism": "hotel"}}, {"type": "node", "id": 3504428007, "lat": 6.8247978, "lon": 79.9121532, "tags": {"addr:city": "Katuwawala", "name": "Holiday Home Lanka", "tourism": "hotel"}}, {"type": "node", "id": 3521567593, "lat": 7.040361, "lon": 80.129989, "tags": {"addr:city": "Kirindiwela ", "name": "Kirindiwela Village Hotel", "tourism": "hotel"}}, {"type": "node", "id": 3524872783, "lat": 6.8037414, "lon": 79.9044395, "tags": {"addr:city": "Piliyandala", "name": "Spring of Life", "tourism": "hotel"}}, {"type": "node", "id": 3594568909, "lat": 6.9014986, "lon": 79.9015526, "tags": {"check_date": "2024-04-03", "name": "Opulent River Face Hotel", "tourism": "hotel"}}, {"type": "node", "id": 3644597260, "lat": 6.8988104, "lon": 79.8536024, "tags": {"addr:housenumber": "646", "addr:street": "Galle Road", "name": "Drift B&B", "tourism": "hotel"}}, {"type": "node", "id": 3648636835, "lat": 6.8956848, "lon": 79.8553535, "tags": {"addr:city": "Bambalapitiya", "addr:street": "Bauddhaloka Mawatha", "alt_name": "Pearl City Hotel", "amenity": "bureau_de_change", "currency:CNY": "yes", "currency:GBP": "yes", "currency:LKR": "yes", "currency:USD": "yes", "name": "Pearl Money Exchange", "tourism": "hotel"}}, {"type": "node", "id": 3679733215, "lat": 7.0354066, "lon": 79.8608374, "tags": {"addr:city": "Uswetakeiyawa", "name": "Beach Rest", "tourism": "hotel"}}, {"type": "node", "id": 3679733216, "lat": 7.0367003, "lon": 79.8605316, "tags": {"addr:city": "Uswetakeiyawa", "name": "Sam Suites", "tourism": "hotel"}}, {"type": "node", "id": 3716240525, "lat": 7.0164876, "lon": 80.0257707, "tags": {"addr:street": "belummahara Kaduwela Road", "name": "Mihirna Banquet Hall", "tourism": "hotel"}}, {"type": "node", "id": 3716277903, "lat": 7.0066866, "lon": 80.0221562, "tags": {"addr:city": "naranwala", "addr:housenumber": "95/A", "addr:street": "belummahara Kaduwela Road", "name": "Hotel Sithmal", "tourism": "hotel"}}, {"type": "node", "id": 3718071756, "lat": 6.9448658, "lon": 80.1984649, "tags": {"addr:city": "Avissawella", "name": "Seethawaka Regency", "tourism": "hotel"}}, {"type": "node", "id": 3725664338, "lat": 6.8412578, "lon": 80.0923318, "tags": {"addr:city": "Padukka", "addr:postcode": "10500", "addr:street": "Galagedara-Horana Road", "name": "Padukka Rest House", "tourism": "hotel"}}, {"type": "node", "id": 3742263659, "lat": 6.8906497, "lon": 79.8697596, "tags": {"addr:city": "Colombo 5", "addr:street": "Fife Road", "name": "Hotel Janaki", "tourism": "hotel"}}, {"type": "node", "id": 3742323085, "lat": 6.875189, "lon": 79.8723943, "tags": {"addr:city": "Pamankada", "addr:street": "Kaviratne Place", "name": "Sosun Villa-Embassy of Maldives", "tourism": "hotel"}}, {"type": "node", "id": 3788738508, "lat": 7.0564234, "lon": 80.0156135, "tags": {"addr:city": "Rathupaswala", "addr:street": "New Kandy Road", "name": "Senethma Reception hall", "tourism": "hotel"}}, {"type": "node", "id": 4030048568, "lat": 6.8749548, "lon": 79.8591987, "tags": {"addr:city": "Wellawatte - Colombo 06", "addr:housenumber": "18", "addr:postcode": "00600", "addr:street": "Station Road", "name": "Suriyan Rest", "operator": "Suriyan Rest", "smoking": "outside", "tourism": "guest_house"}}, {"type": "node", "id": 4030061854, "lat": 6.8716621, "lon": 79.860281, "tags": {"tourism": "guest_house"}}, {"type": "node", "id": 4037943915, "lat": 6.8306545, "lon": 79.9623121, "tags": {"addr:city": "Kottawa", "addr:street": "Piliyandala - Kottawa Road", "name": "Mahanama Reception Hall", "tourism": "hotel"}}, {"type": "node", "id": 4038103457, "lat": 6.8204319, "lon": 79.9668426, "tags": {"addr:city": "Mattegoda", "addr:street": "Polgasowita Road", "name": "Star Palace", "tourism": "hotel"}}, {"type": "node", "id": 4082958805, "lat": 6.8817205, "lon": 80.0350042, "tags": {"name": "Samro Reception Hall", "smoking": "separated", "tourism": "hotel"}}, {"type": "node", "id": 4096652663, "lat": 6.8711829, "lon": 80.0322266, "tags": {"name": "Nymphea Hotel", "smoking": "separated", "tourism": "hotel"}}, {"type": "node", "id": 4099038754, "lat": 6.8483523, "lon": 80.0212256, "tags": {"name": "Nimansala Hotel & Family Restaurant", "tourism": "hotel"}}, {"type": "node", "id": 4120474797, "lat": 6.8861723, "lon": 79.8645634, "tags": {"addr:city": "Havelock Town", "addr:street": "Havelock Place", "name": "Havelock Place Bungalow", "tourism": "hotel"}}, {"type": "node", "id": 4134762101, "lat": 6.9102489, "lon": 79.8511193, "tags": {"name": "Colombo Haven ", "tourism": "hotel"}}, {"type": "node", "id": 4197513157, "lat": 6.899284, "lon": 79.8975459, "tags": {"addr:housenumber": "7", "addr:street": "Hemasinghe Mawatha", "name": "Bed & Breakfast - Nihal's Lodge", "tourism": "guest_house", "website": "https://www.airbnb.com/users/show/70618536"}}, {"type": "node", "id": 4223887595, "lat": 6.8853547, "lon": 79.855195, "tags": {"check_date": "2024-08-10", "name": "The Ocean Colombo", "tourism": "hotel"}}, {"type": "node", "id": 4235796689, "lat": 6.8903967, "lon": 79.8810305, "tags": {"name": "Hotel Karano", "tourism": "hotel"}}, {"type": "node", "id": 4282673989, "lat": 6.9339339, "lon": 79.8433808, "tags": {"name": "The Steuart BY Citrus n Co pub", "tourism": "hotel"}}, {"type": "node", "id": 4347690189, "lat": 6.8710796, "lon": 79.882418, "tags": {"addr:housenumber": "32/9A", "name": "Silvikris Villa", "office": "travel_agent", "tourism": "guest_house", "website": "www.silvikrisvilla.com"}}, {"type": "node", "id": 4350798792, "lat": 7.0806187, "lon": 80.0607422, "tags": {"name": "Thrimalee Reception Hall", "tourism": "hotel"}}, {"type": "node", "id": 4360917190, "lat": 6.9215411, "lon": 79.864628, "tags": {"addr:street": "Hedges Court", "name": "Booker Banquet Hall", "tourism": "hotel"}}, {"type": "node", "id": 4391700342, "lat": 6.9021501, "lon": 79.8526253, "tags": {"addr:city": "Colombo 03", "addr:street": "Galle Road", "name": "Ivy Lane", "tourism": "hotel"}}, {"type": "node", "id": 4400519590, "lat": 6.8401082, "lon": 79.8691665, "tags": {"addr:housenumber": "34/1/1", "addr:postcode": "10370", "addr:street": "Sumanarama Road", "email": "thepallethouse3411@gmail.com", "internet_access": "wlan", "name:en": "34/1/1 Sumanarama", "phone": "+94778840470", "tourism": "guest_house"}}, {"type": "node", "id": 4403661200, "lat": 7.0459378, "lon": 80.0229194, "tags": {"addr:city": "rathupaswala", "addr:street": "Kochchiwaththa para", "name": "Roomi", "tourism": "hotel"}}, {"type": "node", "id": 4427721990, "lat": 6.8971895, "lon": 79.8671951, "tags": {"name": "Colombo hotel by Ceilao Villas", "tourism": "hotel"}}, {"type": "node", "id": 4447444491, "lat": 6.9069926, "lon": 79.9150137, "tags": {"tourism": "guest_house"}}, {"type": "node", "id": 4449258289, "lat": 6.839083, "lon": 79.8662745, "tags": {"addr:housenumber": "26 / 2", "addr:street": "Hotel Road", "name:en": "Hotel Mount Lanka", "tourism": "hotel"}}, {"type": "node", "id": 4452996069, "lat": 6.986538, "lon": 80.064052, "tags": {"addr:city": "Dekatana", "addr:street": "Delgoda-Kirindiwela Road", "name": "Palm Villa", "tourism": "hotel"}}, {"type": "node", "id": 4457451962, "lat": 6.8705719, "lon": 79.8587005, "tags": {"addr:city": "Wellawatte", "addr:housenumber": "61", "addr:street": "Moor's Road", "air_conditioning": "yes", "bar": "yes", "check_date": "2023-10-08", "email": "reservations@miragecolombo.com", "internet_access:fee": "customers", "name": "Mirage Hotel colombo", "opening_hours": "24/7", "payment:cash": "yes", "payment:credit_cards": "yes", "payment:debit_cards": "yes", "phone": "+94 112 363 471; +94 112 363 472", "reservation": "yes", "stars": "4", "tourism": "hotel", "website": "https://www.miragecolombo.com/", "wheelchair": "yes"}}, {"type": "node", "id": 4461307293, "lat": 6.8665016, "lon": 79.8689437, "tags": {"name": "RoLanka", "tourism": "guest_house"}}, {"type": "node", "id": 4461531613, "lat": 6.9173938, "lon": 79.8585264, "tags": {"addr:city": "Colombo 2", "addr:street": "Park Street", "name": "Residence by Uga Escapes", "tourism": "hotel"}}, {"type": "node", "id": 4467587402, "lat": 6.8827848, "lon": 79.9599085, "tags": {"addr:city": "Hokandara", "addr:street": "Malabe-Kottawa Road", "name": "Newsiri Reception Hall", "tourism": "hotel"}}, {"type": "node", "id": 4469635791, "lat": 6.9402683, "lon": 79.8556329, "tags": {"tourism": "hotel"}}, {"type": "node", "id": 4483835903, "lat": 7.003573, "lon": 79.9426617, "tags": {"name": "Rose Garden Banquet Hall", "tourism": "hotel"}}, {"type": "node", "id": 4511993389, "lat": 6.9333187, "lon": 79.8437769, "tags": {"name": "ZMAX", "tourism": "guest_house"}}, {"type": "node", "id": 4530221489, "lat": 6.8509738, "lon": 79.8677118, "tags": {"addr:housenumber": "40", "addr:street": "Hill Street", "internet_access": "wlan", "name:en": "Clock Inn hostel", "tourism": "hotel"}}, {"type": "node", "id": 4533662989, "lat": 6.9337687, "lon": 79.8438864, "tags": {"name:en": "ZMAX FAIRWAY", "name:zh": "ZMAX", "tourism": "guest_house"}}, {"type": "node", "id": 4545801285, "lat": 7.0336248, "lon": 79.8987449, "tags": {"name": "Hotel Mizuki Plaza", "tourism": "hotel"}}, {"type": "node", "id": 4582159690, "lat": 6.8429892, "lon": 79.8690743, "tags": {"addr:housenumber": "33/2", "name:en": "Home as home", "tourism": "guest_house"}}, {"type": "node", "id": 4680153489, "lat": 6.9550748, "lon": 79.8622913, "tags": {"addr:housenumber": "25/1,", "addr:postcode": "00130", "addr:street": "17th lane", "email": "infonethys@gmail.com", "internet_access": "wlan", "name": "Day Rent House (Vacation Home)", "name:en": "Day Rent House (Vacation Home)", "name:zh": "\u65e5\u79df\u623f\uff08\u5ea6\u5047\u5c4b\uff09", "name:zh-Hans": "\u65e5\u79df\u623f\uff08\u5ea6\u5047\u5c4b\uff09", "name:zh-Hant": "\u65e5\u79df\u623f\uff08\u5ea6\u5047\u5c4b\uff09", "operator": "Lion S. Santhakumar", "phone": "+94777708708", "tourism": "guest_house"}}, {"type": "node", "id": 4694598589, "lat": 6.873473, "lon": 79.8985202, "tags": {"name:en": "55/6", "tourism": "guest_house"}}, {"type": "node", "id": 4696764889, "lat": 6.923703, "lon": 79.8510897, "tags": {"addr:city": "Colombo", "addr:postcode": "00200", "facebook": "https://www.facebook.com/people/Metro-City-Hotel/100064830470484/", "internet_access": "wlan", "name": "Metro City", "name:en": "Metro City Hotel", "name:es": "Hotel Metro City", "phone": "+94 (112) 321-133;+94 (112) 321-155;+ 94767321133", "tourism": "hotel", "website": "https://www.metrocityhotel.com/"}}, {"type": "node", "id": 4702772702, "lat": 6.9330669, "lon": 79.8539138, "tags": {"check_date": "2024-12-26", "internet_access": "wlan", "internet_access:fee": "yes", "name": "Colomba Gedara", "opening_hours": "24/7", "tourism": "guest_house"}}, {"type": "node", "id": 4709287989, "lat": 6.8829394, "lon": 79.8642062, "tags": {"addr:housenumber": "72", "addr:street": "Layard's Road", "name:en": "Park West Apartments", "tourism": "hotel"}}, {"type": "node", "id": 4772203109, "lat": 6.8418821, "lon": 79.8848887, "tags": {"tourism": "hotel"}}, {"type": "node", "id": 4805790921, "lat": 6.8439723, "lon": 79.8654579, "tags": {"addr:housenumber": "174/5", "addr:street": "Galle Road", "name:en": "Lavinia Villa", "phone": "+94777533442", "tourism": "hotel"}}, {"type": "node", "id": 4838256621, "lat": 6.915641, "lon": 79.869255, "tags": {"internet_access": "wlan", "name": "Black Cat B&B", "tourism": "hotel"}}, {"type": "node", "id": 4841941034, "lat": 6.9102888, "lon": 79.8553492, "tags": {"name": "The Little Townhouse", "tourism": "guest_house"}}, {"type": "node", "id": 4881076221, "lat": 6.9175831, "lon": 79.9818181, "tags": {"name:en": "Sky14 hotel", "tourism": "hotel"}}, {"type": "node", "id": 4890073622, "lat": 6.984623, "lon": 79.9337252, "tags": {"check_date": "2024-08-04", "name": "Hotel Royal Park", "name:en": "Hotel Royal Park", "tourism": "hotel"}}, {"type": "node", "id": 4892992724, "lat": 6.8946507, "lon": 79.8591334, "tags": {"addr:housenumber": "5", "addr:street": "Police Park Terrace", "name:en": "Canes Boutique Hotel", "tourism": "hotel"}}, {"type": "node", "id": 4916682221, "lat": 6.9232471, "lon": 79.8699722, "tags": {"name:en": "Bismillah lodge", "tourism": "hotel"}}, {"type": "node", "id": 4920130447, "lat": 7.0043042, "lon": 79.9491545, "tags": {"name": "Sendra", "tourism": "hotel"}}, {"type": "node", "id": 4972332123, "lat": 6.8754332, "lon": 79.8576558, "tags": {"addr:street": "Marine Drive", "name:en": "The Marine Grand", "tourism": "hotel"}}, {"type": "node", "id": 4989791722, "lat": 6.9420218, "lon": 79.8572082, "tags": {"addr:housenumber": "211", "addr:street": "Wolfendhal street", "internet_access": "wlan", "name:en": "M.P.S. LODGE", "phone": "0112435014", "tourism": "hotel"}}, {"type": "node", "id": 5051730321, "lat": 6.9042232, "lon": 79.8505044, "tags": {"name:en": "Zen rooms sea adventure marine drive", "tourism": "hotel"}}, {"type": "node", "id": 5165488022, "lat": 6.9208975, "lon": 79.9748029, "tags": {"addr:street": "New Kandy Road", "name:en": "Siri Kodiya Hotel", "tourism": "hotel"}}, {"type": "node", "id": 5187487321, "lat": 6.8631402, "lon": 79.8673704, "tags": {"addr:street": "Kotagama Sri Vachissara Mawatha", "amenity": "community_centre", "internet_access": "wlan", "name:en": "Rosewood Ceylon", "tourism": "hotel"}}, {"type": "node", "id": 5188233121, "lat": 6.9307015, "lon": 79.8478926, "tags": {"name:en": "Charter  house", "tourism": "guest_house"}}, {"type": "node", "id": 5188235122, "lat": 6.9226113, "lon": 79.853847, "tags": {"addr:street": "Union Place", "name": "Jan Rich", "tourism": "hotel"}}, {"type": "node", "id": 5190048021, "lat": 6.8600438, "lon": 79.8644789, "tags": {"addr:street": "Galle Road", "name:en": "Star hotel", "tourism": "hotel"}}, {"type": "node", "id": 5192693922, "lat": 6.9226857, "lon": 79.8532476, "tags": {"addr:street": "Union Place", "name": "Jan rich hotel", "tourism": "hotel"}}, {"type": "node", "id": 5192931723, "lat": 6.8604646, "lon": 79.8643403, "tags": {"name:en": "Star hotel", "tourism": "hotel"}}, {"type": "node", "id": 5193360427, "lat": 6.9084134, "lon": 79.8506209, "tags": {"addr:street": "Galle Road", "name": "Renuka City Hotel", "tourism": "hotel"}}, {"type": "node", "id": 5213912526, "lat": 6.9227909, "lon": 79.8532068, "tags": {"addr:street": "Union Place", "name": "Asine hotel", "tourism": "hotel"}}, {"type": "node", "id": 5349297159, "lat": 6.9381821, "lon": 79.9506605, "tags": {"name": "Grand Arena Hotel", "tourism": "hotel"}}, {"type": "node", "id": 5383552208, "lat": 7.0261006, "lon": 79.9703517, "tags": {"check_date": "2024-09-12", "name": "Imalka Banquet Hall", "tourism": "hotel"}}, {"type": "node", "id": 5403905200, "lat": 6.9623221, "lon": 80.006011, "tags": {"name": "Hotel P.T. Gardens", "tourism": "hotel"}}, {"type": "node", "id": 5411514565, "lat": 6.8749775, "lon": 79.860745, "tags": {"addr:housenumber": "56", "addr:street": "Galle Road", "breakfast": "yes", "internet_access": "wlan", "name": "Supun Arcade Residency", "phone": "+94 11 205 50 40", "rooms": "40", "swimming_pool": "yes", "tourism": "hotel", "website": "https://www.supunarcaderesidency.com/"}}, {"type": "node", "id": 5495742022, "lat": 6.9056466, "lon": 79.9018939, "tags": {"addr:street": "Royal Garden", "name:en": "Lakewinds Residencies", "tourism": "hotel"}}, {"type": "node", "id": 5561434087, "lat": 7.001197, "lon": 79.9518281, "tags": {"addr:city": "Kadawatha", "addr:street": "Kadawatha-Mawaramandiya Road", "name": "Hotel Everest", "tourism": "hotel"}}, {"type": "node", "id": 5609024621, "lat": 6.8947143, "lon": 79.8591546, "tags": {"name:en": "canes", "tourism": "hotel"}}, {"type": "node", "id": 5763118522, "lat": 6.8458679, "lon": 79.9299842, "tags": {"addr:city": "Maharagama", "addr:street": "Railway Avenue", "internet_access": "yes", "name": "Hotel Ariyana Reach", "operator": "DAD", "smoking": "outside", "tourism": "hotel"}}, {"type": "node", "id": 5828537586, "lat": 6.8859842, "lon": 79.8693656, "tags": {"name:en": "Havelock City Hostel (Right Position)", "tourism": "hotel"}}, {"type": "node", "id": 5841840958, "lat": 6.9406438, "lon": 80.134087, "tags": {"name": "Lavanro Reception Hall", "tourism": "hotel"}}, {"type": "node", "id": 5930231985, "lat": 6.914205, "lon": 79.8705285, "tags": {"name:zh": "\u65af\u5361\u516c\u53f8\u9910\u5385\u5ba2\u623f", "tourism": "guest_house"}}, {"type": "node", "id": 5972767885, "lat": 6.926099, "lon": 79.8735632, "tags": {"addr:housenumber": "1/7", "addr:postcode": "01000", "addr:street": "Elias Place", "email": "stepshostel@gmail.com", "internet_access": "wlan", "name:en": "Steps Backpackers Hostel", "name:fr": "Steps Backpackers Hostel", "phone": "+94768577006", "tourism": "hotel"}}, {"type": "node", "id": 6166073984, "lat": 6.8953274, "lon": 79.8604393, "tags": {"name": "Solid Hotel", "tourism": "hotel"}}, {"type": "node", "id": 6190193885, "lat": 6.9211524, "lon": 79.8542916, "tags": {"internet_access": "wlan", "name:en": "City Hotel Colombo 2", "tourism": "hotel"}}, {"type": "node", "id": 6227544653, "lat": 6.9070778, "lon": 79.850973, "tags": {"check_date": "2024-08-09", "name": "The Capsule Hotel", "tourism": "hotel"}}, {"type": "node", "id": 6233740485, "lat": 6.9125087, "lon": 79.8494923, "tags": {"name": "Wonder", "tourism": "hotel"}}, {"type": "node", "id": 6258667098, "lat": 6.8964141, "lon": 79.8589762, "tags": {"addr:city": "Colombo", "addr:housenumber": "160/2", "addr:postcode": "00400", "addr:street": "Bauddhaloka Mawatha", "name": "Moss Colombo", "tourism": "hotel"}}, {"type": "node", "id": 6324477866, "lat": 6.8916633, "lon": 79.9227338, "tags": {"name": "Blue Moon", "tourism": "hotel"}}, {"type": "node", "id": 6330034827, "lat": 6.892699, "lon": 79.9249583, "tags": {"addr:housenumber": "35", "addr:street": "Rohina Mawatha", "name": "Fantasia Inn", "tourism": "guest_house"}}, {"type": "node", "id": 6342731298, "lat": 6.9505126, "lon": 80.0433298, "tags": {"name": "Hotel Janro", "tourism": "hotel"}}, {"type": "node", "id": 6354049885, "lat": 6.8541151, "lon": 80.0782988, "tags": {"name": "Serene Bridge Resort", "tourism": "hotel"}}, {"type": "node", "id": 6390215022, "lat": 6.8999171, "lon": 79.8514974, "tags": {"addr:housenumber": "590", "addr:street": "Marine Drive", "air_conditioning": "yes", "bar": "yes", "check_date": "2024-04-12", "email": "info@marinobeach.com", "internet_access": "wlan", "internet_access:fee": "customers", "name": "Marino Beach Colombo", "opening_hours": "24/7", "payment:cash": "yes", "payment:credit_cards": "yes", "payment:debit_cards": "yes", "phone": "+94 112 375 375", "reservation": "yes", "stars": "4", "tourism": "hotel", "website": "https://www.marinobeach.com/", "wheelchair": "yes"}}, {"type": "node", "id": 6396993790, "lat": 6.801289, "lon": 79.9169469, "tags": {"tourism": "hotel"}}, {"type": "node", "id": 6398250285, "lat": 6.8910195, "lon": 79.8685958, "tags": {"addr:street": "Fife Road", "name:en": "Cockpit Hotel", "tourism": "hotel"}}, {"type": "node", "id": 6411967086, "lat": 6.8944848, "lon": 79.8592871, "tags": {"addr:housenumber": "5/3", "addr:street": "Police Park Terrace", "tourism": "guest_house"}}, {"type": "node", "id": 6412000086, "lat": 6.9150281, "lon": 79.8674739, "tags": {"addr:housenumber": "43/3", "addr:street": "Rosmead Place", "tourism": "guest_house"}}, {"type": "node", "id": 6615719532, "lat": 6.9608655, "lon": 79.8619865, "tags": {"addr:city": "Colombo", "addr:street": "St Andrews Road", "name": "Rock House Hotel", "tourism": "hotel"}}, {"type": "node", "id": 6615719533, "lat": 6.9606086, "lon": 79.8619495, "tags": {"addr:city": "Colombo", "addr:street": "Hill House Gardens", "guest_house": "guest_house", "name": "Colombo Dockyard Guest House", "tourism": "guest_house"}}, {"type": "node", "id": 6615719549, "lat": 6.9643398, "lon": 79.8650059, "tags": {"addr:city": "Colombo", "addr:housenumber": "165", "addr:street": "Mutuwella Mawatha", "guest_house": "3_star_hotel", "name": "Sunset View Villa", "tourism": "guest_house"}}, {"type": "node", "id": 6615789524, "lat": 6.8038409, "lon": 79.905069, "tags": {"name": "Ayurveda Spring of Life", "tourism": "hotel"}}, {"type": "node", "id": 6626945363, "lat": 6.9026321, "lon": 79.9054199, "tags": {"addr:city": "Jayawardenapura Kotte", "addr:housenumber": "879", "addr:street": "Sri Jayawardenapura Mawatha", "name": "New Plous Hotel", "tourism": "hotel"}}, {"type": "node", "id": 6626986789, "lat": 6.8978695, "lon": 79.9047753, "tags": {"addr:city": "Sri Jayawardenepura Kotte", "addr:housenumber": "35", "addr:street": "Diyawanna Road", "guest_house": "house", "name": "Sri Lanka Family Stay", "tourism": "guest_house"}}, {"type": "node", "id": 6630965176, "lat": 6.8885134, "lon": 79.900008, "tags": {"addr:city": "Sri Jayawardenepura Kotte", "addr:street": "Epitamulla Road", "brand": "Budget Hotel", "name": "Relax Inn", "tourism": "hotel"}}, {"type": "node", "id": 6743276282, "lat": 6.9177348, "lon": 80.0068917, "tags": {"name": "Sanctuary Lodge", "tourism": "guest_house"}}, {"type": "node", "id": 6813572765, "lat": 6.8826002, "lon": 79.8982613, "tags": {"name": "White Lotus", "opening_hours": "24/7", "phone": "+94 11 2852483", "tourism": "hotel"}}, {"type": "node", "id": 6874678534, "lat": 6.9109974, "lon": 79.8705671, "tags": {"name": "Srilax", "tourism": "guest_house"}}, {"type": "node", "id": 7040324469, "lat": 6.9154151, "lon": 79.8695817, "tags": {"addr:city": "Colombo 7", "addr:housenumber": "11", "addr:street": "Wijerama Mawatha", "name": "Black Cat B&B", "phone": "+94 11 2675111", "tourism": "guest_house", "website": "https://www.blackcatcolombo.com/"}}, {"type": "node", "id": 7053611968, "lat": 6.876219, "lon": 79.9311038, "tags": {"name": "Hotel Sahansa", "tourism": "guest_house"}}, {"type": "node", "id": 7133159644, "lat": 6.8384893, "lon": 79.8642237, "tags": {"addr:housenumber": "15", "addr:street": "College Avenue", "name": "The Regent Hotel", "phone": "+94 11 2729595", "tourism": "hotel"}}, {"type": "node", "id": 7133247886, "lat": 6.8386864, "lon": 79.8641841, "tags": {"name": "Cottage Garden Bungalows", "tourism": "guest_house"}}, {"type": "node", "id": 7153889889, "lat": 6.8814052, "lon": 79.9299434, "tags": {"addr:housenumber": "41/15M", "addr:street": "Nagahamulla Road", "name": "OYO One Way High Tension", "phone": "+94 72 5190318", "tourism": "guest_house", "wheelchair": "no"}}, {"type": "node", "id": 7221637785, "lat": 6.9162894, "lon": 79.8523819, "tags": {"addr:city": "Colombo", "addr:housenumber": "63/3", "addr:postcode": "00300", "addr:street": "Hudson Road", "internet_access": "wlan", "name": "Beira house", "tourism": "guest_house"}}, {"type": "node", "id": 8018281187, "lat": 6.8092398, "lon": 80.1793104, "tags": {"email": "villuwaresort@gmail.com", "name": "Villuwa Resort", "tourism": "guest_house", "website": "http://www.villuwaresort.com/"}}, {"type": "node", "id": 8292429533, "lat": 7.0708817, "lon": 80.0930517, "tags": {"name": "Ruwan Hotel", "tourism": "hotel"}}, {"type": "node", "id": 8588656122, "lat": 6.9253013, "lon": 79.8453837, "tags": {"addr:city": "Colombo", "addr:housenumber": "21", "addr:street": "Galle Road", "air_conditioning": "yes", "bar": "yes", "check_date": "2025-01-15", "internet_access": "wlan", "internet_access:fee": "customers", "name": "ITC Ratnadipa Colombo", "payment:cash": "yes", "payment:credit_cards": "yes", "payment:debit_cards": "yes", "reservation": "yes", "stars": "5", "tourism": "hotel", "wheelchair": "yes", "wikidata": "Q124632531", "wikipedia": "en:ITC Ratnadipa"}}, {"type": "node", "id": 8602509512, "lat": 6.8768015, "lon": 79.8611696, "tags": {"addr:city": "Wellawatte", "addr:housenumber": "1", "addr:street": "2nd Chapel Lane", "internet_access": "wlan", "name": "Chapelton House", "smoking": "no", "tourism": "hotel"}}, {"type": "node", "id": 8763590454, "lat": 6.9155255, "lon": 79.8667955, "tags": {"addr:street": "Rosmead Place", "name": "Rosmead Place Boutique Hotel", "phone": "+94 70 3789789", "tourism": "hotel", "website": "https://rosmeadplacecolombo7.com/"}}, {"type": "node", "id": 8867643477, "lat": 6.8935256, "lon": 79.9256697, "tags": {"addr:housenumber": "816", "addr:street": "Pannipitiya Road", "name": "New Wasantha Hotel", "phone": "+94 71 7678802", "restaurant": "yes", "tourism": "guest_house"}}, {"type": "node", "id": 9176331880, "lat": 6.8968988, "lon": 79.8559348, "tags": {"name": "British Hostel", "tourism": "guest_house"}}, {"type": "node", "id": 9391522644, "lat": 6.9121909, "lon": 79.8552029, "tags": {"addr:housenumber": "59", "addr:street": "Ananda Coomaraswamy Mawatha", "check_date": "2024-08-08", "name": "Cinnamon Red", "phone": "+94112145145", "tourism": "hotel", "website": "https://www.cinnamonhotels.com/cinnamonredcolombo"}}, {"type": "node", "id": 9505142017, "lat": 6.8687829, "lon": 79.8768743, "tags": {"tourism": "guest_house"}}, {"type": "node", "id": 9577998817, "lat": 6.9354352, "lon": 79.8445066, "tags": {"check_date": "2024-12-25", "name": "C1 Colombo Fort Hotel", "tourism": "hotel"}}, {"type": "node", "id": 9771036187, "lat": 6.9222736, "lon": 79.8931066, "tags": {"name": "Girls' Hostel", "operator": "Institute of Indigenous Medicine, University of Colombo Rajagiriya", "tourism": "guest_house"}}, {"type": "node", "id": 9771059944, "lat": 6.8899576, "lon": 79.9234041, "tags": {"name": "Male/Female Hostel", "operator": "Folk Art Center", "tourism": "guest_house"}}, {"type": "node", "id": 10034890210, "lat": 6.8650809, "lon": 79.8605763, "tags": {"addr:housenumber": "53", "addr:street": "Ramakrishna Road", "air_conditioning": "yes", "check_date": "2023-10-08", "internet_access": "wlan", "internet_access:fee": "no", "name": "Hotel Nelly marine", "opening_hours": "24/7", "payment:mastercard": "yes", "payment:visa": "yes", "phone": "+94 112 500 707", "smoking": "no", "stars": "3", "tourism": "hotel"}}, {"type": "node", "id": 10274783711, "lat": 6.9137319, "lon": 79.8544602, "tags": {"addr:housenumber": "08", "addr:postcode": "00300", "addr:street": "Boyd Place", "internet_access": "wlan", "name:en": "Lavonca Boutique Hotel", "opening_hours": "24/7", "phone": "+94 77 719 1560", "tourism": "guest_house", "website": "https://www.lavonca.com/"}}, {"type": "node", "id": 10313089651, "lat": 6.8957775, "lon": 79.85257, "tags": {"addr:housenumber": "31", "addr:street": "St.Kildas Lane", "air_conditioning": "yes", "check_date": "2024-02-25", "email": "sales@maradha.lk", "internet_access:fee": "customers", "name": "Hotel MaRadha Colombo", "opening_hours": "24/7", "payment:cash": "yes", "payment:credit_cards": "yes", "payment:debit_cards": "yes", "phone": "+94 112 550 136", "reservation": "yes", "tourism": "hotel", "website": "https://maradha.lk/", "wheelchair": "yes"}}, {"type": "node", "id": 10623286464, "lat": 6.9223793, "lon": 79.8539816, "tags": {"name": "Thilhara Days Inn", "tourism": "hotel"}}, {"type": "node", "id": 10687660205, "lat": 6.9386821, "lon": 79.8594962, "tags": {"addr:housenumber": "78", "addr:postcode": "01200", "addr:street": "Peer Saibo Street", "name:en": "Opulence Colombo", "tourism": "hotel"}}, {"type": "node", "id": 11340927456, "lat": 6.9214567, "lon": 79.8759245, "tags": {"addr:housenumber": "133", "addr:street": "Ananda Rajakaruna Road", "check_date": "2023-11-11", "name": "Green Lodge", "tourism": "guest_house"}}, {"type": "node", "id": 11346033782, "lat": 6.8402424, "lon": 79.8635019, "tags": {"name": "Mount Bay Guest House", "tourism": "guest_house"}}, {"type": "node", "id": 11473330085, "lat": 6.8895692, "lon": 79.8672183, "tags": {"name": "Greenscape Colombo", "tourism": "guest_house"}}, {"type": "node", "id": 11700861873, "lat": 7.0668832, "lon": 80.0125143, "tags": {"check_date": "2024-03-07", "internet_access": "no", "name": "RENUKA Hotel", "payment:cards": "no", "payment:cash": "yes", "payment:credit_cards": "no", "payment:debit_cards": "no", "tourism": "hotel", "wheelchair": "no"}}, {"type": "node", "id": 11704123561, "lat": 6.8350923, "lon": 79.8850872, "tags": {"check_date": "2024-03-08", "internet_access": "no", "name": "Solid Hotel", "name:si": "Solid Hotel", "name:ta": "Solid Hotel", "payment:cash": "yes", "payment:credit_cards": "yes", "payment:debit_cards": "yes", "phone": "+94 112 720 999", "tourism": "hotel", "wheelchair": "yes"}}, {"type": "node", "id": 11704123564, "lat": 6.8330199, "lon": 79.8854579, "tags": {"check_date": "2024-03-08", "internet_access": "no", "name": "NKsea Food", "name:si": "NKsea Food", "name:ta": "NKsea Food", "payment:cash": "yes", "payment:credit_cards": "yes", "payment:debit_cards": "yes", "tourism": "hotel", "wheelchair": "yes"}}, {"type": "node", "id": 11794949261, "lat": 6.8205495, "lon": 79.9693289, "tags": {"name": "Sajee Hotel", "tourism": "hotel"}}, {"type": "node", "id": 11842927175, "lat": 6.8501862, "lon": 79.8653289, "tags": {"addr:housenumber": "5", "addr:street": "Galle Road", "name:en": "masara hotel", "tourism": "hotel"}}, {"type": "node", "id": 12002014237, "lat": 6.8502996, "lon": 79.8661159, "tags": {"check_date": "2024-06-23", "name": "New Pillows Hotel", "tourism": "hotel"}}, {"type": "node", "id": 12122569149, "lat": 6.8961474, "lon": 79.8544085, "tags": {"check_date": "2024-08-20", "internet_access": "wlan", "internet_access:fee": "customers", "name": "Taprobane House", "payment:cash": "yes", "payment:credit_cards": "yes", "payment:debit_cards": "yes", "tourism": "hotel", "website": "https://taprobanehouse.lk"}}, {"type": "node", "id": 12430482842, "lat": 6.9077573, "lon": 79.8509842, "tags": {"name": "Sofia Colombo City Hotel", "tourism": "hotel"}}, {"type": "node", "id": 12597876904, "lat": 6.8987441, "lon": 79.921284, "tags": {"air_conditioning": "yes", "beds": "8", "guest_house": "bed_and_breakfast", "internet_access": "wlan", "internet_access:fee": "no", "name": "Serene Manor", "rooms": "4", "smoking": "outside", "tourism": "guest_house", "wheelchair": "no"}}, {"type": "node", "id": 12647949401, "lat": 6.9319502, "lon": 79.8462974, "tags": {"name": "Regent Residencies -Colombo", "tourism": "hotel"}}, {"type": "node", "id": 12672702032, "lat": 6.8970574, "lon": 79.8574212, "tags": {"addr:city": "Colombo", "addr:housenumber": "54-A", "addr:neighbourhood": "Kollupi\u1e6diya", "addr:postcode": "00300", "addr:province": "Western Province", "addr:street": "School Lane", "email": "memorylane.srilanka@gmail.com", "facebook": "memorylanecolombo", "guest_house": "bed_and_breakfast", "internet_access": "wlan", "internet_access:fee": "customers", "name": "Memory Lane", "operator:email": "yvonne@gallopint.com", "operator:phone": "+85293280934;+85296749828", "phone": "+94765434570", "rooms": "8", "tourism": "guest_house", "website": "https://book-directonline.com/properties/memorylane/contact"}}, {"type": "node", "id": 12880878403, "lat": 6.8539535, "lon": 80.0890573, "tags": {"name": "Nilaro", "tourism": "guest_house"}}, {"type": "node", "id": 12880880869, "lat": 6.8586333, "lon": 80.0907123, "tags": {"name": "Kingland", "tourism": "hotel"}}, {"type": "node", "id": 13009018446, "lat": 6.9091317, "lon": 79.8666987, "tags": {"addr:city": "Colombo 07", "addr:housenumber": "4/3", "addr:postcode": "00700", "addr:street": "Gregory's Road", "air_conditioning": "yes", "bar": "no", "drinking_water": "yes", "drinking_water:refill:self_service": "yes", "name": "Heritage Villa Colombo", "smoking": "outside", "swimming_pool": "no", "tourism": "guest_house", "wheelchair": "limited"}}, {"type": "node", "id": 13059955896, "lat": 6.9578943, "lon": 79.895636, "tags": {"addr:city": "Kelaniya", "addr:housenumber": "241", "addr:postcode": "11600", "addr:street": "Biyagama Road", "guest_house": "apartment", "name": "Paramount Residence 5", "tourism": "guest_house"}}, {"type": "node", "id": 13060778510, "lat": 6.9138003, "lon": 79.85536, "tags": {"addr:city": "Colombo", "addr:housenumber": "18", "addr:postcode": "00300", "addr:street": "Boyd Place", "internet_access": "wlan", "name": "Lost & Found", "tourism": "guest_house", "website": "https://www.lostandfoundsrilanka.com/colombo"}}, {"type": "node", "id": 13093013501, "lat": 6.9176898, "lon": 79.8557649, "tags": {"addr:housenumber": "137", "addr:street": "Sir James Peiris Mawatha", "name:en": "Courtyard by Marriott Colombo", "tourism": "hotel"}}, {"type": "node", "id": 13105632225, "lat": 6.8444657, "lon": 79.8634833, "tags": {"name": "The Villa In Lavinia", "tourism": "hotel"}}, {"type": "node", "id": 13230127765, "lat": 6.9167137, "lon": 79.8708312, "tags": {"addr:city": "Colombo 07", "addr:housenumber": "61/6", "addr:street": "Ward Place", "name": "De Saram House", "tourism": "guest_house", "website": "https://geoffreybawa.com/de-saram-house"}}, {"type": "node", "id": 13378062901, "lat": 6.8691445, "lon": 79.8593891, "tags": {"addr:housenumber": "65", "addr:postcode": "00600", "addr:street": "International Buddhist Centre Road", "internet_access": "wlan", "name": "Suraya House", "phone": "+94 76 625 1145", "self_service": "no", "tourism": "hotel", "website": "https://www.sayurahouse.com"}}, {"type": "node", "id": 13481803140, "lat": 6.8893976, "lon": 79.9442906, "tags": {"brand": "Residence Inn", "brand:wikidata": "Q7315394", "description": "Uncle Subey", "name": "Uncle Subey", "official_name": "Residence Inn by Marriott", "tourism": "hotel"}}, {"type": "node", "id": 13482048922, "lat": 6.8728639, "lon": 79.9878429, "tags": {"addr:city": "Athurugiriya", "addr:postcode": "10150", "addr:street": "Jayanthi Road", "guest_house": "condominium_complex", "name": "Main Office - Greendale Retirement Leisure Village by Home Lands Skyline", "phone": "0706004447", "tourism": "guest_house", "website": "https://www.homelandsskyline.lk/", "wheelchair": "yes"}}, {"type": "node", "id": 13482399168, "lat": 6.8832039, "lon": 79.8680161, "tags": {"brand": "Residence Inn", "brand:wikidata": "Q7315394", "name": "JXG @ MIREKA", "official_name": "Residence Inn by Marriott", "tourism": "hotel"}}, {"type": "node", "id": 13727116201, "lat": 6.9327253, "lon": 79.8699193, "tags": {"addr:postcode": "01000", "addr:street": "Parisara Mawatha", "internet_access": "wlan", "name": "Pradeepa Hall", "opening_hours": "24/7", "tourism": "hotel"}}, {"type": "way", "id": 105734020, "center": {"lat": 6.9206639, "lon": 79.8562983}, "nodes": [10823477957, 1217563146, 1217563149, 1217563152, 13640196854, 1217563121, 10823477956, 10823477957], "tags": {"addr:city": "Colombo", "addr:housenumber": "200", "addr:postcode": "00200", "addr:street": "Union Place", "brand": "Hilton", "brand:wikidata": "Q598884", "building": "yes", "building:levels": "3", "contact:facebook": "https://www.facebook.com/hiltoncr", "contact:instagram": "https://www.instagram.com/hilton_cr", "contact:pinterest": "https://www.pinterest.com/hcrlk", "contact:twitter": "https://twitter.com/hilton_col_resi", "email": "ColomboResidence_Info@hilton.com", "fax": "+94 11 5344648", "height": "15", "image": "https://photos.app.goo.gl/CHgUodtGzj3KxoHbA", "internet_access": "yes", "name": "Hilton Colombo Residences", "operator": "Hilton Inc.", "phone": "+94 11 5344644", "rooms": "177", "smoking": "yes", "stars": "5", "start_date": "1997", "tourism": "hotel", "website": "https://www.hilton.com/en/hotels/coljttw-hilton-colombo-residences/", "wheelchair": "yes", "wikidata": "Q30174421", "wikipedia": "en:Hilton Colombo Residences"}}, {"type": "way", "id": 196803230, "center": {"lat": 6.9321682, "lon": 79.8449265}, "nodes": [2071010740, 2071010725, 2694213914, 2071010745, 2071010729, 2071010747, 2071010742, 2071010732, 2071010735, 2071010730, 2071010744, 2071010739, 2071010727, 2071010737, 2071010734, 2071010740], "tags": {"addr:city": "Colombo", "addr:housenumber": "2", "addr:postcode": "00200", "addr:street": "Sir Chittampalam A Gardiner Mawatha", "air_conditioning": "yes", "brand": "Hilton", "brand:wikidata": "Q598884", "building": "yes", "contact:facebook": "https://www.facebook.com/HiltonColombo", "contact:instagram": "https://instagram.com/hiltoncolombo", "contact:twitter": "https://twitter.com/ColomboHilton", "email": "colombo.reservations@hilton.com", "fax": "+94-11-254-4657", "internet_access": "wlan", "internet_access:fee": "yes", "name": "Hilton Colombo", "operator": "Hilton", "pets": "no", "phone": "+94-11-2 492 492", "rooms": "332", "smoking": "yes", "stars": "5", "swimming_pool": "outdoor", "tourism": "hotel", "website": "https://www.hilton.com/en/hotels/colhitw-hilton-colombo/?WT.mc_id=zELWAKN0APAC1HI2DMH3LocalSearch4DGGenericx6COLHITW", "wheelchair": "yes", "wikidata": "Q64859000"}}, {"type": "way", "id": 221342994, "center": {"lat": 6.8334169, "lon": 79.8618975}, "nodes": [2303730654, 2303730658, 2303730664, 2303730666, 2303730668, 2303730670, 2303730672, 2303730678, 2303730680, 2303730682, 2303730684, 2303730686, 2303730688, 2303730692, 2303730696, 2303730698, 2303730700, 2303730702, 2303730704, 2303730706, 2303730714, 2303730716, 2303730718, 2303730720, 2303730721, 2303730723, 2303730724, 2303730726, 2303730727, 2303730730, 2303730731, 2303730732, 2303730734, 2303730735, 2303730736, 2303730738, 2303730739, 2303730743, 2303730745, 2303730747, 2303730749, 2303730654], "tags": {"addr:city": "Mount Lavinia", "addr:housenumber": "100", "addr:street": "Hotel Road", "building": "yes", "internet_access": "yes", "is_in": "Mount Lavinia, Colombo, Western Province, Sri Lanka", "name": "Mount Lavinia Hotel", "phone": "+94 11 2711711", "smoking": "separated", "stars": "5", "toilets:wheelchair": "yes", "tourism": "hotel", "website": "https://www.mountlaviniahotel.com/", "wheelchair": "limited", "wikipedia": "si:\u0d9c\u0dbd\u0dca\u0d9a\u0dd2\u0dc3\u0dca\u0dc3 \u0db8\u0dc4 \u0dc4\u0ddd\u0da7\u0dbd\u0dba"}}, {"type": "way", "id": 262528224, "center": {"lat": 6.937363, "lon": 79.8449394}, "nodes": [2681929093, 11438744470, 11438744471, 2681929084, 2681929074, 2681929076, 2681929080, 2681929082, 2681929093], "tags": {"building": "yes", "check_date": "2024-12-25", "name": "Grand Oriental Hotel", "tourism": "hotel", "wikidata": "Q28401591", "wikimedia_commons": "Category:Grand Oriental Hotel", "wikipedia": "en:Grand Oriental Hotel"}}, {"type": "way", "id": 263768173, "center": {"lat": 6.9316905, "lon": 79.8431359}, "nodes": [2918168766, 2694213909, 2694213906, 2918168762, 2918168766], "tags": {"addr:city": "Colombo 01", "addr:housenumber": "64", "addr:postcode": "00100", "addr:street": "Lotus Road", "air_conditioning": "yes", "bar": "yes", "building": "yes", "building:levels": "16", "building:material": "traditional", "building:obm": "263768173", "check_date": "2024-04-12", "height": "48", "name": "Galadari Hotel", "opening_hours": "24/7", "payment:american_express": "yes", "payment:cards": "yes", "payment:cash": "yes", "payment:credit_cards": "yes", "payment:debit_cards": "yes", "payment:mastercard": "yes", "payment:visa": "yes", "payment:visa_debit": "yes", "phone": "+94 11 2 544544", "reservation": "yes", "roof:colour": "#333333", "roof:material": "asbestos", "roof:shape": "flat", "smoking": "separated", "start_date": "1984", "tourism": "hotel", "website": "https://www.galadarihotel.lk/", "wheelchair": "yes"}}, {"type": "way", "id": 300950810, "center": {"lat": 6.9181716, "lon": 79.848783}, "nodes": [2334120339, 2334120377, 2334120410, 2334120369, 2334120378, 2334120351, 2334120359, 2334120360, 2334120324, 2334120346, 2334120390, 2334120385, 2334120323, 2334120403, 2334120364, 2334120392, 2334120363, 2334120370, 2334120388, 3050578444, 2334120357, 2334120339], "tags": {"addr:city": "Colombo", "addr:housenumber": "77", "addr:street": "Galle Road", "air_conditioning": "yes", "bar": "yes", "brand": "Cinnamon Hotels & Resorts", "building": "yes", "building:levels": "8", "building:obm": "300950810", "check_date": "2022-11-29", "height": "30", "internet_access": "yes", "internet_access:fee": "no", "name": "Cinnamon Grand Colombo", "old_name": "Hotel Lanka Oberoi", "opening_hours": "24/7", "operator": "John Keells Holdings", "payment:cash": "yes", "payment:credit_cards": "yes", "payment:debit_cards": "yes", "phone": "+94 112 437 437", "reservation": "yes", "rooms": "475", "start_date": "1975", "tourism": "hotel", "website": "https://www.cinnamonhotels.com/cinnamongrandcolombo", "wheelchair": "yes", "wikidata": "Q63247983", "wikimedia_commons": "Category:Cinnamon Grand Hotel", "wikipedia": "en:Cinnamon Grand Colombo"}}, {"type": "way", "id": 327732960, "center": {"lat": 6.9341735, "lon": 79.8431183}, "nodes": [3781732839, 4009314250, 3345469447, 3951532216, 3951532217, 5142919269, 5142919268, 3781732838, 3781732839], "tags": {"building": "yes", "building:levels": "10", "image": "https://photos.app.goo.gl/JQEcV6DDSQhr5Vhn9", "name": "The Steuart", "operator": "Citrus", "tourism": "hotel", "website": "https://www.citrusleisure.com/thesteuart/"}}, {"type": "way", "id": 332366451, "center": {"lat": 7.0644201, "lon": 79.9648214}, "nodes": [3394816973, 3394816975, 4134864230, 3394816974, 3394816966, 4134864229, 3394816965, 3394816963, 3394816973], "tags": {"building": "hotel", "building:age": "10_to_30", "building:foundation_height": "less_than_1", "building:levels": "1", "building:material": "plaster", "name": "Tharupathi Wedding Hall", "roof:material": "asbestos", "roof:shape": "many", "tourism": "hotel"}}, {"type": "way", "id": 332497902, "center": {"lat": 7.0806361, "lon": 79.9710144}, "nodes": [3396425999, 3396424183, 3396424184, 3396425993, 3396424192, 3396425995, 3396425997, 3396426007, 3396426006, 3396425999], "tags": {"building": "hotel", "building:age": "10_to_30", "building:foundation_height": "1_to_1.5", "building:levels": "1", "building:material": "plaster", "name": "Habitat Hotel", "roof:material": "asbestos", "roof:shape": "gabled", "tourism": "hotel"}}, {"type": "way", "id": 332506653, "center": {"lat": 7.0996715, "lon": 79.9780266}, "nodes": [3897627830, 3897627825, 3396507593, 3396507492, 3396507489, 3396507600, 3396507599, 3396507615, 3396507621, 3897627836, 3897627837, 3897627835, 3897627833, 3897627829, 3897627830], "tags": {"building": "hotel", "building:age": "10_to_20", "building:foundation_height": "1_to_1.5", "building:levels": "1", "building:material": "plaster", "roof:material": "asbestos", "roof:shape": "hipped", "tourism": "hotel"}}, {"type": "way", "id": 332506656, "center": {"lat": 7.0996662, "lon": 79.9777978}, "nodes": [3396507604, 3396507605, 3396507596, 3396507595, 3396507491, 3396507490, 3396507598, 3396507597, 3396507606, 3396507607, 3396507609, 3396507611, 3396507619, 3396507620, 3396507608, 3396507612, 3396507604], "tags": {"building": "hotel", "building:age": "10_to_20", "building:foundation_height": "1_to_1.5", "building:levels": "1", "building:material": "plaster", "roof:material": "asbestos", "roof:shape": "hipped", "tourism": "hotel"}}, {"type": "way", "id": 332506688, "center": {"lat": 7.0997408, "lon": 79.9774092}, "nodes": [3396507613, 3396507627, 3396507610, 3396507601, 3396507613], "tags": {"building": "hotel", "building:age": "10_to_20", "building:foundation_height": "1_to_1.5", "building:levels": "1", "building:material": "plaster", "name": "Babidool Guest House", "roof:material": "asbestos", "roof:shape": "gabled", "tourism": "guest_house"}}, {"type": "way", "id": 341944267, "center": {"lat": 6.9225931, "lon": 79.8466816}, "nodes": [3490013623, 3490013624, 3490013635, 3490013639, 3490013625, 3490013626, 5341430794, 5341430795, 5341430796, 3490013627, 3490013628, 5341430801, 3490013629, 3490013630, 3490013637, 3490013631, 3490013632, 3490013633, 3490013634, 5341430803, 9470509039, 9470509036, 9470509035, 3490013623], "tags": {"addr:city": "Colombo", "addr:housenumber": "25", "addr:street": "Galle Road", "air_conditioning": "yes", "bar": "yes", "brand": "Taj", "brand:wikidata": "Q1521893", "building": "hotel", "building:levels": "10", "building:obm": "341944267", "check_date": "2024-04-12", "email": "reservations.samudra@tajhotels.com", "height": "50", "internet_access": "wlan", "internet_access:fee": "customers", "name": "Taj Samudra Hotel", "official_name": "Taj Hotels", "opening_hours": "24/7", "payment:cash": "yes", "payment:credit_cards": "yes", "payment:debit_cards": "yes", "phone": "+94 112 446 622", "reservation": "yes", "start_date": "1984", "tourism": "hotel", "website": "https://www.tajhotels.com/en-in/taj/taj-samudra-colombo/", "wheelchair": "yes"}}, {"type": "way", "id": 344257327, "center": {"lat": 6.91881, "lon": 79.9744946}, "nodes": [3509965815, 3509965816, 3509965814, 3509965813, 3509965815], "tags": {"name": "Menaka Hotel", "smoking": "yes", "tourism": "hotel", "wheelchair": "no"}}, {"type": "way", "id": 351688794, "center": {"lat": 7.0917498, "lon": 79.9612414}, "nodes": [3575074238, 3575074249, 3575074248, 3575074237, 3575074236, 3575074203, 3575074204, 3575074239, 3575074238], "tags": {"building": "commercial", "building:foundation_height": "1 to 1.5", "building:levels": "1", "building:material": "plaster", "name": "Rusiru Hotel", "roof:material": "tile", "roof:shape": "many", "tourism": "hotel"}}, {"type": "way", "id": 357704747, "center": {"lat": 6.8677618, "lon": 79.8624401}, "nodes": [3628707302, 3628707303, 3628707304, 3628707305, 3628707302], "tags": {"addr:city": "Wellawatte - Colombo 06", "addr:housenumber": "382", "addr:street": "Galle - Colombo Road", "air_conditioning": "yes", "bar": "yes", "branch": "Colombo", "brand": "Great Southern Hotel", "building": "yes", "building:levels": "7", "check_date": "2023-10-08", "email": "reservations@gshcolombo.com", "fax": "+9411-2362411", "internet_access": "wlan", "internet_access:fee": "no", "name": "Great Southern Hotel", "opening_hours": "24/7", "payment:credit_cards": "yes", "payment:debit_cards": "yes", "phone": "+94112362402", "reservation": "yes", "smoking": "no", "stars": "3", "tourism": "hotel", "website": "https://greatsouthernhotel.com.au/great-southern-hotel-colombo/", "wheelchair": "limited"}}, {"type": "way", "id": 359993780, "center": {"lat": 6.9115163, "lon": 79.8508457}, "nodes": [3645945498, 3645945499, 3645945497, 3645945496, 3645945498], "tags": {"addr:city": "Colombo 03", "addr:housenumber": "24", "addr:street": "Srimath Anagarika Dharmapala Mawatha", "brand": "M\u00f6venpick", "brand:wikidata": "Q691162", "building": "hotel", "building:levels": "25", "name": "M\u00f6venpick Hotel Colombo", "start_date": "2016", "tourism": "hotel"}}, {"type": "way", "id": 359993782, "center": {"lat": 6.9103829, "lon": 79.8504246}, "nodes": [3645945493, 3645945495, 3645945494, 3645944792, 3645945493], "tags": {"brand": "Sheraton", "brand:wikidata": "Q634831", "building": "yes", "building:levels": "21", "name": "Sheraton Colombo Hotel", "start_date": "2022", "tourism": "hotel"}}, {"type": "way", "id": 376230842, "center": {"lat": 7.0943556, "lon": 80.0003334}, "nodes": [3796754510, 3796754515, 3796754502, 3796754496, 3796754498, 3796754489, 3796754497, 3796754507, 3796754510], "tags": {"building": "hotel", "building:foundation_height": "2", "building:levels": "2", "building:material": "plaster", "name": "Verona Hotel", "roof:material": "tile", "roof:shape": "hipped", "tourism": "hotel"}}, {"type": "way", "id": 376359985, "center": {"lat": 7.094288, "lon": 79.994802}, "nodes": [3797976605, 3797976592, 3797976589, 4074751631, 3797976573, 3797976578, 4074751628, 3797976591, 3797976593, 3797976596, 3797976605], "tags": {"building": "residential", "building:foundation_height": "1_to_1.5", "building:levels": "1", "building:material": "plaster", "name": "Rest House", "operator": "government", "roof:material": "tile", "roof:shape": "gabled", "tourism": "hotel"}}, {"type": "way", "id": 376363190, "center": {"lat": 7.0946119, "lon": 79.992913}, "nodes": [3798006636, 3798006643, 3798006649, 3798006648, 3798006647, 3798006645, 3798006644, 3798006641, 3798006638, 3798006639, 3798006636], "tags": {"building": "hotel", "building:foundation_height": "1_to_1.5", "building:levels": "1", "building:material": "plaster", "roof:material": "concrete", "roof:shape": "lean_to", "tourism": "hotel"}}, {"type": "way", "id": 376363204, "center": {"lat": 7.0948098, "lon": 79.9925354}, "nodes": [3798006651, 3798006652, 3798006650, 3798006646, 3798006651], "tags": {"building": "hotel", "building:foundation_height": "1_to_1.5", "building:levels": "2", "building:material": "plaster", "roof:material": "concrete", "roof:shape": "lean_to", "tourism": "hotel"}}, {"type": "way", "id": 376363209, "center": {"lat": 7.0943064, "lon": 79.9927556}, "nodes": [3798006609, 3798006614, 3798006626, 3798006630, 3798006622, 3798006627, 3830418478, 3830418482, 3798006602, 8430977937, 8430977938, 3798006600, 3798006609], "tags": {"building": "residential", "building:foundation_height": "1_to_1.5", "building:levels": "2", "building:material": "plaster", "roof:material": "concrete", "roof:shape": "lean_to", "tourism": "hotel"}}, {"type": "way", "id": 376485224, "center": {"lat": 7.0948218, "lon": 79.9932472}, "nodes": [3798968674, 3798968680, 3798968672, 3798968666, 3798968674], "tags": {"building": "hotel", "building:foundation_height": "1_to_1.5", "building:levels": "3", "building:material": "plaster", "roof:material": "concrete", "roof:shape": "lean_to", "tourism": "hotel"}}, {"type": "way", "id": 376931301, "center": {"lat": 7.0961483, "lon": 79.9522975}, "nodes": [3806385297, 3806385295, 3806385296, 3806385298, 3803083172, 3803083174, 3803083173, 3803083171, 3806385297], "tags": {"building": "hotel", "building:foundation_height": "1 to 1.5", "building:levels": "3", "building:material": "plaster", "name": "Hotel Vintop", "roof:material": "zinc", "roof:shape": "gabled", "tourism": "hotel"}}, {"type": "way", "id": 377265183, "center": {"lat": 7.0964954, "lon": 79.9528347}, "nodes": [3806383945, 3806383937, 3806383941, 3806383947, 3806383945], "tags": {"building": "hotel", "building:foundation_height": "1 to 1.5", "building:levels": "1", "building:material": "plaster", "roof:material": "asbestos", "roof:shape": "gabled", "tourism": "hotel"}}, {"type": "way", "id": 378619673, "center": {"lat": 7.0909332, "lon": 79.8875525}, "nodes": [3820301286, 3820301289, 3820301265, 3820301262, 3820301286], "tags": {"building": "hotel", "building:age": "10_to_30", "building:foundation_height": "1_to_1.5", "building:levels": "4", "building:material": "plaster", "name": "Blue Gum Hotel", "roof:material": "asbestos", "roof:shape": "gabled", "tourism": "hotel"}}, {"type": "way", "id": 379310402, "center": {"lat": 7.0351531, "lon": 79.9914826}, "nodes": [3826078583, 3826078611, 4023188359, 2908541506, 2908541505, 2908541300, 2908541299, 2908541298, 2908541297, 2908541296, 2908541295, 4023188358, 3826078583], "tags": {"amenity": "restaurant", "building": "commercial", "building:foundation_height": "1.5 to 3", "building:levels": "2", "building:material": "plaster", "roof:material": "zinc", "roof:shape": "hipped", "tourism": "hotel"}}, {"type": "way", "id": 389383656, "center": {"lat": 6.9334836, "lon": 79.8441263}, "nodes": [3925536237, 3925536240, 3925536245, 3925536254, 3925536252, 3925536248, 3925536232, 3925536237], "tags": {"addr:city": "Colombo 01", "building": "yes", "check_date": "2024-12-25", "image": "https://photos.app.goo.gl/SCxU82eQDPXgE94z9", "name": "Colombo City Hotel", "tourism": "hotel"}}, {"type": "way", "id": 390797404, "center": {"lat": 7.0938331, "lon": 79.9555453}, "nodes": [3939309036, 3939309043, 3939309049, 3939309039, 3939309036], "tags": {"building": "hotel", "building:foundation_height": "1 to 1.5", "building:levels": "3", "building:material": "plaster", "roof:material": "asbestos", "roof:shape": "many", "tourism": "hotel"}}, {"type": "way", "id": 394250830, "center": {"lat": 6.9151515, "lon": 79.869985}, "nodes": [3972704421, 3972704422, 3972704427, 3972704431, 3972704433, 3972704453, 3972704424, 3972704423, 3972704452, 3972704442, 3972704421], "tags": {"addr:city": "Colombo 07", "addr:street": "Rosmead Place", "name": "Hotel Tintagel Colombo", "tourism": "hotel"}}, {"type": "way", "id": 395619959, "center": {"lat": 6.9157831, "lon": 79.8475625}, "nodes": [7577047254, 5217839109, 12470255761, 12470287823, 12470255751, 12470255789, 12470255785, 7577047260, 12470287885, 7577047254], "tags": {"air_conditioning": "yes", "brand": "Grand Hyatt", "brand:wikidata": "Q115794899", "building": "hotel", "building:levels": "10", "height": "35", "image": "https://photos.app.goo.gl/rKZJ72kqDU4z5trt9", "name": "Grand Hyatt Colombo", "stars": "5", "tourism": "hotel", "wikidata": "Q18019549", "wikimedia_commons": "Category:Grand Hyatt Colombo", "wikipedia": "si:\u0d9c\u0dca\u200d\u0dbb\u0dd1\u0db1\u0dca\u0da9\u0dca \u0dc4\u0dba\u0da7\u0dca \u0d9a\u0dbd\u0db8\u0dca\u0db6\u0dd4"}}, {"type": "way", "id": 398161959, "center": {"lat": 6.9341378, "lon": 79.8438924}, "nodes": [2330222141, 3925543318, 3925543333, 5385446921, 4009314251, 2330222141], "tags": {"addr:city": "Colombo", "addr:housenumber": "7", "addr:postcode": "00100", "addr:street": "Hospital Street", "air_conditioning": "yes", "bar": "yes", "building": "yes", "building:levels": "8", "check_date": "2024-04-12;2024-12-24", "contact:facebook": "https://www.facebook.com/FairwayColombo/", "description": "under construction 02/16", "email": "info@fairwaycolombo.com", "image": "https://photos.app.goo.gl/5g8FCvWBfTAJG2a89", "internet_access": "wlan", "internet_access:fee": "customers", "name": "Fairway Colombo", "opening_hours": "24/7", "payment:cash": "yes", "payment:credit_cards": "yes", "payment:debit_cards": "yes", "phone": "+94 112 153 153", "reservation": "yes", "stars": "4", "start_date": "2017", "tourism": "hotel", "website": "https://www.fairwaycolombo.com/", "wheelchair": "yes"}}, {"type": "way", "id": 411592816, "center": {"lat": 7.0596287, "lon": 80.0084791}, "nodes": [4132229900, 4132229898, 4132229895, 4132229892, 4132229891, 4132229889, 4132229890, 4132229893, 4132229894, 4132229896, 4132229897, 4132229899, 4132229901, 4132229900], "tags": {"name": "Pabavee reception hall", "tourism": "hotel"}}, {"type": "way", "id": 415700417, "center": {"lat": 7.0801744, "lon": 80.0079396}, "nodes": [4166863334, 4166863336, 4166863338, 4166863339, 4166863341, 4166863342, 4166863345, 4166863347, 4166863349, 4166863350, 4166863352, 4166863353, 4166863351, 4166863348, 4166863346, 4166863344, 4166863343, 4166863340, 4166863337, 4166863335, 4166863334], "tags": {"name": "Silver Ring Hotel", "tourism": "hotel"}}, {"type": "way", "id": 415814180, "center": {"lat": 6.9041765, "lon": 79.968405}, "nodes": [4167676177, 4167676179, 4167676169, 4167676167, 4167676171, 4167676177], "tags": {"building": "yes", "name": "Tanali inn", "tourism": "hotel"}}, {"type": "way", "id": 416637641, "center": {"lat": 7.0350848, "lon": 79.9916244}, "nodes": [4173835335, 4173835330, 4173835326, 4173835324, 4173835321, 4173835320, 4173835319, 4173835317, 4173835314, 4173835311, 4173835308, 4173835307, 4173835306, 4173835309, 4173835313, 4173835315, 4173835312, 4173835310, 4173835316, 4173835318, 4173835322, 4173835323, 4173835325, 4173835327, 4173835332, 4173835334, 4173835333, 4173835329, 4173835328, 4173835331, 4173835338, 4173835340, 4173835337, 4173835335], "tags": {"name": "Laknara Reception Hall", "tourism": "hotel"}}, {"type": "way", "id": 429272812, "center": {"lat": 7.0996242, "lon": 79.9783684}, "nodes": [4283931099, 4283931093, 4283931090, 4283931089, 4283931091, 4283931092, 4283931094, 4283931095, 4283931098, 4283931106, 4283931115, 4283931121, 4283931122, 4313864573, 4283931117, 4283931114, 4283931110, 4283931109, 4283931105, 4283931099], "tags": {"name": "Imalka Reception Hall", "tourism": "hotel"}}, {"type": "way", "id": 477192044, "center": {"lat": 6.8326346, "lon": 79.865855}, "nodes": [4705817057, 4705817058, 4705817059, 4705817060, 4705817057], "tags": {"building": "yes", "tourism": "guest_house"}}, {"type": "way", "id": 488332389, "center": {"lat": 6.9356545, "lon": 79.8437614}, "nodes": [4806451502, 4806451503, 4806451509, 4806451508, 4806451507, 4806451502], "tags": {"addr:housenumber": "1/15", "addr:street": "Mudalige Mawatha", "building": "yes", "name": "Star Anise", "tourism": "hotel"}}, {"type": "way", "id": 529610371, "center": {"lat": 6.9077455, "lon": 79.8597619}, "nodes": [5144485659, 5144485500, 5144485660, 5144485663, 5144485662, 5144485661, 5144485499, 5144485658, 5144485659], "tags": {"building": "hotel", "name": "Colombo Villa", "tourism": "hotel"}}, {"type": "way", "id": 537383454, "center": {"lat": 6.8466515, "lon": 79.9277218}, "nodes": [5203955291, 5203955290, 5203955289, 5203955288, 5203955291], "tags": {"addr:housenumber": "73/A", "addr:postcode": "10280", "addr:street": "High Level Road", "building": "yes", "internet_access": "wlan", "name:en": "New Lemon House", "opening_hours": "Mo-Su 06:00-22:00", "operator": "city one", "phone": "+94 11 2843066", "tourism": "hotel"}}, {"type": "way", "id": 539094736, "center": {"lat": 6.8839391, "lon": 79.8555092}, "nodes": [5216984039, 5216984040, 5216984041, 5216984042, 5216984039], "tags": {"building": "hotel", "building:colour": "blue", "building:levels": "6", "building:material": "metal_plates", "name": "Hotel Western", "roof:shape": "flat", "tourism": "hotel"}}, {"type": "way", "id": 556686958, "center": {"lat": 6.8362022, "lon": 79.8649564}, "nodes": [8988952440, 5369813962, 5369813963, 5369813964, 8988952440], "tags": {"addr:city": "Mount Lavinia", "building": "yes", "building:levels": "5", "name": "Palm Beach Hotel", "tourism": "hotel"}}, {"type": "way", "id": 580282922, "center": {"lat": 6.8266996, "lon": 79.9067694}, "nodes": [5555447292, 5555447206, 5555447293, 5555447282, 5555447161, 5555447294, 5555447226, 5555447212, 5555447292], "tags": {"building": "yes", "name": "KDU Guest House", "tourism": "guest_house"}}, {"type": "way", "id": 587974603, "center": {"lat": 6.8331602, "lon": 79.8668986}, "nodes": [5616352806, 5616352805, 5616352804, 5616352803, 5616352802, 5616352801, 5616352800, 5616352799, 5616352798, 5616352797, 5616352796, 5616352795, 5616352794, 5616352806], "tags": {"name": "Anarva Hotel", "tourism": "hotel"}}, {"type": "way", "id": 587989160, "center": {"lat": 6.8326035, "lon": 79.8652882}, "nodes": [5616491008, 5616491007, 5616491006, 5616491005, 5616491008], "tags": {"building": "yes", "tourism": "guest_house"}}, {"type": "way", "id": 587989161, "center": {"lat": 6.8326076, "lon": 79.8654933}, "nodes": [5616491012, 5616491011, 5616491010, 5616491009, 5616491012], "tags": {"building": "yes", "tourism": "guest_house"}}, {"type": "way", "id": 587989175, "center": {"lat": 6.832614, "lon": 79.8657074}, "nodes": [5616492272, 5616492271, 5616492270, 5616492269, 5616492272], "tags": {"building": "yes", "tourism": "guest_house"}}, {"type": "way", "id": 587989176, "center": {"lat": 6.8323078, "lon": 79.8661512}, "nodes": [5616492276, 5616492275, 5616492274, 5616492273, 5616492276], "tags": {"building": "yes", "tourism": "guest_house"}}, {"type": "way", "id": 587989177, "center": {"lat": 6.8322834, "lon": 79.8655334}, "nodes": [5616492280, 5616492279, 5616492278, 5616492277, 5616492280], "tags": {"building": "yes", "tourism": "guest_house"}}, {"type": "way", "id": 587989179, "center": {"lat": 6.8322938, "lon": 79.8660247}, "nodes": [5631671444, 5616492290, 5616492292, 5616492286, 5616492288, 5616492287, 5631671444], "tags": {"building": "yes", "tourism": "guest_house"}}, {"type": "way", "id": 587989181, "center": {"lat": 6.8323323, "lon": 79.8656821}, "nodes": [5616492300, 5616492299, 5616492298, 5616492297, 5616492300], "tags": {"amenity": "school", "building": "yes", "tourism": "guest_house"}}, {"type": "way", "id": 589745446, "center": {"lat": 6.832607, "lon": 79.8650043}, "nodes": [5631671283, 5631671282, 5631671280, 5631671284, 5631671285, 5631671286, 5631671283], "tags": {"building": "yes", "tourism": "guest_house"}}, {"type": "way", "id": 589745448, "center": {"lat": 6.8326274, "lon": 79.8651433}, "nodes": [5631671290, 5631671289, 5631671288, 5631671287, 5631671290], "tags": {"building": "yes", "tourism": "guest_house"}}, {"type": "way", "id": 589745449, "center": {"lat": 6.832368, "lon": 79.8658955}, "nodes": [5631671294, 5631671292, 5631671293, 5631671294], "tags": {"building": "yes", "tourism": "guest_house"}}, {"type": "way", "id": 589745465, "center": {"lat": 6.8327667, "lon": 79.8660563}, "nodes": [5631671470, 5631671469, 5631671466, 5631671473, 5631670660, 5631671472, 5631671475, 5631671476, 5631671468, 5631671471, 5631671470], "tags": {"building": "yes", "tourism": "guest_house"}}, {"type": "way", "id": 682185305, "center": {"lat": 6.8825129, "lon": 79.855923}, "nodes": [3053210058, 9704046135, 6388455761, 6388455755, 3053210058], "tags": {"addr:city": "Bambalapitiya", "addr:housenumber": "36-38", "addr:postcode": "4", "addr:street": "Clifford Place", "building": "hotel", "building:levels": "13", "name": "Radisson Hotel Colombo", "phone": "+94 11 255 5570", "start_date": "2014", "tourism": "hotel", "website": "https://www.radissonhotels.com/", "wheelchair": "yes"}}, {"type": "way", "id": 736445193, "center": {"lat": 6.949641, "lon": 79.919222}, "nodes": [4457420594, 7902699120, 3403270973, 7902699115, 3141186567, 6894973750, 6894973749, 6894973748, 6894973747, 6894973746, 2142190830, 1147985260, 733605951, 6894973743, 4457420594], "tags": {"name": "Vihara Mahadevi Rest House", "tourism": "guest_house"}}, {"type": "way", "id": 738825156, "center": {"lat": 6.906048, "lon": 79.9125961}, "nodes": [6918012100, 6918012098, 6918012102, 6918012099, 6918012104, 6918012101, 6918012097, 6918012103, 6918012100], "tags": {"building": "hotel", "name": "Water's Edge Hotel", "tourism": "hotel"}}, {"type": "way", "id": 766419018, "center": {"lat": 6.8753594, "lon": 79.8805104}, "nodes": [7158040259, 7158040258, 7158040257, 7158040256, 7158040259], "tags": {"building": "house", "tourism": "guest_house"}}, {"type": "way", "id": 766617357, "center": {"lat": 6.9249487, "lon": 79.8773286}, "nodes": [7159964773, 7159964770, 7159964771, 7159964772, 7159964773], "tags": {"building": "bank", "leisure": "sports_centre", "name": "Tract", "tourism": "hotel"}}, {"type": "way", "id": 839411973, "center": {"lat": 6.9284818, "lon": 79.8444322}, "nodes": [7833128786, 7833128785, 7833128784, 7833128783, 10220806963, 7833128786], "tags": {"addr:city": "Colombo 02", "addr:housenumber": "1", "addr:postcode": "00200", "addr:street": "Galle Road", "air_conditioning": "yes", "bar": "yes", "brand": "Shangri-La Hotels & Resorts", "building:levels": "39", "building:min_level": "7", "building:part": "hotel", "check_date": "2022-11-27", "email": "slcb@shangri-la.com", "height": "134", "image": "https://photos.app.goo.gl/HF2vryqufVESDrwbA", "internet_access": "yes", "internet_access:fee": "customers", "layer": "1", "name": "Shangri-La Hotel Colombo", "opening_hours": "24/7", "payment:cash": "yes", "payment:credit_cards": "yes", "payment:debit_cards": "yes", "phone": "+94 117 888 288", "reservation": "yes", "roof:shape": "flat", "rooms": "541", "stars": "5", "start_date": "2017", "tourism": "hotel", "website": "https://www.shangri-la.com/colombo/shangrila/", "wheelchair": "yes", "wikidata": "Q39048411", "wikipedia": "en:Shangri-La Colombo"}}, {"type": "way", "id": 875546524, "center": {"lat": 6.8909619, "lon": 80.1482423}, "nodes": [8149418820, 8149418819, 8149418818, 8149418817, 8149418816, 8149418815, 8149418814, 8149418813, 8149418812, 8149418811, 8149418810, 4746383394, 8149418809, 8149418808, 8149418807, 8149418806, 8149418820], "tags": {"addr:city": "Waga", "addr:street": "Kaluaggala-Labugama-Kalatuwawa Road", "internet_access": "yes", "name": "Orchidea Resort", "stars": "4", "tourism": "hotel"}}, {"type": "way", "id": 940247814, "center": {"lat": 6.9998938, "lon": 79.8687856}, "nodes": [8708148190, 8708148189, 8708148188, 8708148187, 8708148186, 8708148185, 8708148184, 660913874, 8708148190], "tags": {"addr:city": "Wattala", "addr:street": "Preethipura Road", "name": "Pegasus Reef Hotel", "tourism": "hotel"}}, {"type": "way", "id": 995224981, "center": {"lat": 6.8965293, "lon": 79.854647}, "nodes": [9190178340, 9190178342, 9190178344, 9190178345, 9190178340], "tags": {"addr:housenumber": "471-4/1", "addr:street": "Galle Road", "building": "hotel", "building:levels": "5", "tourism": "hotel", "website": "http://www.theresidence.lk/"}}, {"type": "way", "id": 1021604760, "center": {"lat": 6.9329723, "lon": 79.8418243}, "nodes": [9422242827, 9468271517, 9422242835, 9422242818, 269361912, 9468271514, 9422182512, 9422242831, 9468271515, 9422242839, 9422242828, 9468271518, 9422242851, 9422182501, 9422242843, 9422182510, 9422242830, 9422242841, 9422242842, 9422242829, 9422242847, 9422182503, 9422242827], "tags": {"addr:city": "Colombo 01", "addr:housenumber": "48", "addr:street": "Janadhipathi Mawatha", "check_date": "2025-12-22", "check_date:internet_access": "2025-12-22", "internet_access": "wlan", "name": "The Kingsbury", "official_name": "The Kingsbury PLC", "old_name": "Ceylon Intercontinental", "opening_hours": "24/7", "operator": "Hotel Services (Ceylon) PLC", "payment:american_express": "yes", "payment:cards": "yes", "payment:cash": "yes", "payment:credit_cards": "yes", "payment:debit_cards": "yes", "payment:mastercard": "yes", "phone": "+94 112 421 221", "reservation": "yes", "stars": "5", "tourism": "hotel", "website": "https://www.thekingsburyhotel.com/", "wheelchair": "yes", "wikidata": "Q4036011", "wikipedia": "en:The Kingsbury"}}, {"type": "way", "id": 1024129806, "center": {"lat": 6.8709694, "lon": 79.8623923}, "nodes": [9443765351, 9443765352, 9443765353, 9443765354, 9443765355, 10112825445, 10112825440, 9443765356, 9443765351], "tags": {"addr:city": "Wellawatte", "addr:housenumber": "371", "addr:postcode": "600", "addr:street": "Galle Road", "air_conditioning": "yes", "bar": "yes", "building": "hotel", "building:levels": "4", "check_date": "2023-04-16", "internet_access": "wlan", "internet_access:fee": "customers", "name": "Hotel Sapphire", "opening_hours": "24/7", "payment:cash": "yes", "payment:credit_cards": "yes", "payment:debit_cards": "yes", "phone": "0112 363 306", "reservation": "yes", "smoking": "separated", "stars": "3", "tourism": "hotel", "website": "https://www.hotelsapphirelk.com/", "wheelchair": "yes"}}, {"type": "way", "id": 1054624872, "center": {"lat": 6.9172364, "lon": 79.8582344}, "nodes": [9691391866, 9691391867, 9691391868, 9691391869, 9691391870, 9691391871, 9691391872, 9691391873, 9691391874, 9691391875, 9691391876, 9691391877, 9691391866], "tags": {"building": "yes", "internet_access": "yes", "name": "Residence on Park Street", "tourism": "hotel", "website": "https://www.residenceonparkstreet.com/"}}, {"type": "way", "id": 1056093734, "center": {"lat": 6.869218, "lon": 79.8620322}, "nodes": [667272176, 9704046167, 9704046168, 9704046169, 667272176], "tags": {"addr:city": "Wellawatte", "air_conditioning": "yes", "building": "yes", "name": "Omega Inn", "tourism": "hotel", "wheelchair": "limited"}}, {"type": "way", "id": 1061624974, "center": {"lat": 6.9000335, "lon": 79.8536507}, "nodes": [9753753741, 9753753740, 9753753739, 9753753738, 9753753741], "tags": {"addr:housenumber": "433", "addr:street": "Galle Road", "air_conditioning": "yes", "bar": "yes", "building": "yes", "building:levels": "11", "check_date": "2024-04-12", "email": "sales@mandarinacolombo.com", "height": "50", "internet_access": "wlan", "internet_access:fee": "customers", "name": "Mandarina Colombo", "opening_hours": "24/7", "payment:cash": "yes", "payment:credit_cards": "yes", "payment:debit_cards": "yes", "phone": "+94 112 550 660", "reservation": "yes", "stars": "5", "start_date": "2016", "tourism": "hotel", "website": "https://www.mandarinacolombo.com/", "wheelchair": "yes"}}, {"type": "way", "id": 1093762052, "center": {"lat": 6.879938, "lon": 79.9341261}, "nodes": [10017765994, 10017765992, 10017765989, 10017765990, 10017765991, 3841526083, 10017765993, 10017765994], "tags": {"air_conditioning": "no", "building": "hotel", "building:levels": "3", "layer": "1", "name": "Hotel Sanora", "roof:levels": "0", "roof:shape": "skillion", "tourism": "hotel", "wheelchair": "no"}}, {"type": "way", "id": 1198548107, "center": {"lat": 6.8710731, "lon": 80.0505051}, "nodes": [11118261465, 11118261466, 11118261467, 11118261468, 11118261465], "tags": {"building": "yes", "tourism": "hotel"}}, {"type": "way", "id": 1229424582, "center": {"lat": 6.9165826, "lon": 79.8702801}, "nodes": [5234514421, 11400744905, 11400744906, 11400744907, 5234514421], "tags": {"addr:city": "Colombo 07", "addr:street": "Ward Place", "building": "yes", "building:levels": "17", "check_date": "2024-08-09", "image": "https://photos.app.goo.gl/wtPKRSm157ecey676", "name": "Jetwing Colombo Seven", "operator": "Jetwing", "tourism": "hotel"}}, {"type": "way", "id": 1280154443, "center": {"lat": 6.8755968, "lon": 79.8730936}, "nodes": [11883491075, 11883491076, 11883491077, 11883491078, 11883491079, 11883491080, 11883491081, 11883491082, 11883491085, 11883491075], "tags": {"addr:city": "Colombo City Limit", "addr:housenumber": "82", "addr:postcode": "06", "addr:street": "Stratford Avenue", "air_conditioning": "yes", "bar": "yes", "building": "yes", "fax": "+94 112553436", "internet_access": "yes", "internet_access:fee": "customers", "mobile": "+94 765319800", "name": "D Pavilion", "opening_hours": "24/7", "phone": "+94 112553436", "rooms": "7", "tourism": "hotel"}}, {"type": "way", "id": 1348853552, "center": {"lat": 6.9251571, "lon": 79.8477704}, "nodes": [12477007258, 13640196839, 12477007259, 12477007263, 13640196838, 13640196837, 12477007250, 12477007251, 12477007255, 12477007252, 12477007249, 12477007258], "tags": {"addr:city": "Colombo 02", "addr:housenumber": "01", "addr:postcode": "00200", "addr:street": "Justice Akbar Mawatha", "brand": "Cinnamon Hotels", "building": "commercial", "building:levels": "8", "email": "hello@cinnamonhotels.com", "height": "40", "image": "https://photos.app.goo.gl/vN484MRYiKCagJj3A", "internet_access": "yes", "name": "Cinnamon Life at City of Dreams", "phone": "+94112220000", "tourism": "hotel", "website": "https://cinnamonhotels.com/cinnamonlife"}}, {"type": "way", "id": 1391576324, "center": {"lat": 6.8539488, "lon": 80.088747}, "nodes": [12880866325, 12880866326, 12880866327, 12880866328, 12880866325], "tags": {"building": "yes", "tourism": "guest_house"}}, {"type": "way", "id": 1391578773, "center": {"lat": 6.8583761, "lon": 80.0903247}, "nodes": [12880895072, 12880895073, 12880895074, 12880895075, 12880895072], "tags": {"building": "yes", "name": "kingland", "tourism": "hotel"}}, {"type": "way", "id": 1427033332, "center": {"lat": 6.8888738, "lon": 79.8776943}, "nodes": [13118747059, 13118747060, 13118747061, 13118747062, 13118747063, 13118747064, 13118747065, 13118747066, 13118747067, 13118747059], "tags": {"building": "yes", "tourism": "hotel"}}, {"type": "way", "id": 1430312630, "center": {"lat": 6.9201213, "lon": 79.8461345}, "nodes": [304311499, 13147645621, 13147645620, 13147635986, 13147645619, 304311499], "tags": {"addr:city": "Colombo 003", "addr:housenumber": "2", "addr:postcode": "00300", "addr:street": "Galle Road", "bar": "yes", "email": "information@gallefacehotel.com", "internet_access": "yes", "name": "Galle Face Hotel", "phone": "+94 11 254 1010", "rooms": "156", "tourism": "hotel", "website": "https://www.gallefacehotel.com/", "wikidata": "Q4039225", "wikimedia_commons": "Category:Galle Face Hotel", "wikipedia": "en:Galle Face Hotel"}}, {"type": "way", "id": 1472122128, "center": {"lat": 6.8957585, "lon": 79.8551086}, "nodes": [13507912972, 11402829287, 11402829288, 13507912973, 13507912974, 13507912975, 13507912976, 13507912977, 13507912978, 13507912979, 13507912980, 13507912972], "tags": {"brand": "InterContinental", "brand:wikidata": "Q1825730", "building": "yes", "building:levels": "37", "height": "180", "image": "https://photos.app.goo.gl/BGb8hW4Nt7ach1Dq9", "name": "Intercontinental Hotel Colombo", "start_date": "2022", "tourism": "hotel"}}, {"type": "relation", "id": 5914376, "center": {"lat": 6.9151515, "lon": 79.869985}, "members": [{"type": "way", "ref": 394250830, "role": "outer"}, {"type": "way", "ref": 394250831, "role": "inner"}], "tags": {"addr:city": "Colombo 07", "addr:housenumber": "65", "addr:street": "Rosmead Place", "building": "yes", "email": "reservations@tintagelcolombo.com", "name": "Tintagel Colombo", "operator": "Paradise Road", "phone": "+94 11 460 2060 / +94 11 460 2122", "tourism": "hotel", "type": "multipolygon", "website": "https://www.paradiseroadhotels.com/tintagel/"}}, {"type": "relation", "id": 12696443, "center": {"lat": 7.0521689, "lon": 79.8572038}, "members": [{"type": "way", "ref": 941512678, "role": "outer"}, {"type": "way", "ref": 941512679, "role": "outer"}], "tags": {"tourism": "hotel", "type": "multipolygon"}}]}