{"version": 0.6, "generator": "Overpass API 0.7.62.11 87bfad18", "osm3s": {"timestamp_osm_base": "2026-05-16T05:35:35Z", "copyright": "The data included in this document is from www.openstreetmap.org. The data is made available under ODbL."}, "elements": [{"type": "node", "id": 92132195, "lat": 6.9314456, "lon": 79.8460198, "tags": {"abbr_name": "SCR", "name": "Secretariat Halt", "network": "Coastal Line", "operator": "Sri Lanka Railways", "public_transport": "station", "railway": "station", "train": "yes"}}, {"type": "node", "id": 304322071, "lat": 6.9755509, "lon": 79.8993572, "tags": {"name": "Wanawasala", "public_transport": "station", "railway": "station"}}, {"type": "node", "id": 347323315, "lat": 7.0551005, "lon": 79.9372147, "tags": {"name": "Batuwatta", "railway": "station"}}, {"type": "node", "id": 599713337, "lat": 6.8412668, "lon": 80.0020131, "tags": {"addr:city": "Homagama", "addr:street": "High Level Road", "amenity": "bus_station", "bus": "yes", "name": "Homagama Central Bus Stand", "public_transport": "station", "wheelchair": "yes"}}, {"type": "node", "id": 619234325, "lat": 6.937547, "lon": 79.8790153, "tags": {"name": "Dematagoda", "public_transport": "station", "railway": "station"}}, {"type": "node", "id": 1128186650, "lat": 6.8417931, "lon": 80.0907678, "tags": {"amenity": "bus_station", "name": "Padukka Bus Station"}}, {"type": "node", "id": 1128187926, "lat": 6.9133542, "lon": 79.8845224, "tags": {"name": "Cotta Road", "public_transport": "station", "railway": "station"}}, {"type": "node", "id": 1128188042, "lat": 6.8830467, "lon": 79.8828978, "tags": {"name": "Kirulapona", "public_transport": "station", "railway": "station"}}, {"type": "node", "id": 1128188069, "lat": 6.8528888, "lon": 79.9178611, "tags": {"name": "Nawinna", "public_transport": "station", "railway": "station"}}, {"type": "node", "id": 1128190754, "lat": 6.8969122, "lon": 79.8780613, "tags": {"name": "Narahenpita", "public_transport": "station", "railway": "station", "wheelchair": "no"}}, {"type": "node", "id": 1128191571, "lat": 6.9406031, "lon": 80.1372925, "tags": {"addr:city": "Kosgama", "addr:postcode": "10730", "addr:street": "High Level Road", "internet_access": "no", "name": "Kosgama", "network": "National Railway Network", "public_transport": "station", "railway": "station", "train": "yes"}}, {"type": "node", "id": 1128191687, "lat": 6.9013533, "lon": 80.1276619, "tags": {"name": "Waga", "railway": "station"}}, {"type": "node", "id": 1128192639, "lat": 6.8622118, "lon": 79.9087271, "tags": {"name": "Udahamulla", "public_transport": "station", "railway": "station"}}, {"type": "node", "id": 1128193060, "lat": 6.8427474, "lon": 80.0911536, "tags": {"name": "Padukka", "railway": "station"}}, {"type": "node", "id": 1128194191, "lat": 6.926363, "lon": 79.8785882, "tags": {"name": "Baseline Road", "public_transport": "station", "railway": "station"}}, {"type": "node", "id": 1139279942, "lat": 7.0655794, "lon": 79.9454477, "tags": {"name": "Bulugahagoda", "railway": "station"}}, {"type": "node", "id": 1261082799, "lat": 6.8505585, "lon": 79.8719, "tags": {"amenity": "bus_station", "bus": "yes", "name": "Karagampitiya ", "public_transport": "station"}}, {"type": "node", "id": 1523693980, "lat": 6.8433607, "lon": 79.9239225, "tags": {"addr:city": "Maharagama", "amenity": "bus_station", "bus": "yes", "name": "CTB Depot", "public_transport": "station"}}, {"type": "node", "id": 1529276148, "lat": 6.8456146, "lon": 79.926205, "tags": {"amenity": "bus_station", "bus": "yes", "public_transport": "station"}}, {"type": "node", "id": 1662166663, "lat": 6.8481858, "lon": 79.9256137, "tags": {"amenity": "bus_station", "bus": "yes", "name": "Maharagama Bus Stand", "public_transport": "station"}}, {"type": "node", "id": 1664611736, "lat": 6.8330085, "lon": 79.8672728, "tags": {"amenity": "bus_station", "bus": "yes", "name": "Mount Lavinia Bus Stand", "public_transport": "station"}}, {"type": "node", "id": 1788271745, "lat": 6.8440393, "lon": 80.046063, "tags": {"amenity": "bus_station"}}, {"type": "node", "id": 1807855778, "lat": 7.0662794, "lon": 79.9611268, "tags": {"amenity": "bus_station", "name": "Bus Stand Ganemulla"}}, {"type": "node", "id": 1815548741, "lat": 6.9241865, "lon": 79.9270076, "tags": {"amenity": "bus_station", "name": "166 Bus Station"}}, {"type": "node", "id": 1862832376, "lat": 6.8693009, "lon": 80.1173053, "tags": {"name": "Pinnawala", "railway": "station"}}, {"type": "node", "id": 1918165072, "lat": 6.9360244, "lon": 79.9165498, "tags": {"amenity": "bus_station", "name": "Kotikawatta"}}, {"type": "node", "id": 1921371333, "lat": 6.9067802, "lon": 79.9261129, "tags": {"amenity": "bus_station", "bus": "yes", "name": "Thalangama Depot", "public_transport": "station"}}, {"type": "node", "id": 2034260183, "lat": 6.9358787, "lon": 79.8885393, "tags": {"amenity": "bus_station", "building": "garage", "bus": "yes", "name": "Meethotamulla", "public_transport": "station"}}, {"type": "node", "id": 2071095588, "lat": 6.8647897, "lon": 79.9111586, "tags": {"amenity": "bus_station", "bus": "yes", "name": "Udahamulla Bus Depot", "public_transport": "station"}}, {"type": "node", "id": 2093145092, "lat": 6.8445612, "lon": 79.9258732, "tags": {"amenity": "bus_station", "bus": "yes", "name": "Maharagama-Nugegoda", "public_transport": "station"}}, {"type": "node", "id": 2093145103, "lat": 6.845243, "lon": 79.9260878, "tags": {"amenity": "bus_station", "bus": "yes", "name": "Maharagama-Moratuwa", "public_transport": "station"}}, {"type": "node", "id": 2093145111, "lat": 6.8444728, "lon": 79.9260121, "tags": {"amenity": "bus_station", "bus": "yes", "name": "Maharagama-Piliyandala", "public_transport": "station"}}, {"type": "node", "id": 2096464851, "lat": 6.9370601, "lon": 79.8964948, "tags": {"amenity": "bus_station", "bus": "yes", "name": "Wellampityia Bus station", "public_transport": "station"}}, {"type": "node", "id": 2347304116, "lat": 6.9763026, "lon": 80.1206628, "tags": {"amenity": "bus_station", "name": "Pugoda Bus Station\u200e"}}, {"type": "node", "id": 2407558285, "lat": 7.0324394, "lon": 80.0282845, "tags": {"amenity": "bus_station", "name": "Weliweriya"}}, {"type": "node", "id": 2407690010, "lat": 7.0345428, "lon": 79.9906539, "tags": {"amenity": "bus_station", "bus": "yes", "name": "Kirillawala", "public_transport": "station"}}, {"type": "node", "id": 2648621439, "lat": 6.9610592, "lon": 79.8944725, "tags": {"name": "Kelaniya", "name:ur": "\u06a9\u0644\u0646\u06cc\u06c1", "public_transport": "station", "railway": "station"}}, {"type": "node", "id": 3091350958, "lat": 6.8529835, "lon": 80.1094043, "tags": {"name": "Angampitya", "railway": "station"}}, {"type": "node", "id": 3092123008, "lat": 6.8771479, "lon": 80.1231952, "tags": {"name": "Gammana", "public_transport": "station", "railway": "station", "train": "yes"}}, {"type": "node", "id": 3092365290, "lat": 6.8383604, "lon": 80.0797169, "tags": {"name": "Liyanwala", "railway": "station"}}, {"type": "node", "id": 3092570865, "lat": 6.8832238, "lon": 80.123948, "tags": {"name": "Morakele", "railway": "station"}}, {"type": "node", "id": 3092671587, "lat": 6.864956, "lon": 79.9022473, "tags": {"name": "Pangiriwatta", "railway": "station"}}, {"type": "node", "id": 3247327858, "lat": 6.8658302, "lon": 79.9282654, "tags": {"amenity": "bus_station", "bus": "yes", "public_transport": "station"}}, {"type": "node", "id": 3379528819, "lat": 6.8478462, "lon": 79.9274916, "tags": {"amenity": "bus_station", "bus": "yes", "name": "219 Bus Stand", "public_transport": "station"}}, {"type": "node", "id": 3403172051, "lat": 6.8574282, "lon": 79.9089976, "tags": {"amenity": "bus_station", "bus": "yes", "name": "Wijerama Bus Stop", "public_transport": "station"}}, {"type": "node", "id": 3403175025, "lat": 6.9555309, "lon": 79.8852167, "tags": {"amenity": "bus_station", "bus": "yes", "name": "Kelaniya Bus Depot", "public_transport": "station"}}, {"type": "node", "id": 3492756622, "lat": 6.9287793, "lon": 79.9274552, "tags": {"amenity": "bus_station", "name": "Angoda"}}, {"type": "node", "id": 3496483615, "lat": 6.9582607, "lon": 80.0164201, "tags": {"amenity": "bus_station"}}, {"type": "node", "id": 3714320125, "lat": 6.9517698, "lon": 79.9173689, "tags": {"amenity": "bus_station", "name": "Kelaniya Bus Stand"}}, {"type": "node", "id": 3730621129, "lat": 7.042678, "lon": 80.1300346, "tags": {"amenity": "bus_station", "name": "Kirindiwela Bus Station"}}, {"type": "node", "id": 3937750671, "lat": 6.8726803, "lon": 79.8919657, "tags": {"amenity": "bus_station", "bus": "yes", "name": "Nugegoda Bus Stand", "public_transport": "station"}}, {"type": "node", "id": 4487927782, "lat": 7.0282985, "lon": 79.9201792, "tags": {"amenity": "bus_station", "name": "Ragama Bus Station"}}, {"type": "node", "id": 4762471168, "lat": 6.8939771, "lon": 79.8529609, "tags": {"name": "Bambalapitiya", "public_transport": "stop_position", "railway": "station", "wheelchair": "no"}}, {"type": "node", "id": 5419504321, "lat": 6.9531538, "lon": 79.9190684, "tags": {"bus": "yes", "name:en": "Kelaniya Bus Station", "public_transport": "station"}}, {"type": "node", "id": 5549855429, "lat": 7.0294102, "lon": 79.9216788, "tags": {"amenity": "bus_station", "name": "Route 222 - Kadawatha"}}, {"type": "node", "id": 5769656114, "lat": 7.0747267, "lon": 79.9739, "tags": {"name": "Yagoda", "railway": "station"}}, {"type": "node", "id": 5769656115, "lat": 7.0299493, "lon": 79.921428, "tags": {"name": "Ragama", "public_transport": "station", "railway": "station"}}, {"type": "node", "id": 5769656116, "lat": 7.0165896, "lon": 79.918322, "tags": {"name": "Horape", "railway": "station"}}, {"type": "node", "id": 5769656117, "lat": 7.0004396, "lon": 79.9068341, "tags": {"name": "Enderamulla", "railway": "station"}}, {"type": "node", "id": 5769656118, "lat": 6.9877406, "lon": 79.9004906, "tags": {"name": "Hunupitiya", "railway": "station"}}, {"type": "node", "id": 5769697432, "lat": 7.0920985, "lon": 79.992772, "tags": {"name": "Gampaha", "railway": "station", "wikidata": "Q20717391"}}, {"type": "node", "id": 5769838365, "lat": 7.0929503, "lon": 79.8909487, "tags": {"name": "Tudella", "railway": "station"}}, {"type": "node", "id": 5769838366, "lat": 7.0777904, "lon": 79.8921517, "tags": {"name": "Ja ela", "railway": "station"}}, {"type": "node", "id": 5769838367, "lat": 7.0629149, "lon": 79.896002, "tags": {"name": "Kapuwatta", "railway": "station"}}, {"type": "node", "id": 5769838368, "lat": 7.04929, "lon": 79.9015367, "tags": {"name": "Kandana", "railway": "station"}}, {"type": "node", "id": 5769838369, "lat": 7.0381323, "lon": 79.9122199, "tags": {"name": "Peralanda", "railway": "station"}}, {"type": "node", "id": 5847983789, "lat": 6.9292373, "lon": 79.865796, "tags": {"name": "Maradana", "name:en": "Maradana Railway Station", "name:ml": "\u0d2e\u0d30\u0d41\u0d26\u0d3e\u0d28", "name:ta": "\u0bae\u0bb0\u0bc1\u0ba4\u0bbe\u0ba9\u0bc8", "public_transport": "station", "railway": "station", "train": "yes", "wheelchair": "no", "wikidata": "Q6754588", "wikipedia": "en:Maradana railway station"}}, {"type": "node", "id": 6158473478, "lat": 6.8956629, "lon": 79.8558978, "tags": {"amenity": "bus_station", "bus": "yes", "name": "154", "name:en": "Thummulla Roundabout Bus Stop", "network": "Bus", "public_transport": "station", "wheelchair": "no"}}, {"type": "node", "id": 6158486235, "lat": 6.8644621, "lon": 79.8597492, "tags": {"amenity": "bus_station", "bus": "yes", "name": "Kalmunai Private Bus", "public_transport": "station", "wheelchair": "no"}}, {"type": "node", "id": 6158493884, "lat": 6.8654953, "lon": 79.8594408, "tags": {"amenity": "bus_station", "bus": "yes", "name": "Jaffna / Batticaloa Private Bus", "public_transport": "station", "wheelchair": "no"}}, {"type": "node", "id": 6251353251, "lat": 6.987159, "lon": 79.9758097, "tags": {"amenity": "bus_station", "bus": "yes", "name": "Mawaramandiya Bus Stand", "public_transport": "station"}}, {"type": "node", "id": 6541919413, "lat": 6.9230404, "lon": 79.8496524, "tags": {"name": "Kompannavidiya", "network": "Coastal Line", "note": "Station name corrected based on Sri Lanka Railways Website", "operator": "Sri Lanka Railways", "public_transport": "station", "railway": "station", "train": "yes", "wikidata": "Q7539149", "wikipedia": "en:Kompannavidiya Railway Station"}}, {"type": "node", "id": 6615720010, "lat": 6.9794769, "lon": 79.8757799, "tags": {"addr:city": "Colombo", "addr:street": "New Negombo Rd", "amenity": "bus_station", "bus": "yes", "name": "Mattakuliya Bus station", "public_transport": "station"}}, {"type": "node", "id": 6631008191, "lat": 6.8743137, "lon": 79.8916136, "tags": {"addr:city": "Jayawardhanapura Kotte", "addr:housenumber": "B 120", "amenity": "bus_station", "bus": "yes", "name": "Nugegoda Bus Station", "network": "Nugegoda", "public_transport": "station"}}, {"type": "node", "id": 6632922963, "lat": 6.8788373, "lon": 79.8998505, "tags": {"addr:city": "nugegoda", "addr:street": "Kotte Road", "amenity": "bus_station", "bus": "yes", "name": "Kotte Rd/2nd Cross St", "network": "Nugegoda", "public_transport": "station"}}, {"type": "node", "id": 7571568170, "lat": 6.893674, "lon": 79.8529894, "tags": {"name": "Bambalapitiya", "network": "Coastal Line", "operator": "Sri Lanka Railways", "public_transport": "station", "railway": "station", "train": "yes"}}, {"type": "node", "id": 7571568171, "lat": 6.9113228, "lon": 79.8481929, "tags": {"name": "Kollupitiya", "name:ta": "\u0b95\u0bca\u0bb3\u0bcd\u0bb3\u0bc1\u0baa\u0bbf\u0b9f\u0bcd\u0b9f\u0bbf", "network": "Coastal Line", "operator": "Sri Lanka Railways", "public_transport": "station", "railway": "station", "train": "yes"}}, {"type": "node", "id": 8158766889, "lat": 6.9337144, "lon": 80.1880442, "tags": {"name": "Puwakpitiya", "railway": "station"}}, {"type": "node", "id": 8997200408, "lat": 6.8479029, "lon": 80.0328649, "tags": {"name": "Godagama", "railway": "station"}}, {"type": "node", "id": 9130911351, "lat": 6.8020833, "lon": 79.9250648, "tags": {"amenity": "bus_station", "bus": "yes", "name": "Piliyandala New Bus Stand", "public_transport": "station"}}, {"type": "node", "id": 10046923330, "lat": 6.8509082, "lon": 79.8621137, "tags": {"name": "Dehiwala", "network": "Coastal Line", "operator": "Sri Lanka Railways", "public_transport": "station", "railway": "station", "train": "yes"}}, {"type": "node", "id": 10050777317, "lat": 6.8431734, "lon": 80.0598726, "tags": {"name": "Watareka", "public_transport": "station", "railway": "station"}}, {"type": "node", "id": 10050777326, "lat": 6.846941, "lon": 80.0190057, "tags": {"name": "Panagoda", "public_transport": "station", "railway": "station", "train": "yes"}}, {"type": "node", "id": 10050777328, "lat": 6.8456046, "lon": 80.0042414, "tags": {"name": "Homagama", "public_transport": "station", "railway": "station"}}, {"type": "node", "id": 10050777335, "lat": 6.8457616, "lon": 79.992439, "tags": {"name": "Homagama Hospital", "public_transport": "station", "railway": "station"}}, {"type": "node", "id": 10050777338, "lat": 6.8440838, "lon": 79.9750754, "tags": {"name": "Malapalla", "public_transport": "station", "railway": "station"}}, {"type": "node", "id": 10050777350, "lat": 6.8473816, "lon": 79.9488784, "tags": {"name": "Pannipitiya", "public_transport": "station", "railway": "station", "shelter": "yes"}}, {"type": "node", "id": 10050777356, "lat": 6.8480166, "lon": 79.9271848, "tags": {"name": "Maharagama", "public_transport": "station", "railway": "station"}}, {"type": "node", "id": 10588777058, "lat": 7.0052104, "lon": 79.9544555, "tags": {"amenity": "bus_station", "bus": "yes", "name:en": "Kadawatha Highway Bus Stand", "public_transport": "station"}}, {"type": "node", "id": 10588777059, "lat": 6.8407693, "lon": 79.9756799, "tags": {"amenity": "bus_station", "bus": "yes", "fixme": "Move to exact location", "name:en": "Makumbura Highway Bus Stand", "public_transport": "station"}}, {"type": "node", "id": 11843006169, "lat": 6.8509062, "lon": 79.8623123, "tags": {"addr:street": "Railway Station Road", "amenity": "bus_station", "name:en": "Dehiala railway station"}}, {"type": "node", "id": 12100587582, "lat": 6.9892639, "lon": 79.8930629, "tags": {"amenity": "bus_station", "bus": "yes", "public_transport": "station", "survey:date": "2024-08-09"}}, {"type": "node", "id": 12670315153, "lat": 6.9180501, "lon": 80.1348044, "tags": {"name": "Kadugoda", "public_transport": "station", "railway": "station", "train": "yes"}}, {"type": "node", "id": 13447631673, "lat": 6.9333986, "lon": 79.8503417, "tags": {"image": "https://photos.app.goo.gl/2T66uuMWyTFmz7pE8", "name": "Colombo Fort", "public_transport": "station", "railway": "station", "train": "yes"}}, {"type": "way", "id": 200567908, "center": {"lat": 6.9336106, "lon": 79.8553172}, "nodes": [2105382117, 2105382103, 2105382087, 5385270035, 2105382098, 5385270034, 5385270036, 2105382104, 2105382117], "tags": {"amenity": "bus_station", "bus": "yes", "landuse": "industrial", "name": "Pettah Private Bus Station", "name:ru": "\u041e\u0441\u0442\u0430\u043d\u043e\u0432\u043a\u0430 \u044d\u043a\u0441\u043f\u0440\u0435\u0441\u0441\u043e\u0432", "opening_hours": "24/7", "public_transport": "station"}}, {"type": "way", "id": 232407774, "center": {"lat": 7.0837708, "lon": 80.0231046}, "nodes": [2407611383, 2407611382, 2407611390, 2407611385, 2407611396, 2407611395, 2407611397, 2407611383], "tags": {"amenity": "bus_station", "name": "Gampaha CTB Depot"}}, {"type": "way", "id": 232514810, "center": {"lat": 6.9337266, "lon": 79.8500802}, "nodes": [2408621976, 13660303933, 4762469925, 2408621977, 13683451311, 13683451310, 2408621978, 4762469970, 13660303932, 4762469926, 13683451360, 2408621976], "tags": {"building": "train_station", "image": "https://photos.app.goo.gl/tjUynWZ51Yme3Y7i9", "layer": "1", "name": "Colombo Fort", "name:ml": "\u0d15\u0d4a\u0d33\u0d02\u0d2c\u0d4b \u0d15\u0d4b\u0d1f\u0d4d\u0d1f", "name:ta": "\u0b95\u0bca\u0bb4\u0bc1\u0bae\u0bcd\u0baa\u0bc1 \u0b95\u0bcb\u0b9f\u0bcd\u0b9f\u0bc8", "public_transport": "station", "railway": "station", "train": "yes", "url": "https://youtu.be/lRgZrUcZMCA?si=dVP_ZkNbjPQgruJ9", "wikidata": "Q5471883", "wikipedia": "en:Fort railway station"}}, {"type": "way", "id": 240247529, "center": {"lat": 7.0295062, "lon": 79.9214306}, "nodes": [2479879127, 9881048601, 9882115379, 9882115384, 9882115387, 9882115390, 9882115391, 9882115394, 9882115396, 9882115397, 9882115400, 9882115401, 9882115403, 9882115405, 9882115407, 2479879128, 9881048600, 2479879131, 2479879132, 2479879133, 2479879134, 2479879127], "tags": {"landuse": "railway", "name": "Ragama", "public_transport": "station"}}, {"type": "way", "id": 253553671, "center": {"lat": 7.0003699, "lon": 79.9068454}, "nodes": [2594685146, 2594685148, 2594685149, 2594685150, 2594685151, 2594685153, 2594685146], "tags": {"area": "yes", "name": "Enderamulla", "public_transport": "station", "railway": "halt"}}, {"type": "way", "id": 256398248, "center": {"lat": 6.9033609, "lon": 79.9552056}, "nodes": [2620521100, 2620521101, 2620521102, 2620521103, 2620521100], "tags": {"addr:city": "Malabe", "addr:street": "Kotte - Bope Road", "amenity": "bus_station", "bus": "yes", "name": "Malabe Bus station", "public_transport": "station"}}, {"type": "way", "id": 258877261, "center": {"lat": 6.9112897, "lon": 79.8481563}, "nodes": [2641889109, 2641889110, 13663671475, 2641889165, 13663671613, 13663671606, 13663671450, 2641889154, 13663671601, 13663671476, 13663671466, 2641889109], "tags": {"building": "train_station", "name": "Kollupitiya", "public_transport": "station"}}, {"type": "way", "id": 286530117, "center": {"lat": 7.0052211, "lon": 79.9546749}, "nodes": [2902120377, 2902120379, 2902120380, 2902120385, 2902120377], "tags": {"addr:city": "Kadawatha", "addr:street": "Kadawatha-Ganemulla Road", "amenity": "bus_station", "building": "yes", "building:levels": "2", "bus": "yes", "name:en": "Kadawatha Bus Stand", "public_transport": "station"}}, {"type": "way", "id": 287241117, "center": {"lat": 7.0684269, "lon": 79.960676}, "nodes": [2908748943, 2908748944, 2908748945, 2908748946, 2908748943], "tags": {"building": "train_station", "building:foundation_height": "less_than_1", "building:levels": "1", "building:material": "plaster", "name": "Ganemulla railway station", "railway": "station", "roof:material": "tile", "roof:shape": "2 face (pitched)"}}, {"type": "way", "id": 287420904, "center": {"lat": 6.9361767, "lon": 79.9832729}, "nodes": [2910213535, 3516451601, 2910213536, 4253798872, 2910213537, 2910213538, 2910213539, 2910213540, 2910213541, 2910213542, 3792512911, 2910213535], "tags": {"amenity": "bus_station", "bus": "yes", "name": "Kaduwela Bus Stand", "public_transport": "station"}}, {"type": "way", "id": 291036786, "center": {"lat": 6.8437324, "lon": 79.9682677}, "nodes": [8988952438, 2945103973, 2945103974, 2945103975, 8988952438], "tags": {"addr:city": "Kottawa", "building": "train_station", "name": "Kottawa", "name:si": "\u0d9a\u0ddc\u0da7\u0dca\u0da7\u0dcf\u0dc0", "public_transport": "station", "railway": "station"}}, {"type": "way", "id": 319055606, "center": {"lat": 6.9039188, "lon": 79.9544274}, "nodes": [3254726368, 3254726369, 3254726370, 3254726371, 3254726372, 3254726373, 3254726368], "tags": {"amenity": "bus_station", "bus": "yes", "name": "Malabe Bus Station", "public_transport": "station"}}, {"type": "way", "id": 319057681, "center": {"lat": 6.8261733, "lon": 79.8686977}, "nodes": [3254759288, 3254759289, 3254759290, 11445455172, 3254759291, 1138077992, 1138078187, 3254759288], "tags": {"amenity": "bus_station", "bus": "yes", "name": "CTB Depot"}}, {"type": "way", "id": 320613588, "center": {"lat": 6.9296918, "lon": 79.8655137}, "nodes": [3272122561, 3272122562, 4027974270, 4027974269, 4027974268, 4027974267, 4027974266, 4027974265, 4027974264, 3272122564, 4027974263, 4027974262, 3272122561], "tags": {"addr:city": "Maradana", "addr:street": "Jayantha Weerasekara MV", "building": "yes", "layer": "1", "name": "Diesel Electric Locomotive Shed", "public_transport": "station", "railway": "halt", "train": "yes"}}, {"type": "way", "id": 330080305, "center": {"lat": 6.9223107, "lon": 79.9141842}, "nodes": [3370449981, 3370449982, 3370449983, 3370449984, 3370449981], "tags": {"amenity": "bus_station", "building": "yes"}}, {"type": "way", "id": 330190252, "center": {"lat": 6.865673, "lon": 79.927769}, "nodes": [3371428210, 4948511724, 3865350161, 3865350160, 3371428214, 4948511725, 3371428210], "tags": {"amenity": "bus_station", "bus": "yes", "name": "New Hospital", "public_transport": "station"}}, {"type": "way", "id": 355229914, "center": {"lat": 6.9350157, "lon": 79.8546265}, "nodes": [8990083802, 9496416985, 3608395602, 9496416986, 3608395605, 3608395604, 9496416980, 5385270018, 9496416979, 3608395593, 9496416981, 5385270013, 9496416982, 5385270011, 619237154, 3608393384, 5385270025, 5385270027, 9496416983, 5385270031, 9496416984, 3608395595, 8990083802], "tags": {"amenity": "bus_station", "building": "yes", "building:levels": "2", "bus": "yes", "designation": "Central Bus Station", "int_name": "Central Bus Station", "name": "Central Bus Station", "name:ru": "\u0426\u0435\u043d\u0442\u0440\u0430\u043b\u044c\u043d\u044b\u0439 \u0430\u0432\u0442\u043e\u0432\u043e\u043a\u0437\u0430\u043b", "public_transport": "station", "toilets:wheelchair": "no", "wheelchair": "no", "wikidata": "Q5060488"}}, {"type": "way", "id": 376485188, "center": {"lat": 7.0935324, "lon": 79.9934986}, "nodes": [3798968104, 3798968110, 11068235087, 3798968311, 3798968297, 3798968104], "tags": {"building": "train_station", "building:foundation_height": "1_to_1.5", "building:levels": "1", "building:material": "plaster", "public_transport": "station", "railway": "station", "roof:material": "asbestos", "roof:shape": "gabled"}}, {"type": "way", "id": 376487144, "center": {"lat": 7.0935036, "lon": 79.9935986}, "nodes": [3798986660, 3798986665, 3798986744, 3798986740, 3798986735, 3798986733, 3798986715, 3798986717, 3798986712, 3798986706, 3798986673, 3798986676, 3798986660], "tags": {"building": "train_station", "building:foundation_height": "1_to_1.5", "building:levels": "1", "building:material": "plaster", "layer": "1", "name": "Gampaha Railway Station", "public_transport": "station", "railway": "station", "roof:material": "asbestos", "roof:shape": "gabled"}}, {"type": "way", "id": 379720199, "center": {"lat": 7.0685935, "lon": 79.9606244}, "nodes": [4066353696, 4066353697, 4066353700, 4066353699, 3830478268, 3830478269, 3830478274, 3830478273, 3830478272, 2908748940, 2908748941, 2908748942, 4066353696], "tags": {"building": "train_station", "building:foundation_height": "less_than_1", "building:levels": "1", "building:material": "plaster", "name": "Ganemulla railway station", "railway": "station", "roof:material": "tile", "roof:shape": "2 face (pitched)"}}, {"type": "way", "id": 383031713, "center": {"lat": 7.0787161, "lon": 79.890046}, "nodes": [3862340802, 3862340801, 3862340779, 3862340783, 3862340802], "tags": {"amenity": "bus_station", "building": "bus_station", "building:age": "more_than_30", "building:foundation_height": "less_than_1", "building:levels": "2", "building:material": "plaster", "name": "CTB bus station", "roof:material": "asbestos", "roof:shape": "gabled"}}, {"type": "way", "id": 400153469, "center": {"lat": 6.9284329, "lon": 79.8649095}, "nodes": [4027670889, 13663640320, 4027670890, 4027671089, 4027671090, 13685180778, 4027670891, 4027670892, 4027670893, 4027671189, 4027671091, 4027671092, 13663640339, 4027670889], "tags": {"building": "train_station", "name": "Maradana", "operator": "Sri Lanka Railways", "public_transport": "station", "railway": "station", "wikipedia": "en:Maradana railway station"}}, {"type": "way", "id": 400562343, "center": {"lat": 7.0492692, "lon": 79.9015372}, "nodes": [4031108050, 4031108051, 4031108052, 4031108053, 4031108050], "tags": {"building": "train_station", "name": "Kandana", "network": "Sri Lanka Railways", "operator": "Sri Lanka Railways", "railway": "station"}}, {"type": "way", "id": 400566453, "center": {"lat": 7.0381229, "lon": 79.9122223}, "nodes": [4031130717, 4031130718, 4031130719, 4031130720, 4031130717], "tags": {"building": "train_station", "name": "Peralanda", "network": "Sri Lanka Railways", "operator": "Sri Lanka Railways", "railway": "station"}}, {"type": "way", "id": 401634484, "center": {"lat": 6.8937206, "lon": 79.8529671}, "nodes": [4040439693, 4040439694, 4040439691, 4040439695, 4040439696, 4040439693], "tags": {"building": "train_station", "name": "Bambalapitiya", "network": "Sri Lanka Railways", "public_transport": "station", "railway": "station", "wheelchair": "no"}}, {"type": "way", "id": 401635566, "center": {"lat": 6.8152409, "lon": 79.8667473}, "nodes": [4040451098, 4040451099, 4040451106, 4040451100, 13507781610, 13507781609, 4040451101, 13507781608, 13507781607, 4040451098], "tags": {"building": "yes", "name": "Ratmalana", "name:si": "\u0dbb\u0dad\u0dca\u0db8\u0dbd\u0dcf\u0db1", "public_transport": "station", "railway": "station"}}, {"type": "way", "id": 405221642, "center": {"lat": 7.0917876, "lon": 79.9925747}, "nodes": [4074496267, 4074496268, 4074496269, 4074496270, 4074496267], "tags": {"amenity": "bus_station", "bus": "yes", "name": "Gampaha Bus Station", "public_transport": "station"}}, {"type": "way", "id": 405263894, "center": {"lat": 7.0938841, "lon": 79.9941048}, "nodes": [4074751622, 3891342137, 3891342135, 4074751619, 3798968152, 3798968260, 4074751620, 3830421001, 3830421003, 4074751621, 3830418460, 3830418456, 3830452083, 3830418452, 4074751622], "tags": {"building": "yes", "building:foundation_height": "1_to_1.5", "building:levels": "2", "building:material": "plaster", "name": "Gampaha Railway Station", "operator": "government", "public_transport": "station", "railway": "station", "roof:material": "asbestos", "roof:shape": "gabled", "train": "yes"}}, {"type": "way", "id": 406388507, "center": {"lat": 7.0778002, "lon": 79.8919509}, "nodes": [4084592433, 4084592431, 4084592430, 4084592432, 4084592433], "tags": {"building": "train_station", "building:age": "more_than_30", "building:foundation_height": "less_than_1", "building:levels": "1", "building:material": "plaster", "name": "Ja-Ela", "railway": "station", "roof:material": "tile", "roof:shape": "gabled", "train": "yes"}}, {"type": "way", "id": 417221854, "center": {"lat": 7.085018, "lon": 79.9097719}, "nodes": [4178119547, 4178119548, 4178119546, 4178119545, 4178119547], "tags": {"amenity": "bus_station", "building": "utility", "building:age": "more_than_20", "building:foundation_height": "less_than_1", "building:levels": "1", "building:material": "roof_without_wall", "roof:material": "concrete", "roof:shape": "lean_to"}}, {"type": "way", "id": 417440987, "center": {"lat": 7.0867377, "lon": 79.912275}, "nodes": [4180012692, 4180012693, 4180012691, 4180012690, 4180012692], "tags": {"amenity": "bus_station", "building": "utility", "building:age": "10_to_20", "building:foundation_height": "1_to_1.5", "building:levels": "1", "building:material": "plaster", "roof:material": "concrete", "roof:shape": "lean_to"}}, {"type": "way", "id": 429049158, "center": {"lat": 7.078932, "lon": 79.8895989}, "nodes": [4281732951, 4281732948, 4281732946, 4281732944, 4281732939, 4281732937, 4281732936, 4281732935, 4281732932, 4281732931, 4281732929, 4281732928, 4281732930, 4281732933, 4281732934, 4281732938, 4281732941, 4281732940, 4281732942, 4281732943, 4281732945, 4281732947, 4281732949, 4281732950, 4281732955, 4281732957, 4281732958, 4281732956, 4281732954, 4281732953, 4281732952, 4281732951], "tags": {"amenity": "bus_station", "name": "Jaela Depot"}}, {"type": "way", "id": 516597661, "center": {"lat": 6.8720836, "lon": 79.8906835}, "nodes": [5042767915, 5042767914, 5042767910, 5042767912, 5042767911, 5042767913, 5042767907, 5042767916, 5042767908, 5042767919, 5042767918, 5042767920, 5042767909, 5042767917, 5042767906, 5042767915], "tags": {"building": "train_station", "name": "Nugegoda", "public_transport": "station", "railway": "station"}}, {"type": "way", "id": 531909928, "center": {"lat": 6.930584, "lon": 79.857842}, "nodes": [5162586844, 5162586845, 5162586843, 5162586838, 5162586842, 5162586839, 5162586844], "tags": {"building": "yes", "layer": "1", "public_transport": "station", "railway": "station", "train": "yes"}}, {"type": "way", "id": 531909951, "center": {"lat": 6.9297109, "lon": 79.859337}, "nodes": [5162587845, 5162587844, 5162587843, 5162587842, 5162587845], "tags": {"building": "yes", "layer": "1", "public_transport": "station", "railway": "station", "train": "yes"}}, {"type": "way", "id": 531909952, "center": {"lat": 6.9307265, "lon": 79.8584979}, "nodes": [5162587849, 5162587846, 5162587847, 5162587848, 5162587849], "tags": {"building": "yes", "layer": "1", "public_transport": "station", "railway": "station", "train": "yes"}}, {"type": "way", "id": 531909953, "center": {"lat": 6.9312793, "lon": 79.8580105}, "nodes": [5162587853, 5162587852, 5162587851, 5162587850, 5162587853], "tags": {"building": "yes", "layer": "1", "public_transport": "station", "railway": "station", "train": "yes"}}, {"type": "way", "id": 534188450, "center": {"lat": 6.9797327, "lon": 79.9302217}, "nodes": [5181175510, 5181175509, 5181175498, 5181175496, 5181175510], "tags": {"amenity": "bus_station", "bus": "yes", "name": "Kiribathgoda Bus Stand", "public_transport": "station"}}, {"type": "way", "id": 609704974, "center": {"lat": 7.0472266, "lon": 79.9311878}, "nodes": [5774748458, 5774748459, 5774748460, 5774748461, 5774748458], "tags": {"building": "yes", "name": "Walpola", "operator": "Sri Lanka Railway", "public_transport": "station", "railway": "station", "train": "yes"}}, {"type": "way", "id": 613202379, "center": {"lat": 6.8469127, "lon": 80.0189929}, "nodes": [5802791858, 5802791857, 5802791856, 5802791855, 5802791858], "tags": {"building": "train_station", "name": "Panagoda", "public_transport": "station", "railway": "station"}}, {"type": "way", "id": 724564794, "center": {"lat": 6.8405853, "lon": 79.9764039}, "nodes": [6795265180, 6795291087, 6795291118, 6795265176, 6795291107, 6795265168, 6795265180], "tags": {"building": "yes", "building:levels": "0", "name": "Makubura Railway Station", "public_transport": "station", "railway": "station", "train": "yes"}}, {"type": "way", "id": 724564798, "center": {"lat": 6.8407167, "lon": 79.9759658}, "nodes": [6795291094, 6795265173, 6795291103, 6795291121, 6795291119, 6795265170, 6795291131, 6795291102, 6795291099, 6795291130, 6795265172, 6795291108, 6795291124, 6795265174, 6795265162, 6795291128, 6795291125, 6795291117, 6795291098, 6795291133, 6795291086, 8625611142, 6795265175, 6795291100, 6795291105, 6795291134, 6795291090, 6795265166, 6795291094], "tags": {"amenity": "bus_station", "bus": "yes", "description": "long distance bus station", "name:en": "Makumbura Multimodal Center", "public_transport": "station"}}, {"type": "way", "id": 733187083, "center": {"lat": 6.8435499, "lon": 80.0462036}, "nodes": [6865936392, 6865936391, 6865936390, 6865936389, 6865936392], "tags": {"building": "commercial", "name": "meegoda train station", "public_transport": "station", "railway": "station", "train": "yes"}}, {"type": "way", "id": 733187086, "center": {"lat": 6.8433667, "lon": 80.0462514}, "nodes": [6865936404, 6865936403, 6865936402, 6865936401, 6865936404], "tags": {"building": "yes", "name": "Meegoda", "public_transport": "station", "railway": "station", "train": "yes"}}, {"type": "way", "id": 736445200, "center": {"lat": 6.9533309, "lon": 79.9195407}, "nodes": [6894990415, 13646507020, 3399683457, 4194818573, 13646507021, 4194818571, 635895564, 6894990438, 6894990423, 6894990411, 6894990422, 6894990421, 6894990420, 6894990419, 6894973759, 6894990418, 6894990417, 6894973758, 6894990416, 13646507155, 6894990415], "tags": {"amenity": "bus_station", "name": "Kelaniya Bus Stand Parking"}}, {"type": "way", "id": 742133987, "center": {"lat": 7.0920012, "lon": 79.9916156}, "nodes": [3797644259, 3797644263, 3797644264, 3797644266, 3797644268, 3797644271, 3797644274, 3799725186, 3799732705, 3797644275, 3797644285, 3797644286, 3797644288, 3797644291, 3797644293, 11070789638, 11070789639, 11070789640, 11070789641, 4330511212, 4330511210, 4330511208, 4330511206, 4330511203, 4330511201, 4330511199, 4330511198, 4330511196, 4330511193, 4330511190, 4330511188, 4330511187, 3289433869, 3289433736, 3289433747, 3289433753, 1869646074, 3797643873, 3797643879, 3797643888, 3797643899, 3797643904, 3797643917, 3797643923, 3797643938, 3797643948, 3797644158, 3797644173, 3797644183, 3797644192, 3797644202, 3797644212, 3797644223, 3797644233, 3797644241, 3797644248, 3797644245, 3797644236, 3797644230, 6947892448, 3797644259], "tags": {"amenity": "bus_station", "bus": "yes", "name": "Gampaha Bus Station", "public_transport": "station"}}, {"type": "way", "id": 764951559, "center": {"lat": 6.8401857, "lon": 79.9998932}, "nodes": [7145304903, 7145304904, 7145304905, 7145304906, 7145304903], "tags": {"amenity": "bus_station", "building": "yes", "bus": "yes", "name": "Homagama Bus Stand", "public_transport": "station"}}, {"type": "way", "id": 971368295, "center": {"lat": 6.9351235, "lon": 79.8544126}, "nodes": [3608395600, 13680355782, 8990083802, 3608395595, 13680355781, 3608395596, 3608395600], "tags": {"amenity": "bus_station", "building": "roof", "bus": "yes", "designation": "Central Bus Station", "int_name": "Central Bus Station", "name": "Central Bus Station", "name:ru": "\u0426\u0435\u043d\u0442\u0440\u0430\u043b\u044c\u043d\u044b\u0439 \u0430\u0432\u0442\u043e\u0432\u043e\u043a\u0437\u0430\u043b", "public_transport": "station", "toilets:wheelchair": "no", "wheelchair": "no", "wikidata": "Q5060488"}}, {"type": "way", "id": 971368296, "center": {"lat": 6.9351859, "lon": 79.8543027}, "nodes": [3608393390, 3608393391, 13702369464, 13702369465, 3608395607, 3608395606, 3608395600, 3608395596, 3608393390], "tags": {"amenity": "bus_station", "building": "yes", "building:levels": "2", "bus": "yes", "designation": "Central Bus Station", "int_name": "Central Bus Station", "name": "Central Bus Station", "name:ru": "\u0426\u0435\u043d\u0442\u0440\u0430\u043b\u044c\u043d\u044b\u0439 \u0430\u0432\u0442\u043e\u0432\u043e\u043a\u0437\u0430\u043b", "public_transport": "station", "toilets:wheelchair": "no", "wheelchair": "no", "wikidata": "Q5060488"}}, {"type": "way", "id": 1030162925, "center": {"lat": 6.9353038, "lon": 79.854032}, "nodes": [9496416975, 13679836752, 9496416976, 9496416977, 13679836751, 9496416978, 9496416975], "tags": {"amenity": "bus_station", "building": "yes", "bus": "yes", "layer": "1", "public_transport": "station"}}, {"type": "way", "id": 1150594092, "center": {"lat": 7.032886, "lon": 80.0279633}, "nodes": [10703215662, 10703215663, 10703215664, 10703215665, 10703215666, 10703215662], "tags": {"amenity": "bus_station", "bus": "yes", "highway": "platform", "public_transport": "station"}}, {"type": "way", "id": 1192251147, "center": {"lat": 7.0935051, "lon": 79.9935624}, "nodes": [3798986660, 3798986665, 3798968104, 3798968110, 11068235087, 3798968311, 3798968297, 3798986744, 3798986740, 3798986735, 3798986733, 3798986715, 3798986717, 3798986706, 3798986673, 3798986660], "tags": {"internet_access": "wlan", "internet_access:fee": "no", "name": "Gampaha railway station", "public_transport": "station", "train": "yes", "tram": "yes"}}, {"type": "way", "id": 1262810111, "center": {"lat": 6.9359393, "lon": 79.9828105}, "nodes": [11733279508, 11733279518, 11733279519, 11733279520, 11733279521, 11733279522, 11733279523, 11733279524, 11733279525, 11733279526, 11733279527, 11733279528, 11733279529, 11577987917, 403816235, 13806117680, 4369423349, 11733279530, 11733279531, 11733279532, 11733279533, 11733279515, 11733279514, 11733279513, 11733279512, 11733279511, 11733279510, 11733279493, 11733279509, 11733279508], "tags": {"amenity": "bus_station", "bus": "yes", "name": "Kaduwela Bus Terminal", "operator": "Public", "public_transport": "station"}}, {"type": "way", "id": 1290148402, "center": {"lat": 6.8396673, "lon": 79.9997182}, "nodes": [11962035704, 11962035703, 11962035702, 11962035701, 11962035704], "tags": {"amenity": "bus_station", "building": "yes", "name": "Homagama Bus Station"}}, {"type": "relation", "id": 6025358, "center": {"lat": 6.9229273, "lon": 79.8496464}, "members": [{"type": "way", "ref": 401634476, "role": "outer"}, {"type": "way", "ref": 401634477, "role": "outer"}], "tags": {"building": "roof", "name": "Kompannavidiya", "note": "Train Station name updated based on Sri Lanka Railways Website", "public_transport": "station", "railway": "station", "train": "yes", "type": "multipolygon", "wikipedia": "en:Kompannavidiya Railway Station"}}, {"type": "relation", "id": 6025359, "center": {"lat": 6.8750183, "lon": 79.8574596}, "members": [{"type": "way", "ref": 401634486, "role": "outer"}], "tags": {"building": "train_station", "name": "Wellawatta", "platforms": "1", "public_transport": "station", "railway": "station", "type": "multipolygon"}}, {"type": "relation", "id": 6025361, "center": {"lat": 6.8317253, "lon": 79.8627768}, "members": [{"type": "way", "ref": 401634498, "role": "outer"}, {"type": "way", "ref": 401634497, "role": "outer"}], "tags": {"addr:city": "Mount Lavinia", "addr:street": "Station Road", "building": "train_station", "name": "Mount Lavinia", "network": "Sri Lanka Railways", "operator": "asanka", "public_transport": "station", "railway": "station", "train": "yes", "type": "multipolygon"}}]}